{"tracks":[{"id":"trk-1","threatClass":"drone","points":[{"lat":57.6615,"lon":39.6878,"time":"2026-07-16T08:11:09+00:00","location":"Сарафоново","status":"unknown","count":null},{"lat":57.87,"lon":39.5308,"time":"2026-07-16T08:16:43+00:00","location":"Тутаев","status":"approaching","count":null}],"firstSeen":"2026-07-16T08:11:09+00:00","lastSeen":"2026-07-16T08:16:43+00:00","ended":false,"distanceKm":25},{"id":"trk-5","threatClass":"drone","points":[{"lat":45.1903,"lon":33.3669,"time":"2026-07-16T16:41:47+00:00","location":"Евпатория","status":"unknown","count":null},{"lat":45.1356,"lon":33.5994,"time":"2026-07-16T16:41:47+00:00","location":"Саки","status":"unknown","count":null}],"firstSeen":"2026-07-16T16:41:47+00:00","lastSeen":"2026-07-16T16:41:47+00:00","ended":false,"distanceKm":19},{"id":"trk-6","threatClass":"drone","points":[{"lat":44.7235,"lon":37.7686,"time":"2026-07-16T16:42:33+00:00","location":"Новороссийск","status":"approaching","count":null},{"lat":45.2643,"lon":37.2941,"time":"2026-07-16T16:42:33+00:00","location":"Темрюкский район","status":"approaching","count":null}],"firstSeen":"2026-07-16T16:42:33+00:00","lastSeen":"2026-07-16T16:42:33+00:00","ended":false,"distanceKm":71},{"id":"trk-9","threatClass":"drone","points":[{"lat":50.5977,"lon":36.5858,"time":"2026-07-16T17:50:34+00:00","location":"Белгород","status":"approaching","count":null},{"lat":50.5228,"lon":36.3825,"time":"2026-07-16T18:28:47+00:00","location":"Белгородский район","status":"approaching","count":null}],"firstSeen":"2026-07-16T17:50:34+00:00","lastSeen":"2026-07-16T18:28:47+00:00","ended":false,"distanceKm":17},{"id":"trk-11","threatClass":"drone","points":[{"lat":52.7427,"lon":35.3809,"time":"2026-07-16T18:11:02+00:00","location":"Сосковский район","status":"approaching","count":null},{"lat":52.3967,"lon":35.8058,"time":"2026-07-16T18:11:02+00:00","location":"Троснянский район","status":"approaching","count":null}],"firstSeen":"2026-07-16T18:11:02+00:00","lastSeen":"2026-07-16T18:11:02+00:00","ended":false,"distanceKm":48},{"id":"trk-12","threatClass":"drone","points":[{"lat":47.2362,"lon":38.8969,"time":"2026-07-16T18:20:08+00:00","location":"Таганрог","status":"unknown","count":null},{"lat":47.1056,"lon":39.4231,"time":"2026-07-16T18:20:08+00:00","location":"Азов","status":"unknown","count":null}],"firstSeen":"2026-07-16T18:20:08+00:00","lastSeen":"2026-07-16T18:20:08+00:00","ended":false,"distanceKm":42},{"id":"trk-14","threatClass":"drone","points":[{"lat":48.0159,"lon":37.8013,"time":"2026-07-16T19:27:43+00:00","location":"Донецк","status":"unknown","count":null},{"lat":48.0448,"lon":37.9635,"time":"2026-07-16T19:27:43+00:00","location":"Макеевка","status":"unknown","count":null}],"firstSeen":"2026-07-16T19:27:43+00:00","lastSeen":"2026-07-16T19:27:43+00:00","ended":false,"distanceKm":12},{"id":"trk-15","threatClass":"drone","points":[{"lat":47.7499,"lon":37.6716,"time":"2026-07-16T19:27:43+00:00","location":"Докучаевск","status":"unknown","count":null},{"lat":47.6017,"lon":37.4901,"time":"2026-07-16T19:27:43+00:00","location":"Волноваха","status":"unknown","count":null}],"firstSeen":"2026-07-16T19:27:43+00:00","lastSeen":"2026-07-16T19:27:43+00:00","ended":false,"distanceKm":21}],"updatedAt":"2026-07-16T19:49:13.048Z"}