{"tracks":[{"id":"trk-3","threatClass":"drone","points":[{"lat":52.4429,"lon":34.4922,"time":"2026-07-20T20:51:12+00:00","location":"Лагеревка","status":"approaching","count":null},{"lat":52.5938,"lon":33.0796,"time":"2026-07-20T20:51:12+00:00","location":"Бобрик","status":"approaching","count":null}],"firstSeen":"2026-07-20T20:51:12+00:00","lastSeen":"2026-07-20T20:51:12+00:00","ended":false,"distanceKm":97},{"id":"trk-5","threatClass":"drone","points":[{"lat":44.6866,"lon":33.567,"time":"2026-07-20T21:14:05+00:00","location":"Бельбек","status":"approaching","count":null},{"lat":44.6166,"lon":33.5254,"time":"2026-07-20T21:17:31+00:00","location":"Севастополь","status":"approaching","count":null},{"lat":44.5121,"lon":33.599,"time":"2026-07-20T21:43:27+00:00","location":"Балаклава","status":"approaching","count":null}],"firstSeen":"2026-07-20T21:14:05+00:00","lastSeen":"2026-07-20T21:43:27+00:00","ended":false,"distanceKm":21},{"id":"trk-6","threatClass":"drone","points":[{"lat":45.1453,"lon":33.517,"time":"2026-07-20T21:16:45+00:00","location":"Прибрежное","status":"approaching","count":null},{"lat":44.9613,"lon":34.1043,"time":"2026-07-20T21:28:17+00:00","location":"Фиолент","status":"approaching","count":null}],"firstSeen":"2026-07-20T21:16:45+00:00","lastSeen":"2026-07-20T21:28:17+00:00","ended":false,"distanceKm":50},{"id":"trk-8","threatClass":"drone","points":[{"lat":44.7235,"lon":37.7686,"time":"2026-07-20T21:20:13+00:00","location":"Новороссийск","status":"approaching","count":null},{"lat":44.6516,"lon":37.9395,"time":"2026-07-20T21:20:13+00:00","location":"Кабардинка","status":"approaching","count":null},{"lat":44.5609,"lon":38.0767,"time":"2026-07-20T21:20:13+00:00","location":"Геленджик","status":"approaching","count":null}],"firstSeen":"2026-07-20T21:20:13+00:00","lastSeen":"2026-07-20T21:20:13+00:00","ended":false,"distanceKm":31},{"id":"trk-9","threatClass":"drone","points":[{"lat":44.6166,"lon":33.5254,"time":"2026-07-20T22:15:16+00:00","location":"Севастополь","status":"approaching","count":null},{"lat":44.7556,"lon":33.7235,"time":"2026-07-20T22:35:25+00:00","location":"Кача","status":"approaching","count":null},{"lat":44.7555,"lon":33.8491,"time":"2026-07-20T23:26:40+00:00","location":"Бахчисарай","status":"approaching","count":null}],"firstSeen":"2026-07-20T22:15:16+00:00","lastSeen":"2026-07-20T23:26:40+00:00","ended":false,"distanceKm":32},{"id":"trk-24","threatClass":"drone","points":[{"lat":55.2677,"lon":36.6925,"time":"2026-07-21T06:34:42+00:00","location":"Боровский район","status":"approaching","count":null},{"lat":55.9206,"lon":37.9916,"time":"2026-07-21T06:35:46+00:00","location":"Щелково","status":"approaching","count":null}],"firstSeen":"2026-07-21T06:34:42+00:00","lastSeen":"2026-07-21T06:35:46+00:00","ended":false,"distanceKm":109},{"id":"trk-25","threatClass":"drone","points":[{"lat":55.9146,"lon":36.8595,"time":"2026-07-21T06:47:16+00:00","location":"Истра","status":"approaching","count":2},{"lat":55.6974,"lon":36.2834,"time":"2026-07-21T06:47:44+00:00","location":"Рузский","status":"approaching","count":null}],"firstSeen":"2026-07-21T06:47:16+00:00","lastSeen":"2026-07-21T06:47:44+00:00","ended":false,"distanceKm":43}],"updatedAt":"2026-07-21T07:19:16.534Z"}