{"tracks":[{"id":"trk-15","threatClass":"drone","points":[{"lat":52.0929,"lon":37.4888,"time":"2026-07-23T16:15:54+00:00","location":"Должанский район","status":"approaching","count":null},{"lat":52.2425,"lon":37.0479,"time":"2026-07-23T16:15:54+00:00","location":"Колпнянский район","status":"approaching","count":null},{"lat":52.6765,"lon":36.2816,"time":"2026-07-23T16:15:54+00:00","location":"Свердловский район","status":"approaching","count":null}],"firstSeen":"2026-07-23T16:15:54+00:00","lastSeen":"2026-07-23T16:15:54+00:00","ended":false,"distanceKm":105},{"id":"trk-16","threatClass":"drone","points":[{"lat":55.0939,"lon":38.767,"time":"2026-07-23T16:16:37+00:00","location":"Коломна","status":"overhead","count":null},{"lat":54.7586,"lon":38.8818,"time":"2026-07-23T16:18:01+00:00","location":"Зарайск","status":"approaching","count":null},{"lat":54.709,"lon":39.5045,"time":"2026-07-23T16:19:08+00:00","location":"Рязанский район","status":"approaching","count":2}],"firstSeen":"2026-07-23T16:16:37+00:00","lastSeen":"2026-07-23T16:19:08+00:00","ended":false,"distanceKm":78},{"id":"trk-19","threatClass":"drone","points":[{"lat":52.5852,"lon":33.8169,"time":"2026-07-23T17:27:47+00:00","location":"Городцы","status":"unknown","count":null},{"lat":52.8493,"lon":33.966,"time":"2026-07-23T17:27:47+00:00","location":"Трубчевский район","status":"unknown","count":null},{"lat":53.2139,"lon":34.2894,"time":"2026-07-23T17:56:43+00:00","location":"Курнявцево","status":"approaching","count":null},{"lat":53.301,"lon":34.6559,"time":"2026-07-23T17:56:43+00:00","location":"Брянский район","status":"approaching","count":null}],"firstSeen":"2026-07-23T17:27:47+00:00","lastSeen":"2026-07-23T17:56:43+00:00","ended":false,"distanceKm":103},{"id":"trk-20","threatClass":"drone","points":[{"lat":52.5193,"lon":32.8868,"time":"2026-07-23T17:28:34+00:00","location":"Дохновичи","status":"approaching","count":null},{"lat":52.5154,"lon":32.715,"time":"2026-07-23T17:28:34+00:00","location":"Стародубский район","status":"approaching","count":null},{"lat":52.5353,"lon":31.9342,"time":"2026-07-23T18:03:01+00:00","location":"Новозыбков","status":"unknown","count":null}],"firstSeen":"2026-07-23T17:28:34+00:00","lastSeen":"2026-07-23T18:03:01+00:00","ended":false,"distanceKm":65},{"id":"trk-21","threatClass":"drone","points":[{"lat":50.9941,"lon":33.9835,"time":"2026-07-23T17:31:04+00:00","location":"Терни","status":"approaching","count":null},{"lat":51.5549,"lon":33.3876,"time":"2026-07-23T17:31:04+00:00","location":"Кролевець.","status":"approaching","count":null}],"firstSeen":"2026-07-23T17:31:04+00:00","lastSeen":"2026-07-23T17:31:04+00:00","ended":false,"distanceKm":75},{"id":"trk-23","threatClass":"drone","points":[{"lat":52.7501,"lon":32.8824,"time":"2026-07-23T17:53:34+00:00","location":"Рохманово","status":"unknown","count":null},{"lat":52.8314,"lon":32.8245,"time":"2026-07-23T17:53:34+00:00","location":"Унечский район","status":"unknown","count":null}],"firstSeen":"2026-07-23T17:53:34+00:00","lastSeen":"2026-07-23T17:53:34+00:00","ended":false,"distanceKm":10},{"id":"trk-25","threatClass":"drone","points":[{"lat":52.5543,"lon":33.2637,"time":"2026-07-23T18:48:37+00:00","location":"Погар","status":"unknown","count":null},{"lat":52.7501,"lon":32.8824,"time":"2026-07-23T18:59:42+00:00","location":"Рохманово","status":"unknown","count":null},{"lat":52.8314,"lon":32.8245,"time":"2026-07-23T18:59:42+00:00","location":"Унечский район","status":"unknown","count":null},{"lat":52.845,"lon":32.67,"time":"2026-07-23T19:12:10+00:00","location":"Унеча","status":"unknown","count":null}],"firstSeen":"2026-07-23T18:48:37+00:00","lastSeen":"2026-07-23T19:12:10+00:00","ended":false,"distanceKm":54},{"id":"trk-27","threatClass":"drone","points":[{"lat":56.978,"lon":39.8537,"time":"2026-07-23T19:00:10+00:00","location":"Ильинский район","status":"approaching","count":null},{"lat":56.3695,"lon":40.4516,"time":"2026-07-23T19:00:44+00:00","location":"Суздальский район","status":"approaching","count":null}],"firstSeen":"2026-07-23T19:00:10+00:00","lastSeen":"2026-07-23T19:00:44+00:00","ended":false,"distanceKm":77},{"id":"trk-28","threatClass":"drone","points":[{"lat":53.8631,"lon":34.4489,"time":"2026-07-23T19:05:40+00:00","location":"Людиновский район","status":"approaching","count":null},{"lat":53.8089,"lon":34.8495,"time":"2026-07-23T19:05:40+00:00","location":"Жиздринский район","status":"approaching","count":null}],"firstSeen":"2026-07-23T19:05:40+00:00","lastSeen":"2026-07-23T19:05:40+00:00","ended":false,"distanceKm":27},{"id":"trk-29","threatClass":"drone","points":[{"lat":52.7501,"lon":32.8824,"time":"2026-07-23T19:13:33+00:00","location":"Рохманово","status":"unknown","count":null},{"lat":52.8314,"lon":32.8245,"time":"2026-07-23T19:13:33+00:00","location":"Унечский район","status":"unknown","count":null},{"lat":53.4656,"lon":33.6796,"time":"2026-07-23T19:38:15+00:00","location":"Летошники","status":"approaching","count":null},{"lat":53.5424,"lon":33.7924,"time":"2026-07-23T19:38:15+00:00","location":"Жуковский район","status":"approaching","count":null},{"lat":54.2104,"lon":33.6159,"time":"2026-07-23T20:29:01+00:00","location":"Смоленская область","status":"approaching","count":2},{"lat":55.3848,"lon":32.3545,"time":"2026-07-23T21:33:17+00:00","location":"Духовщинский район","status":"approaching","count":null}],"firstSeen":"2026-07-23T19:13:33+00:00","lastSeen":"2026-07-23T21:33:17+00:00","ended":false,"distanceKm":341},{"id":"trk-31","threatClass":"drone","points":[{"lat":54.8374,"lon":38.1505,"time":"2026-07-23T19:15:56+00:00","location":"Кашира","status":"approaching","count":null},{"lat":54.6938,"lon":38.1602,"time":"2026-07-23T19:22:32+00:00","location":"Веневский район","status":"approaching","count":null}],"firstSeen":"2026-07-23T19:15:56+00:00","lastSeen":"2026-07-23T19:22:32+00:00","ended":false,"distanceKm":16},{"id":"trk-32","threatClass":"drone","points":[{"lat":53,"lon":33.5,"time":"2026-07-23T19:16:10+00:00","location":"Брянская область.","status":"unknown","count":null},{"lat":52.9288,"lon":33.4544,"time":"2026-07-23T19:51:25+00:00","location":"Почеп","status":"approaching","count":null},{"lat":52.5835,"lon":33.7675,"time":"2026-07-23T19:51:25+00:00","location":"Трубчевск","status":"approaching","count":null}],"firstSeen":"2026-07-23T19:16:10+00:00","lastSeen":"2026-07-23T19:51:25+00:00","ended":false,"distanceKm":52},{"id":"trk-33","threatClass":"drone","points":[{"lat":54.0967,"lon":33.7911,"time":"2026-07-23T19:18:05+00:00","location":"Куйбышевский район","status":"approaching","count":null},{"lat":53.8631,"lon":34.4489,"time":"2026-07-23T20:08:20+00:00","location":"Людиновский район","status":"approaching","count":null},{"lat":53.8089,"lon":34.8495,"time":"2026-07-23T20:08:46+00:00","location":"Жиздринский район","status":"approaching","count":null},{"lat":52.3967,"lon":35.8058,"time":"2026-07-23T20:09:03+00:00","location":"Троснянский район","status":"approaching","count":null},{"lat":52.4109,"lon":37.3745,"time":"2026-07-23T20:36:10+00:00","location":"Ливенский район","status":"approaching","count":null},{"lat":52.6605,"lon":37.9922,"time":"2026-07-23T21:15:55+00:00","location":"Измалковский район","status":"approaching","count":null},{"lat":53.2413,"lon":37.7558,"time":"2026-07-23T21:41:43+00:00","location":"Каменский район","status":"approaching","count":null}],"firstSeen":"2026-07-23T19:18:05+00:00","lastSeen":"2026-07-23T21:41:43+00:00","ended":false,"distanceKm":470},{"id":"trk-34","threatClass":"drone","points":[{"lat":53.6046,"lon":32.6902,"time":"2026-07-23T20:07:46+00:00","location":"Ершичский район","status":"approaching","count":null},{"lat":54.7905,"lon":34.3736,"time":"2026-07-23T20:08:05+00:00","location":"Угранский район","status":"approaching","count":2},{"lat":54.5207,"lon":35.9735,"time":"2026-07-23T20:08:46+00:00","location":"Бабынинский район","status":"approaching","count":null},{"lat":52.4485,"lon":36.2419,"time":"2026-07-23T20:09:03+00:00","location":"Глазуновский район","status":"approaching","count":null}],"firstSeen":"2026-07-23T20:07:46+00:00","lastSeen":"2026-07-23T20:09:03+00:00","ended":false,"distanceKm":510},{"id":"trk-36","threatClass":"drone","points":[{"lat":53.533,"lon":33.7321,"time":"2026-07-23T19:20:16+00:00","location":"Жуковка","status":"approaching","count":2},{"lat":53.3753,"lon":34.1586,"time":"2026-07-23T19:37:50+00:00","location":"Глаженка","status":"unknown","count":null},{"lat":53.301,"lon":34.6559,"time":"2026-07-23T19:37:50+00:00","location":"Брянский район","status":"unknown","count":null},{"lat":54.3939,"lon":35.7709,"time":"2026-07-23T20:32:10+00:00","location":"Бабынино","status":"shot_down","count":null}],"firstSeen":"2026-07-23T19:20:16+00:00","lastSeen":"2026-07-23T20:32:10+00:00","ended":true,"distanceKm":209},{"id":"trk-46","threatClass":"drone","points":[{"lat":51.9063,"lon":35.3043,"time":"2026-07-23T19:27:03+00:00","location":"Конышевский район","status":"approaching","count":null},{"lat":53.533,"lon":33.7321,"time":"2026-07-23T20:13:35+00:00","location":"Жуковка","status":"unknown","count":null},{"lat":53.6735,"lon":32.7482,"time":"2026-07-23T20:43:05+00:00","location":"Ершичи","status":"approaching","count":3}],"firstSeen":"2026-07-23T19:27:03+00:00","lastSeen":"2026-07-23T20:43:05+00:00","ended":false,"distanceKm":276},{"id":"trk-48","threatClass":"drone","points":[{"lat":53.3065,"lon":34.3676,"time":"2026-07-23T19:38:47+00:00","location":"Радица-Крыловка","status":"approaching","count":null},{"lat":53.13,"lon":34.09,"time":"2026-07-23T19:58:36+00:00","location":"Выгоничи","status":"unknown","count":null}],"firstSeen":"2026-07-23T19:38:47+00:00","lastSeen":"2026-07-23T19:58:36+00:00","ended":false,"distanceKm":27},{"id":"trk-49","threatClass":"drone","points":[{"lat":53.4656,"lon":33.6796,"time":"2026-07-23T19:47:10+00:00","location":"Летошники","status":"approaching","count":null},{"lat":53.347,"lon":34.0798,"time":"2026-07-23T20:13:35+00:00","location":"Сельцо","status":"unknown","count":null},{"lat":52.8613,"lon":36.5742,"time":"2026-07-23T20:58:06+00:00","location":"Ломовое","status":"approaching","count":null}],"firstSeen":"2026-07-23T19:47:10+00:00","lastSeen":"2026-07-23T20:58:06+00:00","ended":false,"distanceKm":205},{"id":"trk-52","threatClass":"drone","points":[{"lat":54.0705,"lon":34.2991,"time":"2026-07-23T20:08:20+00:00","location":"Кировский район","status":"approaching","count":null},{"lat":54.0967,"lon":33.7911,"time":"2026-07-23T20:08:20+00:00","location":"Куйбышевский район","status":"approaching","count":null},{"lat":54.2094,"lon":33.6126,"time":"2026-07-23T20:44:29+00:00","location":"Рославльский район","status":"shot_down","count":null}],"firstSeen":"2026-07-23T20:08:20+00:00","lastSeen":"2026-07-23T20:44:29+00:00","ended":true,"distanceKm":50},{"id":"trk-54","threatClass":"drone","points":[{"lat":53.6735,"lon":32.7482,"time":"2026-07-23T20:18:36+00:00","location":"Ершичи","status":"approaching","count":null},{"lat":53.1022,"lon":32.4189,"time":"2026-07-23T20:19:45+00:00","location":"Суражский район","status":"approaching","count":null}],"firstSeen":"2026-07-23T20:18:36+00:00","lastSeen":"2026-07-23T20:19:45+00:00","ended":false,"distanceKm":67},{"id":"trk-57","threatClass":"drone","points":[{"lat":45.3,"lon":34.4,"time":"2026-07-23T20:30:22+00:00","location":"Крым","status":"unknown","count":null},{"lat":45.2079,"lon":33.1531,"time":"2026-07-23T21:12:12+00:00","location":"Витино","status":"approaching","count":null}],"firstSeen":"2026-07-23T20:30:22+00:00","lastSeen":"2026-07-23T21:12:12+00:00","ended":false,"distanceKm":98},{"id":"trk-65","threatClass":"drone","points":[{"lat":55.5065,"lon":36.0213,"time":"2026-07-23T20:35:40+00:00","location":"Можайск","status":"approaching","count":null},{"lat":55.9937,"lon":35.9362,"time":"2026-07-23T21:07:19+00:00","location":"Волоколамск","status":"approaching","count":null},{"lat":56.7434,"lon":35.841,"time":"2026-07-23T21:37:34+00:00","location":"Калининский район","status":"approaching","count":null},{"lat":56.8587,"lon":35.9176,"time":"2026-07-23T21:38:37+00:00","location":"Тверь","status":"approaching","count":null}],"firstSeen":"2026-07-23T20:35:40+00:00","lastSeen":"2026-07-23T21:38:37+00:00","ended":false,"distanceKm":152},{"id":"trk-66","threatClass":"drone","points":[{"lat":52.9042,"lon":36.6906,"time":"2026-07-23T20:36:10+00:00","location":"Залегощенский район","status":"approaching","count":null},{"lat":52.6765,"lon":36.2816,"time":"2026-07-23T20:36:10+00:00","location":"Свердловский район","status":"approaching","count":null}],"firstSeen":"2026-07-23T20:36:10+00:00","lastSeen":"2026-07-23T20:36:10+00:00","ended":false,"distanceKm":37},{"id":"trk-67","threatClass":"drone","points":[{"lat":54.5576,"lon":31.4654,"time":"2026-07-23T20:37:05+00:00","location":"Краснинский район","status":"approaching","count":null},{"lat":55.8489,"lon":33.0483,"time":"2026-07-23T21:15:28+00:00","location":"Бельский район","status":"approaching","count":null},{"lat":56.2026,"lon":33.4782,"time":"2026-07-23T21:15:28+00:00","location":"Оленинский район","status":"approaching","count":null},{"lat":57.462,"lon":33.6489,"time":"2026-07-23T21:44:15+00:00","location":"Фировский район","status":"approaching","count":null}],"firstSeen":"2026-07-23T20:37:05+00:00","lastSeen":"2026-07-23T21:44:15+00:00","ended":false,"distanceKm":363},{"id":"trk-68","threatClass":"drone","points":[{"lat":54.3374,"lon":35.4728,"time":"2026-07-23T20:39:50+00:00","location":"Молодежный","status":"approaching","count":null},{"lat":53.9675,"lon":34.8171,"time":"2026-07-23T21:04:56+00:00","location":"Новослободск","status":"approaching","count":null},{"lat":52.854,"lon":35.1952,"time":"2026-07-23T21:38:42+00:00","location":"Шаблыкино","status":"unknown","count":null}],"firstSeen":"2026-07-23T20:39:50+00:00","lastSeen":"2026-07-23T21:38:42+00:00","ended":false,"distanceKm":186},{"id":"trk-69","threatClass":"drone","points":[{"lat":54.2104,"lon":33.6159,"time":"2026-07-23T20:45:02+00:00","location":"Смоленская область","status":"approaching","count":20},{"lat":54.0705,"lon":34.2991,"time":"2026-07-23T20:45:16+00:00","location":"Кировский район","status":"approaching","count":null},{"lat":53.8631,"lon":34.4489,"time":"2026-07-23T20:45:16+00:00","location":"Людиновский район","status":"approaching","count":null},{"lat":53.7236,"lon":35.5324,"time":"2026-07-23T21:16:58+00:00","location":"Ульяновский район","status":"approaching","count":null},{"lat":53.9435,"lon":36.7279,"time":"2026-07-23T21:41:25+00:00","location":"Одоевский район","status":"approaching","count":null},{"lat":53.0017,"lon":38.2232,"time":"2026-07-23T21:42:30+00:00","location":"Становлянский район","status":"approaching","count":null}],"firstSeen":"2026-07-23T20:45:02+00:00","lastSeen":"2026-07-23T21:42:30+00:00","ended":false,"distanceKm":371},{"id":"trk-70","threatClass":"drone","points":[{"lat":54.0967,"lon":33.7911,"time":"2026-07-23T20:45:16+00:00","location":"Куйбышевский район","status":"approaching","count":null},{"lat":55.6168,"lon":34.1262,"time":"2026-07-23T20:45:53+00:00","location":"Новодугинский район","status":"approaching","count":null}],"firstSeen":"2026-07-23T20:45:16+00:00","lastSeen":"2026-07-23T20:45:53+00:00","ended":false,"distanceKm":170},{"id":"trk-71","threatClass":"drone","points":[{"lat":54.5247,"lon":36.0975,"time":"2026-07-23T20:46:09+00:00","location":"Плетеневка","status":"unknown","count":null},{"lat":54.1631,"lon":33.2335,"time":"2026-07-23T21:19:42+00:00","location":"Смоленская АЭС","status":"unknown","count":null}],"firstSeen":"2026-07-23T20:46:09+00:00","lastSeen":"2026-07-23T21:19:42+00:00","ended":false,"distanceKm":190},{"id":"trk-72","threatClass":"drone","points":[{"lat":52.8874,"lon":33.3211,"time":"2026-07-23T20:54:13+00:00","location":"Вяльки","status":"approaching","count":null},{"lat":53,"lon":33.5,"time":"2026-07-23T20:56:07+00:00","location":"Брянская область.","status":"approaching","count":2},{"lat":53.533,"lon":33.7321,"time":"2026-07-23T21:36:40+00:00","location":"Жуковка","status":"approaching","count":null},{"lat":55.2351,"lon":33.4911,"time":"2026-07-23T21:38:00+00:00","location":"Николо-Погорелое","status":"approaching","count":10}],"firstSeen":"2026-07-23T20:54:13+00:00","lastSeen":"2026-07-23T21:38:00+00:00","ended":false,"distanceKm":268},{"id":"trk-73","threatClass":"drone","points":[{"lat":54.8057,"lon":36.9462,"time":"2026-07-23T20:56:55+00:00","location":"Баранцево","status":"approaching","count":2},{"lat":53.9338,"lon":35.6637,"time":"2026-07-23T21:44:32+00:00","location":"Волконское","status":"approaching","count":null}],"firstSeen":"2026-07-23T20:56:55+00:00","lastSeen":"2026-07-23T21:44:32+00:00","ended":false,"distanceKm":128},{"id":"trk-74","threatClass":"drone","points":[{"lat":55.3848,"lon":32.3545,"time":"2026-07-23T20:58:32+00:00","location":"Духовщинский район","status":"unknown","count":null},{"lat":55.5805,"lon":32.4096,"time":"2026-07-23T21:33:17+00:00","location":"Озёрный","status":"approaching","count":null},{"lat":55.8132,"lon":32.282,"time":"2026-07-23T21:47:52+00:00","location":"Кривая","status":"unknown","count":null},{"lat":55.91,"lon":32.2116,"time":"2026-07-23T21:47:52+00:00","location":"Жарковский район","status":"unknown","count":null}],"firstSeen":"2026-07-23T20:58:32+00:00","lastSeen":"2026-07-23T21:47:52+00:00","ended":false,"distanceKm":61},{"id":"trk-75","threatClass":"drone","points":[{"lat":53,"lon":33.5,"time":"2026-07-23T20:58:43+00:00","location":"Брянская область","status":"approaching","count":null},{"lat":52.3161,"lon":34.0759,"time":"2026-07-23T21:50:35+00:00","location":"Суземка","status":"unknown","count":null}],"firstSeen":"2026-07-23T20:58:43+00:00","lastSeen":"2026-07-23T21:50:35+00:00","ended":false,"distanceKm":85},{"id":"trk-76","threatClass":"drone","points":[{"lat":55.3843,"lon":36.7235,"time":"2026-07-23T21:07:19+00:00","location":"Наро-Фоминск","status":"approaching","count":null},{"lat":55.7558,"lon":37.6173,"time":"2026-07-23T21:21:32+00:00","location":"Москва","status":"unknown","count":null}],"firstSeen":"2026-07-23T21:07:19+00:00","lastSeen":"2026-07-23T21:21:32+00:00","ended":false,"distanceKm":70},{"id":"trk-77","threatClass":"drone","points":[{"lat":54.5983,"lon":33.1042,"time":"2026-07-23T21:09:59+00:00","location":"Демщино","status":"approaching","count":null},{"lat":54.5275,"lon":33.3509,"time":"2026-07-23T21:09:59+00:00","location":"Ельнинский район","status":"approaching","count":null},{"lat":53.533,"lon":33.7321,"time":"2026-07-23T21:39:21+00:00","location":"Жуковка","status":"approaching","count":null}],"firstSeen":"2026-07-23T21:09:59+00:00","lastSeen":"2026-07-23T21:39:21+00:00","ended":false,"distanceKm":131},{"id":"trk-78","threatClass":"drone","points":[{"lat":45.1552,"lon":33.2744,"time":"2026-07-23T21:12:12+00:00","location":"Заозёрное","status":"approaching","count":null},{"lat":45.5194,"lon":34.5932,"time":"2026-07-23T21:12:12+00:00","location":"Уютное","status":"approaching","count":null}],"firstSeen":"2026-07-23T21:12:12+00:00","lastSeen":"2026-07-23T21:12:12+00:00","ended":false,"distanceKm":111},{"id":"trk-79","threatClass":"drone","points":[{"lat":52.7165,"lon":37.2543,"time":"2026-07-23T21:16:21+00:00","location":"Верховский район","status":"approaching","count":null},{"lat":53.3507,"lon":36.7147,"time":"2026-07-23T21:16:21+00:00","location":"Мценский район","status":"approaching","count":null},{"lat":54.1014,"lon":35.3397,"time":"2026-07-23T21:16:58+00:00","location":"Сухиничский район","status":"approaching","count":null},{"lat":55.2222,"lon":32.8025,"time":"2026-07-23T21:17:18+00:00","location":"Ярцевский район","status":"approaching","count":null},{"lat":55.91,"lon":32.2116,"time":"2026-07-23T21:45:50+00:00","location":"Жарковский район","status":"approaching","count":6}],"firstSeen":"2026-07-23T21:16:21+00:00","lastSeen":"2026-07-23T21:45:50+00:00","ended":false,"distanceKm":493},{"id":"trk-80","threatClass":"drone","points":[{"lat":55.2008,"lon":33.4303,"time":"2026-07-23T21:17:18+00:00","location":"Сафоновский район","status":"approaching","count":null},{"lat":54.5275,"lon":33.3509,"time":"2026-07-23T21:17:34+00:00","location":"Ельнинский район","status":"approaching","count":null},{"lat":54.2094,"lon":33.6126,"time":"2026-07-23T21:17:47+00:00","location":"Рославльский район","status":"overhead","count":null},{"lat":53.6046,"lon":32.6902,"time":"2026-07-23T21:49:16+00:00","location":"Ершичский район","status":"approaching","count":null}],"firstSeen":"2026-07-23T21:17:18+00:00","lastSeen":"2026-07-23T21:49:16+00:00","ended":false,"distanceKm":205},{"id":"trk-81","threatClass":"drone","points":[{"lat":54.7905,"lon":34.3736,"time":"2026-07-23T21:17:34+00:00","location":"Угранский район","status":"approaching","count":null},{"lat":54.8479,"lon":33.3234,"time":"2026-07-23T21:46:35+00:00","location":"Дорогобужский район","status":"approaching","count":null},{"lat":54.6517,"lon":32.7538,"time":"2026-07-23T21:47:27+00:00","location":"Глинковский район","status":"approaching","count":5},{"lat":54.5576,"lon":31.4654,"time":"2026-07-23T21:47:44+00:00","location":"Краснинский район","status":"approaching","count":4}],"firstSeen":"2026-07-23T21:17:34+00:00","lastSeen":"2026-07-23T21:47:44+00:00","ended":false,"distanceKm":194},{"id":"trk-86","threatClass":"drone","points":[{"lat":56.7712,"lon":33.4753,"time":"2026-07-23T21:44:15+00:00","location":"Селижаровский район","status":"approaching","count":null},{"lat":56.4348,"lon":32.2637,"time":"2026-07-23T21:44:52+00:00","location":"Андреапольский район","status":"approaching","count":null},{"lat":56.1007,"lon":31.8429,"time":"2026-07-23T21:44:52+00:00","location":"Западнодвинский район","status":"approaching","count":null}],"firstSeen":"2026-07-23T21:44:15+00:00","lastSeen":"2026-07-23T21:44:52+00:00","ended":false,"distanceKm":128},{"id":"trk-87","threatClass":"drone","points":[{"lat":45.8305,"lon":40.1693,"time":"2026-07-23T21:45:19+00:00","location":"Тихорецкий район","status":"approaching","count":null},{"lat":45.8839,"lon":39.6999,"time":"2026-07-23T21:45:19+00:00","location":"Павловский район","status":"approaching","count":null},{"lat":45.9245,"lon":39.0083,"time":"2026-07-23T21:45:19+00:00","location":"Каневской район","status":"approaching","count":null}],"firstSeen":"2026-07-23T21:45:19+00:00","lastSeen":"2026-07-23T21:45:19+00:00","ended":false,"distanceKm":91},{"id":"trk-89","threatClass":"drone","points":[{"lat":56.2516,"lon":34.2875,"time":"2026-07-23T21:45:25+00:00","location":"Торопецкий район","status":"approaching","count":null},{"lat":55.2008,"lon":33.4303,"time":"2026-07-23T21:46:35+00:00","location":"Сафоновский район","status":"approaching","count":null}],"firstSeen":"2026-07-23T21:45:25+00:00","lastSeen":"2026-07-23T21:46:35+00:00","ended":false,"distanceKm":129},{"id":"trk-90","threatClass":"drone","points":[{"lat":54.3597,"lon":32.1169,"time":"2026-07-23T21:48:55+00:00","location":"Починковский район","status":"approaching","count":null},{"lat":54.5275,"lon":33.3509,"time":"2026-07-23T21:48:55+00:00","location":"Ельнинский район","status":"approaching","count":null},{"lat":54.0967,"lon":33.7911,"time":"2026-07-23T21:49:36+00:00","location":"Куйбышевский район","status":"approaching","count":8},{"lat":54.1014,"lon":35.3397,"time":"2026-07-23T21:50:03+00:00","location":"Сухиничский район","status":"approaching","count":null}],"firstSeen":"2026-07-23T21:48:55+00:00","lastSeen":"2026-07-23T21:50:03+00:00","ended":false,"distanceKm":239}],"updatedAt":"2026-07-23T21:52:40.993Z"}