{"tracks":[{"id":"trk-1","threatClass":"drone","points":[{"lat":51.0588,"lon":40.1363,"time":"2026-07-17T21:57:04+00:00","location":"Бобровский район","status":"approaching","count":null},{"lat":51.0829,"lon":41.5756,"time":"2026-07-17T21:57:04+00:00","location":"Новохопёрский","status":"approaching","count":null},{"lat":50.8866,"lon":42.1994,"time":"2026-07-17T22:13:48+00:00","location":"Урюпинский район","status":"approaching","count":null},{"lat":50.3693,"lon":44.8653,"time":"2026-07-17T22:15:42+00:00","location":"Котовский район","status":"approaching","count":null}],"firstSeen":"2026-07-17T21:57:04+00:00","lastSeen":"2026-07-17T22:15:42+00:00","ended":false,"distanceKm":346},{"id":"trk-2","threatClass":"drone","points":[{"lat":52.3738,"lon":41.2251,"time":"2026-07-17T21:57:33+00:00","location":"Дуплято-Маслово","status":"approaching","count":null},{"lat":51.9132,"lon":41.9415,"time":"2026-07-17T22:49:08+00:00","location":"Репное","status":"approaching","count":null}],"firstSeen":"2026-07-17T21:57:33+00:00","lastSeen":"2026-07-17T22:49:08+00:00","ended":false,"distanceKm":71},{"id":"trk-3","threatClass":"drone","points":[{"lat":51.4892,"lon":41.463,"time":"2026-07-17T22:01:45+00:00","location":"Новогольское","status":"approaching","count":null},{"lat":51.9132,"lon":41.9415,"time":"2026-07-17T22:40:13+00:00","location":"Репное","status":"approaching","count":null},{"lat":51.9035,"lon":42.1404,"time":"2026-07-17T22:49:08+00:00","location":"Уваровский район","status":"approaching","count":null}],"firstSeen":"2026-07-17T22:01:45+00:00","lastSeen":"2026-07-17T22:49:08+00:00","ended":false,"distanceKm":71},{"id":"trk-5","threatClass":"drone","points":[{"lat":51.4879,"lon":41.4836,"time":"2026-07-17T22:10:19+00:00","location":"Грибановский район","status":"approaching","count":null},{"lat":51.9035,"lon":42.1404,"time":"2026-07-17T22:11:44+00:00","location":"Уваровский район","status":"approaching","count":null}],"firstSeen":"2026-07-17T22:10:19+00:00","lastSeen":"2026-07-17T22:11:44+00:00","ended":false,"distanceKm":65},{"id":"trk-6","threatClass":"drone","points":[{"lat":52.946,"lon":40.2703,"time":"2026-07-17T22:11:44+00:00","location":"Мичуринский район","status":"approaching","count":null},{"lat":52.5401,"lon":39.766,"time":"2026-07-17T22:12:43+00:00","location":"Грязинский район","status":"approaching","count":null}],"firstSeen":"2026-07-17T22:11:44+00:00","lastSeen":"2026-07-17T22:12:43+00:00","ended":false,"distanceKm":56},{"id":"trk-7","threatClass":"drone","points":[{"lat":52.3161,"lon":34.0759,"time":"2026-07-17T22:11:58+00:00","location":"Суземка","status":"unknown","count":null},{"lat":53.279,"lon":36.5761,"time":"2026-07-17T23:05:20+00:00","location":"Мценск","status":"approaching","count":null}],"firstSeen":"2026-07-17T22:11:58+00:00","lastSeen":"2026-07-17T23:05:20+00:00","ended":false,"distanceKm":199},{"id":"trk-8","threatClass":"drone","points":[{"lat":54.7586,"lon":38.8818,"time":"2026-07-17T22:14:50+00:00","location":"Зарайск","status":"approaching","count":null},{"lat":55.0939,"lon":38.767,"time":"2026-07-17T22:25:42+00:00","location":"Коломна","status":"approaching","count":null},{"lat":55.422,"lon":38.2591,"time":"2026-07-17T22:38:27+00:00","location":"Бронницы","status":"overhead","count":null},{"lat":55.3843,"lon":36.7235,"time":"2026-07-17T23:02:28+00:00","location":"Наро-Фоминск","status":"approaching","count":null}],"firstSeen":"2026-07-17T22:14:50+00:00","lastSeen":"2026-07-17T23:02:28+00:00","ended":false,"distanceKm":184},{"id":"trk-12","threatClass":"drone","points":[{"lat":52.5094,"lon":35.1457,"time":"2026-07-17T22:22:34+00:00","location":"Дмитровск","status":"unknown","count":null},{"lat":53.1203,"lon":35.3921,"time":"2026-07-17T22:57:37+00:00","location":"Хотынец","status":"unknown","count":null}],"firstSeen":"2026-07-17T22:22:34+00:00","lastSeen":"2026-07-17T22:57:37+00:00","ended":false,"distanceKm":70},{"id":"trk-14","threatClass":"drone","points":[{"lat":54.0221,"lon":37.8625,"time":"2026-07-17T22:30:13+00:00","location":"Киреевский район","status":"approaching","count":null},{"lat":54.8374,"lon":38.1505,"time":"2026-07-17T23:02:28+00:00","location":"Кашира","status":"approaching","count":null}],"firstSeen":"2026-07-17T22:30:13+00:00","lastSeen":"2026-07-17T23:02:28+00:00","ended":false,"distanceKm":93},{"id":"trk-15","threatClass":"drone","points":[{"lat":53.6046,"lon":32.6902,"time":"2026-07-17T22:33:07+00:00","location":"Ершичский район","status":"approaching","count":null},{"lat":53.8994,"lon":32.2079,"time":"2026-07-17T23:10:34+00:00","location":"Шумячский район","status":"approaching","count":null}],"firstSeen":"2026-07-17T22:33:07+00:00","lastSeen":"2026-07-17T23:10:34+00:00","ended":false,"distanceKm":46},{"id":"trk-16","threatClass":"drone","points":[{"lat":47.1139,"lon":38.0831,"time":"2026-07-17T22:35:08+00:00","location":"Новоазовск","status":"approaching","count":null},{"lat":47.0971,"lon":37.5434,"time":"2026-07-17T22:35:08+00:00","location":"Мариуполь","status":"approaching","count":null}],"firstSeen":"2026-07-17T22:35:08+00:00","lastSeen":"2026-07-17T22:35:08+00:00","ended":false,"distanceKm":41},{"id":"trk-17","threatClass":"drone","points":[{"lat":52.9685,"lon":36.0692,"time":"2026-07-17T23:01:13+00:00","location":"Орёл","status":"overhead","count":null},{"lat":54.9155,"lon":37.4196,"time":"2026-07-17T23:02:28+00:00","location":"Серпухов","status":"approaching","count":null}],"firstSeen":"2026-07-17T23:01:13+00:00","lastSeen":"2026-07-17T23:02:28+00:00","ended":false,"distanceKm":234},{"id":"trk-19","threatClass":"drone","points":[{"lat":52.9857,"lon":35.9383,"time":"2026-07-17T23:09:02+00:00","location":"Орловский район","status":"approaching","count":null},{"lat":52.9042,"lon":36.6906,"time":"2026-07-17T23:09:02+00:00","location":"Залегощенский район","status":"approaching","count":null}],"firstSeen":"2026-07-17T23:09:02+00:00","lastSeen":"2026-07-17T23:09:02+00:00","ended":false,"distanceKm":51},{"id":"trk-20","threatClass":"drone","points":[{"lat":52.9729,"lon":35.452,"time":"2026-07-17T23:09:02+00:00","location":"Хотынецкий район","status":"approaching","count":null},{"lat":53.6046,"lon":32.6902,"time":"2026-07-17T23:10:34+00:00","location":"Ершичский район","status":"approaching","count":null}],"firstSeen":"2026-07-17T23:09:02+00:00","lastSeen":"2026-07-17T23:10:34+00:00","ended":false,"distanceKm":197},{"id":"trk-25","threatClass":"drone","points":[{"lat":55.9937,"lon":35.9362,"time":"2026-07-18T00:07:08+00:00","location":"Волоколамск","status":"approaching","count":null},{"lat":55.4309,"lon":37.5453,"time":"2026-07-18T00:07:08+00:00","location":"Подольск","status":"approaching","count":null},{"lat":55.5497,"lon":38.1548,"time":"2026-07-18T00:17:31+00:00","location":"Раменское","status":"overhead","count":null},{"lat":54.9656,"lon":39.0277,"time":"2026-07-18T00:50:20+00:00","location":"Луховицы","status":"approaching","count":null}],"firstSeen":"2026-07-18T00:07:08+00:00","lastSeen":"2026-07-18T00:50:20+00:00","ended":false,"distanceKm":245},{"id":"trk-26","threatClass":"drone","points":[{"lat":55.5065,"lon":36.0213,"time":"2026-07-18T00:07:08+00:00","location":"Можайск","status":"approaching","count":null},{"lat":55.9146,"lon":36.8595,"time":"2026-07-18T00:22:14+00:00","location":"Воскресенск","status":"approaching","count":null}],"firstSeen":"2026-07-18T00:07:08+00:00","lastSeen":"2026-07-18T00:22:14+00:00","ended":false,"distanceKm":69},{"id":"trk-27","threatClass":"drone","points":[{"lat":53.9239,"lon":38.6229,"time":"2026-07-18T00:08:23+00:00","location":"Кропотово","status":"unknown","count":null},{"lat":53.8405,"lon":38.6778,"time":"2026-07-18T00:37:42+00:00","location":"Кимовский район","status":"approaching","count":null}],"firstSeen":"2026-07-18T00:08:23+00:00","lastSeen":"2026-07-18T00:37:42+00:00","ended":false,"distanceKm":10},{"id":"trk-29","threatClass":"drone","points":[{"lat":54.5028,"lon":37.0667,"time":"2026-07-18T00:17:05+00:00","location":"Алексин","status":"overhead","count":null},{"lat":54.6938,"lon":38.1602,"time":"2026-07-18T00:53:14+00:00","location":"Венёвский район","status":"approaching","count":null}],"firstSeen":"2026-07-18T00:17:05+00:00","lastSeen":"2026-07-18T00:53:14+00:00","ended":false,"distanceKm":74},{"id":"trk-30","threatClass":"drone","points":[{"lat":55.91,"lon":32.2116,"time":"2026-07-18T00:21:25+00:00","location":"Жарковский район","status":"approaching","count":null},{"lat":56.1264,"lon":34.8164,"time":"2026-07-18T00:21:25+00:00","location":"Зубцовский район","status":"approaching","count":null}],"firstSeen":"2026-07-18T00:21:25+00:00","lastSeen":"2026-07-18T00:21:25+00:00","ended":false,"distanceKm":164},{"id":"trk-31","threatClass":"drone","points":[{"lat":54.0576,"lon":38.3597,"time":"2026-07-18T00:22:41+00:00","location":"Новомосковский район","status":"approaching","count":null},{"lat":55.0939,"lon":38.767,"time":"2026-07-18T00:50:20+00:00","location":"Коломна","status":"approaching","count":null}],"firstSeen":"2026-07-18T00:22:41+00:00","lastSeen":"2026-07-18T00:50:20+00:00","ended":false,"distanceKm":118},{"id":"trk-32","threatClass":"drone","points":[{"lat":55.0542,"lon":40.0815,"time":"2026-07-18T00:32:42+00:00","location":"Болонь","status":"approaching","count":null},{"lat":55.238,"lon":40.0556,"time":"2026-07-18T00:32:42+00:00","location":"Клепиковский район","status":"approaching","count":null},{"lat":55.3815,"lon":39.0529,"time":"2026-07-18T00:32:42+00:00","location":"Егорьевск","status":"approaching","count":null}],"firstSeen":"2026-07-18T00:32:42+00:00","lastSeen":"2026-07-18T00:32:42+00:00","ended":false,"distanceKm":86},{"id":"trk-34","threatClass":"drone","points":[{"lat":55.2463,"lon":40.6698,"time":"2026-07-18T00:46:39+00:00","location":"Великодворский","status":"approaching","count":null},{"lat":55.2842,"lon":40.799,"time":"2026-07-18T00:46:39+00:00","location":"Гусь-Хрустальный район","status":"approaching","count":null},{"lat":57.6964,"lon":40.6575,"time":"2026-07-18T00:47:38+00:00","location":"Ярославская область","status":"unknown","count":null}],"firstSeen":"2026-07-18T00:46:39+00:00","lastSeen":"2026-07-18T00:47:38+00:00","ended":false,"distanceKm":278},{"id":"trk-35","threatClass":"drone","points":[{"lat":54.9397,"lon":41.3952,"time":"2026-07-18T00:49:07+00:00","location":"Касимов","status":"approaching","count":null},{"lat":55.2842,"lon":40.799,"time":"2026-07-18T00:49:07+00:00","location":"Гусь-Хрустальный район","status":"approaching","count":null},{"lat":55.2463,"lon":40.6698,"time":"2026-07-18T00:55:15+00:00","location":"Великодворский","status":"approaching","count":null}],"firstSeen":"2026-07-18T00:49:07+00:00","lastSeen":"2026-07-18T00:55:15+00:00","ended":false,"distanceKm":63},{"id":"trk-46","threatClass":"drone","points":[{"lat":54.2336,"lon":39.0308,"time":"2026-07-18T08:01:56+00:00","location":"Пронский район","status":"approaching","count":null},{"lat":55.238,"lon":40.0556,"time":"2026-07-18T08:02:42+00:00","location":"Клепиковский район","status":"approaching","count":null}],"firstSeen":"2026-07-18T08:01:56+00:00","lastSeen":"2026-07-18T08:02:42+00:00","ended":false,"distanceKm":130}],"updatedAt":"2026-07-18T09:51:33.245Z"}