{"tracks":[{"id":"trk-1","threatClass":"drone","points":[{"lat":51.5714,"lon":34.624,"time":"2026-07-20T09:31:45+00:00","location":"Рыльский район","status":"approaching","count":null},{"lat":51.6473,"lon":35.576,"time":"2026-07-20T10:15:41+00:00","location":"Иванино","status":"approaching","count":null}],"firstSeen":"2026-07-20T09:31:45+00:00","lastSeen":"2026-07-20T10:15:41+00:00","ended":false,"distanceKm":66},{"id":"trk-3","threatClass":"drone","points":[{"lat":51.9507,"lon":34.9792,"time":"2026-07-20T14:33:24+00:00","location":"Старый хутор","status":"unknown","count":null},{"lat":51.4113,"lon":36.3551,"time":"2026-07-20T14:33:24+00:00","location":"Леоновка","status":"unknown","count":null},{"lat":50.211,"lon":38.0997,"time":"2026-07-20T14:33:24+00:00","location":"Валуйского района","status":"unknown","count":null}],"firstSeen":"2026-07-20T14:33:24+00:00","lastSeen":"2026-07-20T14:33:24+00:00","ended":false,"distanceKm":293}],"updatedAt":"2026-07-20T20:11:44.886Z"}