{"tracks":[{"id":"trk-7","threatClass":"drone","points":[{"lat":55.6782,"lon":37.2668,"time":"2026-07-14T16:01:57+00:00","location":"Одинцово","status":"overhead","count":null},{"lat":55.4087,"lon":37.9095,"time":"2026-07-14T16:03:44+00:00","location":"Домодедово","status":"overhead","count":null},{"lat":55.422,"lon":38.2591,"time":"2026-07-14T16:25:43+00:00","location":"Бронницы","status":"overhead","count":null}],"firstSeen":"2026-07-14T16:01:57+00:00","lastSeen":"2026-07-14T16:25:43+00:00","ended":false,"distanceKm":72},{"id":"trk-11","threatClass":"drone","points":[{"lat":47.0971,"lon":37.5434,"time":"2026-07-14T17:22:27+00:00","location":"Мариуполь","status":"approaching","count":null},{"lat":48.0162,"lon":37.8095,"time":"2026-07-14T17:22:27+00:00","location":"ДНР","status":"approaching","count":null}],"firstSeen":"2026-07-14T17:22:27+00:00","lastSeen":"2026-07-14T17:22:27+00:00","ended":false,"distanceKm":104},{"id":"trk-12","threatClass":"drone","points":[{"lat":54.6938,"lon":38.1602,"time":"2026-07-14T17:32:42+00:00","location":"Веневский район","status":"approaching","count":3},{"lat":54.9656,"lon":39.0277,"time":"2026-07-14T17:34:28+00:00","location":"Луховицы","status":"approaching","count":null},{"lat":55.8062,"lon":38.981,"time":"2026-07-14T17:35:49+00:00","location":"Орехово-Зуево","status":"approaching","count":null}],"firstSeen":"2026-07-14T17:32:42+00:00","lastSeen":"2026-07-14T17:35:49+00:00","ended":false,"distanceKm":157},{"id":"trk-13","threatClass":"drone","points":[{"lat":55.0939,"lon":38.767,"time":"2026-07-14T17:34:28+00:00","location":"Коломна","status":"approaching","count":null},{"lat":55.9146,"lon":36.8595,"time":"2026-07-14T17:34:28+00:00","location":"Воскресенск","status":"approaching","count":null}],"firstSeen":"2026-07-14T17:34:28+00:00","lastSeen":"2026-07-14T17:34:28+00:00","ended":false,"distanceKm":151},{"id":"trk-14","threatClass":"drone","points":[{"lat":55.5784,"lon":39.5438,"time":"2026-07-14T17:35:49+00:00","location":"Шатура","status":"approaching","count":null},{"lat":55.2842,"lon":40.799,"time":"2026-07-14T18:13:14+00:00","location":"Гусь-Хрустальный район","status":"approaching","count":null}],"firstSeen":"2026-07-14T17:35:49+00:00","lastSeen":"2026-07-14T18:13:14+00:00","ended":false,"distanceKm":86},{"id":"trk-15","threatClass":"drone","points":[{"lat":51.5921,"lon":35.4129,"time":"2026-07-14T17:46:11+00:00","location":"Большие Угоны","status":"approaching","count":null},{"lat":51.6198,"lon":35.1329,"time":"2026-07-14T17:46:11+00:00","location":"Льговский район","status":"approaching","count":null}],"firstSeen":"2026-07-14T17:46:11+00:00","lastSeen":"2026-07-14T17:46:11+00:00","ended":false,"distanceKm":20},{"id":"trk-16","threatClass":"drone","points":[{"lat":44.7556,"lon":33.7235,"time":"2026-07-14T18:03:02+00:00","location":"Кача","status":"approaching","count":null},{"lat":44.6866,"lon":33.567,"time":"2026-07-14T18:03:02+00:00","location":"Бельбек","status":"approaching","count":null},{"lat":44.6166,"lon":33.5254,"time":"2026-07-14T18:30:48+00:00","location":"Севастополь","status":"approaching","count":null}],"firstSeen":"2026-07-14T18:03:02+00:00","lastSeen":"2026-07-14T18:30:48+00:00","ended":false,"distanceKm":23},{"id":"trk-17","threatClass":"drone","points":[{"lat":44.7555,"lon":33.8491,"time":"2026-07-14T18:19:57+00:00","location":"Бахчисарай","status":"approaching","count":null},{"lat":44.9888,"lon":33.8746,"time":"2026-07-14T18:19:57+00:00","location":"Симферопольский р-н","status":"approaching","count":null}],"firstSeen":"2026-07-14T18:19:57+00:00","lastSeen":"2026-07-14T18:19:57+00:00","ended":false,"distanceKm":26},{"id":"trk-18","threatClass":"drone","points":[{"lat":45.1981,"lon":36.0914,"time":"2026-07-14T21:49:37+00:00","location":"Марфовка Ленинский район","status":"approaching","count":null},{"lat":45.3636,"lon":36.6115,"time":"2026-07-14T22:49:36+00:00","location":"Республика Крым","status":"approaching","count":null}],"firstSeen":"2026-07-14T21:49:37+00:00","lastSeen":"2026-07-14T22:49:36+00:00","ended":false,"distanceKm":45},{"id":"trk-22","threatClass":"drone","points":[{"lat":47.0766,"lon":39.5542,"time":"2026-07-15T00:02:43+00:00","location":"Кулешовка","status":"unknown","count":null},{"lat":46.8996,"lon":39.2767,"time":"2026-07-15T00:02:43+00:00","location":"Азовский район","status":"unknown","count":null}],"firstSeen":"2026-07-15T00:02:43+00:00","lastSeen":"2026-07-15T00:02:43+00:00","ended":false,"distanceKm":29},{"id":"trk-26","threatClass":"missile","points":[{"lat":53.1585,"lon":48.4742,"time":"2026-07-15T00:53:58+00:00","location":"Сызрань","status":"unknown","count":null},{"lat":53.1959,"lon":50.1002,"time":"2026-07-15T00:53:58+00:00","location":"Самара","status":"unknown","count":null}],"firstSeen":"2026-07-15T00:53:58+00:00","lastSeen":"2026-07-15T00:53:58+00:00","ended":false,"distanceKm":108},{"id":"trk-27","threatClass":"missile","points":[{"lat":53.0996,"lon":49.9457,"time":"2026-07-15T00:53:58+00:00","location":"Новокуйбышевск","status":"unknown","count":null},{"lat":53.5099,"lon":49.4189,"time":"2026-07-15T00:53:58+00:00","location":"Тольятти","status":"unknown","count":null}],"firstSeen":"2026-07-15T00:53:58+00:00","lastSeen":"2026-07-15T00:53:58+00:00","ended":false,"distanceKm":58}],"updatedAt":"2026-07-15T00:57:59.850Z"}