{"tracks":[{"id":"trk-1","threatClass":"drone","points":[{"lat":51.6269,"lon":36.1275,"time":"2026-07-19T06:44:09+00:00","location":"Кукуевка","status":"unknown","count":null},{"lat":51.7209,"lon":36.3538,"time":"2026-07-19T06:44:09+00:00","location":"Долгое","status":"unknown","count":null}],"firstSeen":"2026-07-19T06:44:09+00:00","lastSeen":"2026-07-19T06:44:09+00:00","ended":false,"distanceKm":19},{"id":"trk-2","threatClass":"drone","points":[{"lat":50.211,"lon":38.0997,"time":"2026-07-19T06:44:09+00:00","location":"Валуйского района","status":"unknown","count":null},{"lat":50.9163,"lon":35.4272,"time":"2026-07-19T06:44:31+00:00","location":"Графовка","status":"approaching","count":null}],"firstSeen":"2026-07-19T06:44:09+00:00","lastSeen":"2026-07-19T06:44:31+00:00","ended":false,"distanceKm":204},{"id":"trk-7","threatClass":"drone","points":[{"lat":55.8781,"lon":36.8714,"time":"2026-07-19T09:56:15+00:00","location":"СНТ Садовод","status":"approaching","count":null},{"lat":55.7446,"lon":38.8489,"time":"2026-07-19T10:11:39+00:00","location":"Орехово-Зуевский район","status":"approaching","count":null}],"firstSeen":"2026-07-19T09:56:15+00:00","lastSeen":"2026-07-19T10:11:39+00:00","ended":false,"distanceKm":124},{"id":"trk-8","threatClass":"drone","points":[{"lat":55.8781,"lon":36.8714,"time":"2026-07-19T09:56:48+00:00","location":"СНТ Садовод","status":"approaching","count":null},{"lat":55.7446,"lon":38.8489,"time":"2026-07-19T10:13:54+00:00","location":"Орехово-Зуевский район","status":"approaching","count":null},{"lat":55.8062,"lon":38.981,"time":"2026-07-19T11:05:24+00:00","location":"Орехово-Зуево","status":"approaching","count":null},{"lat":57.0591,"lon":37.9645,"time":"2026-07-19T11:06:41+00:00","location":"Калязинский район","status":"approaching","count":null}],"firstSeen":"2026-07-19T09:56:48+00:00","lastSeen":"2026-07-19T11:06:41+00:00","ended":false,"distanceKm":288},{"id":"trk-18","threatClass":"drone","points":[{"lat":53.3413,"lon":35.6035,"time":"2026-07-19T11:04:02+00:00","location":"Знаменский район","status":"approaching","count":null},{"lat":53.8089,"lon":34.8495,"time":"2026-07-19T11:04:34+00:00","location":"Жиздринский район","status":"approaching","count":null}],"firstSeen":"2026-07-19T11:04:02+00:00","lastSeen":"2026-07-19T11:04:34+00:00","ended":false,"distanceKm":72},{"id":"trk-25","threatClass":"drone","points":[{"lat":44.8605,"lon":38.6093,"time":"2026-07-19T13:40:05+00:00","location":"НПЗ Ильский","status":"unknown","count":null},{"lat":44.8828,"lon":38.8255,"time":"2026-07-19T13:40:05+00:00","location":"НПЗ Афипский","status":"unknown","count":null}],"firstSeen":"2026-07-19T13:40:05+00:00","lastSeen":"2026-07-19T13:40:05+00:00","ended":false,"distanceKm":17},{"id":"trk-28","threatClass":"drone","points":[{"lat":55.3843,"lon":36.7235,"time":"2026-07-19T13:58:17+00:00","location":"Наро-Фоминск","status":"approaching","count":null},{"lat":55.6974,"lon":36.2834,"time":"2026-07-19T13:58:17+00:00","location":"Рузский","status":"approaching","count":null}],"firstSeen":"2026-07-19T13:58:17+00:00","lastSeen":"2026-07-19T13:58:17+00:00","ended":false,"distanceKm":44},{"id":"trk-34","threatClass":"drone","points":[{"lat":50.9786,"lon":36.1538,"time":"2026-07-19T17:50:17+00:00","location":"Новенькое","status":"approaching","count":null},{"lat":51.654,"lon":36.0497,"time":"2026-07-19T18:12:37+00:00","location":"Ворошнево","status":"approaching","count":null},{"lat":51.884,"lon":36.3168,"time":"2026-07-19T18:12:37+00:00","location":"Курский район","status":"approaching","count":null}],"firstSeen":"2026-07-19T17:50:17+00:00","lastSeen":"2026-07-19T18:12:37+00:00","ended":false,"distanceKm":107}],"updatedAt":"2026-07-19T18:41:34.348Z"}