{"tracks":[{"id":"trk-2","threatClass":"drone","points":[{"lat":54.6336,"lon":38.7356,"time":"2026-07-14T12:11:13+00:00","location":"Зарайский район","status":"approaching","count":null},{"lat":55.2677,"lon":36.6925,"time":"2026-07-14T12:13:12+00:00","location":"Боровский район","status":"approaching","count":3},{"lat":55.3808,"lon":36.4426,"time":"2026-07-14T12:13:47+00:00","location":"Наро-Фоминский район","status":"approaching","count":null},{"lat":55.5137,"lon":36.2643,"time":"2026-07-14T12:14:29+00:00","location":"Можайский район","status":"approaching","count":null}],"firstSeen":"2026-07-14T12:11:13+00:00","lastSeen":"2026-07-14T12:14:29+00:00","ended":false,"distanceKm":187},{"id":"trk-3","threatClass":"drone","points":[{"lat":55.0442,"lon":37.7154,"time":"2026-07-14T12:13:47+00:00","location":"Чеховский район","status":"approaching","count":null},{"lat":54.8443,"lon":38.0394,"time":"2026-07-14T12:15:06+00:00","location":"Ступинский район","status":"approaching","count":null}],"firstSeen":"2026-07-14T12:13:47+00:00","lastSeen":"2026-07-14T12:15:06+00:00","ended":false,"distanceKm":30},{"id":"trk-4","threatClass":"drone","points":[{"lat":54.9155,"lon":37.4196,"time":"2026-07-14T12:15:28+00:00","location":"Серпухов","status":"approaching","count":2},{"lat":56.6325,"lon":37.1245,"time":"2026-07-14T12:16:43+00:00","location":"Ступино","status":"approaching","count":6}],"firstSeen":"2026-07-14T12:15:28+00:00","lastSeen":"2026-07-14T12:16:43+00:00","ended":false,"distanceKm":192}],"updatedAt":"2026-07-14T13:10:42.508Z"}