{"tracks":[{"id":"trk-3","threatClass":"drone","points":[{"lat":44.8857,"lon":38.0857,"time":"2026-07-06T16:30:17+00:00","location":"Крымский район","status":"approaching","count":null},{"lat":45.5,"lon":39.5,"time":"2026-07-06T16:49:54+00:00","location":"Краснодарский край","status":"approaching","count":null}],"firstSeen":"2026-07-06T16:30:17+00:00","lastSeen":"2026-07-06T16:49:54+00:00","ended":false,"distanceKm":130},{"id":"trk-5","threatClass":"drone","points":[{"lat":44.7614,"lon":39.8713,"time":"2026-07-06T19:00:33+00:00","location":"Белореченск","status":"unknown","count":null},{"lat":45.3636,"lon":36.6115,"time":"2026-07-06T20:42:32+00:00","location":"Республика Крым","status":"approaching","count":null}],"firstSeen":"2026-07-06T19:00:33+00:00","lastSeen":"2026-07-06T20:42:32+00:00","ended":false,"distanceKm":265},{"id":"trk-6","threatClass":"drone","points":[{"lat":47.2362,"lon":38.8969,"time":"2026-07-06T19:07:55+00:00","location":"Таганрог","status":"overhead","count":null},{"lat":47.5126,"lon":34.5895,"time":"2026-07-06T20:11:33+00:00","location":"Запорожская область","status":"unknown","count":null}],"firstSeen":"2026-07-06T19:07:55+00:00","lastSeen":"2026-07-06T20:11:33+00:00","ended":false,"distanceKm":326},{"id":"trk-7","threatClass":"drone","points":[{"lat":47.2905,"lon":39.6657,"time":"2026-07-06T20:26:33+00:00","location":"Октябрьский район","status":"approaching","count":null},{"lat":44.7614,"lon":39.8713,"time":"2026-07-06T21:03:32+00:00","location":"Белореченск","status":"approaching","count":null}],"firstSeen":"2026-07-06T20:26:33+00:00","lastSeen":"2026-07-06T21:03:32+00:00","ended":false,"distanceKm":282},{"id":"trk-8","threatClass":"drone","points":[{"lat":54.4865,"lon":45.0128,"time":"2026-07-06T20:34:52+00:00","location":"Нижегородская область","status":"unknown","count":null},{"lat":52.5661,"lon":39.2899,"time":"2026-07-06T21:57:46+00:00","location":"Липецкий район","status":"approaching","count":5},{"lat":53.1649,"lon":38.2545,"time":"2026-07-06T22:37:04+00:00","location":"Ефремовский район","status":"approaching","count":null},{"lat":52.9685,"lon":36.0692,"time":"2026-07-06T23:03:50+00:00","location":"Орел","status":"approaching","count":null},{"lat":52.9708,"lon":35.4554,"time":"2026-07-06T23:18:04+00:00","location":"Урицкий район","status":"approaching","count":null},{"lat":52.858,"lon":35.1026,"time":"2026-07-06T23:18:04+00:00","location":"Шаблыкинский район","status":"approaching","count":null},{"lat":54.5275,"lon":33.3509,"time":"2026-07-07T00:54:14+00:00","location":"Ельнинский район","status":"approaching","count":null}],"firstSeen":"2026-07-06T20:34:52+00:00","lastSeen":"2026-07-07T00:54:14+00:00","ended":false,"distanceKm":964},{"id":"trk-9","threatClass":"drone","points":[{"lat":51.0539,"lon":38.9461,"time":"2026-07-06T20:36:51+00:00","location":"Репьевский район","status":"approaching","count":null},{"lat":52.5666,"lon":40.3535,"time":"2026-07-06T21:57:24+00:00","location":"Петровский район","status":"approaching","count":2},{"lat":52.8988,"lon":39.7359,"time":"2026-07-06T22:34:20+00:00","location":"Добровский район","status":"approaching","count":null},{"lat":54.7586,"lon":38.8818,"time":"2026-07-06T23:06:57+00:00","location":"Зарайск","status":"approaching","count":null}],"firstSeen":"2026-07-06T20:36:51+00:00","lastSeen":"2026-07-06T23:06:57+00:00","ended":false,"distanceKm":464},{"id":"trk-10","threatClass":"drone","points":[{"lat":48.5883,"lon":44.3931,"time":"2026-07-06T20:58:01+00:00","location":"Михайловский район","status":"approaching","count":null},{"lat":49.2817,"lon":41.7308,"time":"2026-07-06T22:33:45+00:00","location":"Боковский район","status":"approaching","count":null}],"firstSeen":"2026-07-06T20:58:01+00:00","lastSeen":"2026-07-06T22:33:45+00:00","ended":false,"distanceKm":209},{"id":"trk-11","threatClass":"drone","points":[{"lat":52.7427,"lon":35.3809,"time":"2026-07-06T21:07:43+00:00","location":"Сосковский район","status":"approaching","count":null},{"lat":52.5157,"lon":35.2526,"time":"2026-07-06T23:18:04+00:00","location":"Дмитровский район","status":"approaching","count":null},{"lat":50.3402,"lon":30.8916,"time":"2026-07-07T00:49:47+00:00","location":"Кива","status":"approaching","count":12},{"lat":50.5,"lon":30.3,"time":"2026-07-07T00:57:10+00:00","location":"Гарків","status":"overhead","count":7}],"firstSeen":"2026-07-06T21:07:43+00:00","lastSeen":"2026-07-07T00:57:10+00:00","ended":false,"distanceKm":459},{"id":"trk-12","threatClass":"drone","points":[{"lat":45.4324,"lon":37.8219,"time":"2026-07-06T21:43:32+00:00","location":"Славянский район","status":"approaching","count":null},{"lat":44.5672,"lon":33.4159,"time":"2026-07-06T23:09:01+00:00","location":"Бухта Казачья","status":"unknown","count":null}],"firstSeen":"2026-07-06T21:43:32+00:00","lastSeen":"2026-07-06T23:09:01+00:00","ended":false,"distanceKm":359},{"id":"trk-13","threatClass":"drone","points":[{"lat":53.0355,"lon":37.0551,"time":"2026-07-06T22:00:19+00:00","location":"Новосильский район","status":"approaching","count":null},{"lat":52.9042,"lon":36.6906,"time":"2026-07-06T22:00:19+00:00","location":"Залегощенский район","status":"approaching","count":null},{"lat":52.0929,"lon":37.4888,"time":"2026-07-06T22:00:19+00:00","location":"Должанский район","status":"approaching","count":null},{"lat":52.606,"lon":38.9206,"time":"2026-07-06T23:22:28+00:00","location":"Задонский район","status":"approaching","count":null},{"lat":54.9715,"lon":36.0575,"time":"2026-07-07T00:55:02+00:00","location":"Медынский район","status":"approaching","count":4},{"lat":55.3808,"lon":36.4426,"time":"2026-07-07T01:26:08+00:00","location":"Наро-Фоминский район","status":"approaching","count":3},{"lat":55.5137,"lon":36.2643,"time":"2026-07-07T01:26:53+00:00","location":"Можайский район","status":"approaching","count":2},{"lat":55.9937,"lon":35.9362,"time":"2026-07-07T01:28:29+00:00","location":"Волоколамск","status":"approaching","count":null},{"lat":56.227,"lon":35.6413,"time":"2026-07-07T01:28:29+00:00","location":"Лотошино","status":"approaching","count":null}],"firstSeen":"2026-07-06T22:00:19+00:00","lastSeen":"2026-07-07T01:28:29+00:00","ended":false,"distanceKm":729},{"id":"trk-14","threatClass":"drone","points":[{"lat":52.858,"lon":35.1026,"time":"2026-07-06T22:00:19+00:00","location":"Шаблыкинский район","status":"approaching","count":null},{"lat":52.9729,"lon":35.452,"time":"2026-07-06T22:00:19+00:00","location":"Хотынецкий район","status":"approaching","count":null},{"lat":53.8089,"lon":34.8495,"time":"2026-07-06T22:01:00+00:00","location":"Жиздринский район","status":"approaching","count":null},{"lat":54.1226,"lon":36.3581,"time":"2026-07-06T23:13:08+00:00","location":"Суворовский район","status":"approaching","count":null},{"lat":54.0045,"lon":37.5179,"time":"2026-07-07T00:50:06+00:00","location":"Щекино","status":"overhead","count":null},{"lat":53.5985,"lon":37.8191,"time":"2026-07-07T01:16:05+00:00","location":"Тёпло-Огарёвский район","status":"approaching","count":null},{"lat":53.6528,"lon":38.0915,"time":"2026-07-07T01:19:13+00:00","location":"Тульская область","status":"approaching","count":7},{"lat":54.0576,"lon":38.3597,"time":"2026-07-07T01:20:56+00:00","location":"Новомосковский район","status":"approaching","count":4},{"lat":54.1731,"lon":39.0747,"time":"2026-07-07T01:21:14+00:00","location":"Михайловский район","status":"approaching","count":2}],"firstSeen":"2026-07-06T22:00:19+00:00","lastSeen":"2026-07-07T01:21:14+00:00","ended":false,"distanceKm":474},{"id":"trk-15","threatClass":"drone","points":[{"lat":53.6046,"lon":32.6902,"time":"2026-07-06T22:03:30+00:00","location":"Ершичский район","status":"approaching","count":null},{"lat":53.4025,"lon":37.0331,"time":"2026-07-06T23:13:08+00:00","location":"Ленинский район","status":"approaching","count":null},{"lat":54.0576,"lon":38.3597,"time":"2026-07-06T23:13:08+00:00","location":"Новомосковский район","status":"approaching","count":null},{"lat":56.2868,"lon":38.7918,"time":"2026-07-07T00:47:45+00:00","location":"Киржачский район","status":"approaching","count":2},{"lat":56.4573,"lon":38.3482,"time":"2026-07-07T01:28:55+00:00","location":"Сергиево-Посадский","status":"approaching","count":null}],"firstSeen":"2026-07-06T22:03:30+00:00","lastSeen":"2026-07-07T01:28:55+00:00","ended":false,"distanceKm":684},{"id":"trk-16","threatClass":"drone","points":[{"lat":54.5293,"lon":36.2754,"time":"2026-07-06T22:51:23+00:00","location":"Калуга","status":"approaching","count":null},{"lat":54.5028,"lon":37.0667,"time":"2026-07-06T23:02:32+00:00","location":"Алексин","status":"overhead","count":null},{"lat":54.0221,"lon":37.8625,"time":"2026-07-06T23:13:08+00:00","location":"Киреевский район","status":"approaching","count":null},{"lat":53.5985,"lon":37.8191,"time":"2026-07-06T23:13:08+00:00","location":"Тепло-Огаревский район","status":"approaching","count":null},{"lat":53.2413,"lon":37.7558,"time":"2026-07-06T23:13:08+00:00","location":"Каменский район","status":"approaching","count":null},{"lat":52.9857,"lon":35.9383,"time":"2026-07-06T23:40:51+00:00","location":"Орловский район","status":"approaching","count":2},{"lat":55.1964,"lon":34.3311,"time":"2026-07-07T00:54:01+00:00","location":"Вяземский район","status":"approaching","count":null}],"firstSeen":"2026-07-06T22:51:23+00:00","lastSeen":"2026-07-07T00:54:01+00:00","ended":false,"distanceKm":604},{"id":"trk-17","threatClass":"drone","points":[{"lat":57.6555,"lon":39.9425,"time":"2026-07-06T22:22:57+00:00","location":"Много.","status":"approaching","count":null},{"lat":55.5784,"lon":39.5438,"time":"2026-07-06T23:09:09+00:00","location":"Шатура","status":"approaching","count":null}],"firstSeen":"2026-07-06T22:22:57+00:00","lastSeen":"2026-07-06T23:09:09+00:00","ended":false,"distanceKm":232},{"id":"trk-18","threatClass":"drone","points":[{"lat":51.5384,"lon":46.0063,"time":"2026-07-06T23:06:41+00:00","location":"Саратовский район","status":"approaching","count":2},{"lat":53.1353,"lon":44.2759,"time":"2026-07-06T23:38:32+00:00","location":"Каменский район","status":"approaching","count":null},{"lat":50.4605,"lon":39.3894,"time":"2026-07-07T00:52:15+00:00","location":"Ольховатский район","status":"approaching","count":2},{"lat":50.3476,"lon":39.4458,"time":"2026-07-07T01:16:53+00:00","location":"Россошанский район","status":"approaching","count":10}],"firstSeen":"2026-07-06T23:06:41+00:00","lastSeen":"2026-07-07T01:16:53+00:00","ended":false,"distanceKm":675},{"id":"trk-20","threatClass":"drone","points":[{"lat":54.0705,"lon":34.2991,"time":"2026-07-06T23:14:53+00:00","location":"Кировский район","status":"approaching","count":null},{"lat":53.8089,"lon":34.8495,"time":"2026-07-06T23:14:53+00:00","location":"Жиздринский район","status":"approaching","count":null},{"lat":54.2141,"lon":35.3921,"time":"2026-07-06T23:14:53+00:00","location":"Мещовский район","status":"approaching","count":null},{"lat":54.7905,"lon":34.3736,"time":"2026-07-06T23:15:47+00:00","location":"Угранский район","status":"approaching","count":null},{"lat":55.1964,"lon":34.3311,"time":"2026-07-06T23:15:47+00:00","location":"Вяземский район","status":"approaching","count":null},{"lat":56.5744,"lon":34.8805,"time":"2026-07-07T00:53:23+00:00","location":"Старицкий район","status":"approaching","count":null},{"lat":55.8062,"lon":38.981,"time":"2026-07-07T01:28:29+00:00","location":"Орехово-Зуево","status":"approaching","count":null}],"firstSeen":"2026-07-06T23:14:53+00:00","lastSeen":"2026-07-07T01:28:29+00:00","ended":false,"distanceKm":665},{"id":"trk-21","threatClass":"drone","points":[{"lat":53.8631,"lon":34.4489,"time":"2026-07-06T23:14:53+00:00","location":"Людиновский район","status":"approaching","count":null},{"lat":55.5065,"lon":36.0213,"time":"2026-07-07T00:53:40+00:00","location":"Можайск","status":"approaching","count":2},{"lat":55.3737,"lon":37.7834,"time":"2026-07-07T01:18:12+00:00","location":"Домодедово","status":"shot_down","count":1}],"firstSeen":"2026-07-06T23:14:53+00:00","lastSeen":"2026-07-07T01:18:12+00:00","ended":true,"distanceKm":321},{"id":"trk-22","threatClass":"drone","points":[{"lat":54.5293,"lon":36.2754,"time":"2026-07-06T23:18:26+00:00","location":"Калуга","status":"approaching","count":null},{"lat":55.4087,"lon":37.9095,"time":"2026-07-07T00:49:31+00:00","location":"Домодедово","status":"approaching","count":1},{"lat":54.709,"lon":39.5045,"time":"2026-07-07T00:51:10+00:00","location":"Рязанский район","status":"approaching","count":null}],"firstSeen":"2026-07-06T23:18:26+00:00","lastSeen":"2026-07-07T00:51:10+00:00","ended":false,"distanceKm":271},{"id":"trk-23","threatClass":"drone","points":[{"lat":54.0045,"lon":37.5179,"time":"2026-07-06T23:21:40+00:00","location":"Щекино","status":"overhead","count":null},{"lat":54.1931,"lon":37.6173,"time":"2026-07-07T00:45:03+00:00","location":"Тула","status":"shot_down","count":3}],"firstSeen":"2026-07-06T23:21:40+00:00","lastSeen":"2026-07-07T00:45:03+00:00","ended":true,"distanceKm":22},{"id":"trk-24","threatClass":"drone","points":[{"lat":53.9418,"lon":43.1297,"time":"2026-07-06T23:41:33+00:00","location":"Республика Мордовия","status":"unknown","count":null},{"lat":51.6608,"lon":39.2003,"time":"2026-07-07T00:54:43+00:00","location":"Воронеж","status":"approaching","count":12},{"lat":54.5207,"lon":35.9735,"time":"2026-07-07T00:55:25+00:00","location":"Бабынинский район","status":"approaching","count":null},{"lat":55.2,"lon":30.5,"time":"2026-07-07T00:57:10+00:00","location":"Колимер","status":"approaching","count":12},{"lat":55,"lon":30,"time":"2026-07-07T01:07:18+00:00","location":"Серпухов","status":"approaching","count":5}],"firstSeen":"2026-07-06T23:41:33+00:00","lastSeen":"2026-07-07T01:07:18+00:00","ended":false,"distanceKm":1147},{"id":"trk-27","threatClass":"drone","points":[{"lat":54.1226,"lon":36.3581,"time":"2026-07-07T00:55:43+00:00","location":"Суворовский район","status":"approaching","count":null},{"lat":53.761,"lon":36.1634,"time":"2026-07-07T00:56:03+00:00","location":"Белевский район","status":"approaching","count":2},{"lat":52.5157,"lon":35.2526,"time":"2026-07-07T00:57:45+00:00","location":"Дмитровский район","status":"approaching","count":3}],"firstSeen":"2026-07-07T00:55:43+00:00","lastSeen":"2026-07-07T00:57:45+00:00","ended":false,"distanceKm":193},{"id":"trk-29","threatClass":"drone","points":[{"lat":52.9708,"lon":35.4554,"time":"2026-07-07T00:58:04+00:00","location":"Урицкий район","status":"approaching","count":null},{"lat":52.9042,"lon":36.6906,"time":"2026-07-07T01:12:54+00:00","location":"Залегощенский район","status":"approaching","count":2}],"firstSeen":"2026-07-07T00:58:04+00:00","lastSeen":"2026-07-07T01:12:54+00:00","ended":false,"distanceKm":83},{"id":"trk-30","threatClass":"drone","points":[{"lat":55.4087,"lon":37.9095,"time":"2026-07-07T01:06:27+00:00","location":"Домодедово","status":"approaching","count":2},{"lat":57.6973,"lon":40.663,"time":"2026-07-07T01:07:58+00:00","location":"Костромская область","status":"unknown","count":null}],"firstSeen":"2026-07-07T01:06:27+00:00","lastSeen":"2026-07-07T01:07:58+00:00","ended":false,"distanceKm":305},{"id":"trk-32","threatClass":"drone","points":[{"lat":55.7,"lon":30.3,"time":"2026-07-07T01:08:15+00:00","location":"Кива","status":"approaching","count":12},{"lat":55.2,"lon":30.5,"time":"2026-07-07T01:19:13+00:00","location":"Куркинский район","status":"approaching","count":12},{"lat":54.1226,"lon":36.3581,"time":"2026-07-07T01:19:51+00:00","location":"Суворовский район","status":"approaching","count":2}],"firstSeen":"2026-07-07T01:08:15+00:00","lastSeen":"2026-07-07T01:19:51+00:00","ended":false,"distanceKm":452},{"id":"trk-33","threatClass":"drone","points":[{"lat":52.9857,"lon":35.9383,"time":"2026-07-07T01:12:34+00:00","location":"Орловский район","status":"approaching","count":3},{"lat":52.6765,"lon":36.2816,"time":"2026-07-07T01:13:35+00:00","location":"Свердловский район","status":"approaching","count":3},{"lat":52.3932,"lon":36.5399,"time":"2026-07-07T01:13:59+00:00","location":"Малоархангельский район","status":"approaching","count":2},{"lat":52.2425,"lon":37.0479,"time":"2026-07-07T01:14:18+00:00","location":"Колпнянский район","status":"approaching","count":5},{"lat":52.4109,"lon":37.3745,"time":"2026-07-07T01:15:47+00:00","location":"Ливенский район","status":"approaching","count":2}],"firstSeen":"2026-07-07T01:12:34+00:00","lastSeen":"2026-07-07T01:15:47+00:00","ended":false,"distanceKm":145},{"id":"trk-34","threatClass":"drone","points":[{"lat":50.3402,"lon":30.8916,"time":"2026-07-07T01:17:32+00:00","location":"Кива","status":"approaching","count":5},{"lat":47.1234,"lon":30.5678,"time":"2026-07-07T01:17:32+00:00","location":"Одеза","status":"approaching","count":3}],"firstSeen":"2026-07-07T01:17:32+00:00","lastSeen":"2026-07-07T01:17:32+00:00","ended":false,"distanceKm":358},{"id":"trk-36","threatClass":"drone","points":[{"lat":53.4518,"lon":36.822,"time":"2026-07-07T01:17:55+00:00","location":"Чернский район","status":"approaching","count":2},{"lat":53.7064,"lon":37.293,"time":"2026-07-07T01:19:29+00:00","location":"Плавский район","status":"approaching","count":null}],"firstSeen":"2026-07-07T01:17:55+00:00","lastSeen":"2026-07-07T01:19:29+00:00","ended":false,"distanceKm":42},{"id":"trk-38","threatClass":"drone","points":[{"lat":50.7,"lon":37.6,"time":"2026-07-07T01:22:57+00:00","location":"Белгородская область","status":"approaching","count":null},{"lat":54.6938,"lon":38.1602,"time":"2026-07-07T01:23:56+00:00","location":"Веневский район","status":"approaching","count":null},{"lat":55.0939,"lon":38.767,"time":"2026-07-07T01:25:28+00:00","location":"Коломна","status":"approaching","count":12},{"lat":55.5,"lon":37.8,"time":"2026-07-07T01:25:28+00:00","location":"ГО Ступино","status":"shot_down","count":5}],"firstSeen":"2026-07-07T01:22:57+00:00","lastSeen":"2026-07-07T01:25:28+00:00","ended":true,"distanceKm":581},{"id":"trk-39","threatClass":"drone","points":[{"lat":54.7586,"lon":38.8818,"time":"2026-07-07T01:23:27+00:00","location":"Зарайск","status":"approaching","count":null},{"lat":54.6684,"lon":37.4727,"time":"2026-07-07T01:23:56+00:00","location":"Заокский район","status":"approaching","count":null},{"lat":54.1014,"lon":35.3397,"time":"2026-07-07T01:24:40+00:00","location":"Сухиничский район","status":"approaching","count":null}],"firstSeen":"2026-07-07T01:23:27+00:00","lastSeen":"2026-07-07T01:24:40+00:00","ended":false,"distanceKm":243},{"id":"trk-40","threatClass":"drone","points":[{"lat":54.2141,"lon":35.3921,"time":"2026-07-07T01:24:40+00:00","location":"Мещовский район","status":"approaching","count":null},{"lat":54.5207,"lon":35.9735,"time":"2026-07-07T01:24:40+00:00","location":"Бабынинский район","status":"approaching","count":null},{"lat":54.1931,"lon":37.6173,"time":"2026-07-07T01:25:48+00:00","location":"Тула","status":"overhead","count":null}],"firstSeen":"2026-07-07T01:24:40+00:00","lastSeen":"2026-07-07T01:25:48+00:00","ended":false,"distanceKm":163}],"updatedAt":"2026-07-07T01:31:09.026Z"}