{"tracks":[{"id":"trk-1","threatClass":"drone","points":[{"lat":44.6055,"lon":39.7131,"time":"2026-07-07T05:00:45+00:00","location":"Кубанская","status":"approaching","count":null},{"lat":44.3009,"lon":39.7356,"time":"2026-07-07T05:00:45+00:00","location":"Апшеронский район","status":"approaching","count":null}],"firstSeen":"2026-07-07T05:00:45+00:00","lastSeen":"2026-07-07T05:00:45+00:00","ended":false,"distanceKm":34},{"id":"trk-2","threatClass":"drone","points":[{"lat":55.7751,"lon":40.4229,"time":"2026-07-07T05:02:04+00:00","location":"Иванищи","status":"unknown","count":null},{"lat":55.2842,"lon":40.799,"time":"2026-07-07T05:02:04+00:00","location":"Гусь-Хрустальный район","status":"unknown","count":null}],"firstSeen":"2026-07-07T05:02:04+00:00","lastSeen":"2026-07-07T05:02:04+00:00","ended":false,"distanceKm":59},{"id":"trk-3","threatClass":"drone","points":[{"lat":56.0151,"lon":39.9466,"time":"2026-07-07T05:02:44+00:00","location":"Лакинск","status":"unknown","count":null},{"lat":56.2588,"lon":38.4519,"time":"2026-07-07T05:33:03+00:00","location":"Площево","status":"approaching","count":null},{"lat":56.3153,"lon":38.136,"time":"2026-07-07T06:21:58+00:00","location":"Сергиев Посад","status":"approaching","count":null}],"firstSeen":"2026-07-07T05:02:44+00:00","lastSeen":"2026-07-07T06:21:58+00:00","ended":false,"distanceKm":117},{"id":"trk-8","threatClass":"drone","points":[{"lat":56.4274,"lon":40.4408,"time":"2026-07-07T05:33:03+00:00","location":"Александровский район","status":"approaching","count":null},{"lat":55.2842,"lon":40.799,"time":"2026-07-07T06:18:36+00:00","location":"Гусь-Хрустальный район","status":"approaching","count":null}],"firstSeen":"2026-07-07T05:33:03+00:00","lastSeen":"2026-07-07T06:18:36+00:00","ended":false,"distanceKm":129},{"id":"trk-16","threatClass":"drone","points":[{"lat":58.4691,"lon":41.8648,"time":"2026-07-07T05:42:43+00:00","location":"Калинино","status":"approaching","count":null},{"lat":57.6973,"lon":40.663,"time":"2026-07-07T05:42:43+00:00","location":"Костромской район","status":"approaching","count":null}],"firstSeen":"2026-07-07T05:42:43+00:00","lastSeen":"2026-07-07T05:42:43+00:00","ended":false,"distanceKm":111},{"id":"trk-17","threatClass":"drone","points":[{"lat":56.2868,"lon":38.7918,"time":"2026-07-07T06:19:41+00:00","location":"Киржачский район","status":"approaching","count":null},{"lat":55.5784,"lon":39.5438,"time":"2026-07-07T06:20:32+00:00","location":"Шатура","status":"approaching","count":3}],"firstSeen":"2026-07-07T06:19:41+00:00","lastSeen":"2026-07-07T06:20:32+00:00","ended":false,"distanceKm":92},{"id":"trk-18","threatClass":"drone","points":[{"lat":57.4064,"lon":41.2043,"time":"2026-07-07T06:23:56+00:00","location":"Красносельский район","status":"approaching","count":null},{"lat":57.6261,"lon":39.8845,"time":"2026-07-07T06:43:37+00:00","location":"Ярославль","status":"approaching","count":null}],"firstSeen":"2026-07-07T06:23:56+00:00","lastSeen":"2026-07-07T06:43:37+00:00","ended":false,"distanceKm":83},{"id":"trk-19","threatClass":"drone","points":[{"lat":52.2425,"lon":37.0479,"time":"2026-07-07T06:25:47+00:00","location":"Колпнянский район","status":"approaching","count":null},{"lat":52.3932,"lon":36.5399,"time":"2026-07-07T06:26:44+00:00","location":"Малоархангельский район","status":"approaching","count":2},{"lat":52.3967,"lon":35.8058,"time":"2026-07-07T06:27:51+00:00","location":"Троснянский район","status":"approaching","count":null},{"lat":52.858,"lon":35.1026,"time":"2026-07-07T06:28:36+00:00","location":"Шаблыкинский район","status":"approaching","count":null}],"firstSeen":"2026-07-07T06:25:47+00:00","lastSeen":"2026-07-07T06:28:36+00:00","ended":false,"distanceKm":158},{"id":"trk-20","threatClass":"drone","points":[{"lat":52.5715,"lon":36.8974,"time":"2026-07-07T06:27:34+00:00","location":"Покровский район","status":"approaching","count":null},{"lat":52.9857,"lon":35.9383,"time":"2026-07-07T06:46:16+00:00","location":"Орловский район","status":"approaching","count":2}],"firstSeen":"2026-07-07T06:27:34+00:00","lastSeen":"2026-07-07T06:46:16+00:00","ended":false,"distanceKm":79},{"id":"trk-22","threatClass":"drone","points":[{"lat":57.6964,"lon":40.6575,"time":"2026-07-07T06:44:30+00:00","location":"Ярославская область","status":"unknown","count":null},{"lat":57.7367,"lon":40.5455,"time":"2026-07-07T07:01:10+00:00","location":"Черная Заводь","status":"unknown","count":null}],"firstSeen":"2026-07-07T06:44:30+00:00","lastSeen":"2026-07-07T07:01:10+00:00","ended":false,"distanceKm":8},{"id":"trk-24","threatClass":"drone","points":[{"lat":52.9685,"lon":36.0692,"time":"2026-07-07T06:45:56+00:00","location":"Орел","status":"approaching","count":null},{"lat":53.5983,"lon":37.8195,"time":"2026-07-07T06:46:55+00:00","location":"Воловский район","status":"approaching","count":null},{"lat":53.7136,"lon":38.1682,"time":"2026-07-07T06:46:55+00:00","location":"Богородицкий район","status":"approaching","count":null}],"firstSeen":"2026-07-07T06:45:56+00:00","lastSeen":"2026-07-07T06:46:55+00:00","ended":false,"distanceKm":162},{"id":"trk-25","threatClass":"drone","points":[{"lat":53.9435,"lon":36.7279,"time":"2026-07-07T06:47:27+00:00","location":"Одоевский район","status":"approaching","count":2},{"lat":53.7236,"lon":35.5324,"time":"2026-07-07T06:49:01+00:00","location":"Ульяновский район","status":"approaching","count":3}],"firstSeen":"2026-07-07T06:47:27+00:00","lastSeen":"2026-07-07T06:49:01+00:00","ended":false,"distanceKm":82},{"id":"trk-27","threatClass":"drone","points":[{"lat":52.3967,"lon":35.8058,"time":"2026-07-07T08:33:38+00:00","location":"Троснянский район","status":"approaching","count":null},{"lat":52.2425,"lon":37.0479,"time":"2026-07-07T08:34:18+00:00","location":"Колпнянский район","status":"approaching","count":null},{"lat":51.2136,"lon":39.0706,"time":"2026-07-07T08:34:53+00:00","location":"Острогожский район","status":"approaching","count":null}],"firstSeen":"2026-07-07T08:33:38+00:00","lastSeen":"2026-07-07T08:34:53+00:00","ended":false,"distanceKm":266},{"id":"trk-28","threatClass":"drone","points":[{"lat":44.8857,"lon":38.0857,"time":"2026-07-07T08:47:11+00:00","location":"Крымский район","status":"approaching","count":null},{"lat":43.5855,"lon":39.7231,"time":"2026-07-07T09:29:25+00:00","location":"Сочи","status":"overhead","count":null}],"firstSeen":"2026-07-07T08:47:11+00:00","lastSeen":"2026-07-07T09:29:25+00:00","ended":false,"distanceKm":195},{"id":"trk-38","threatClass":"drone","points":[{"lat":55.5598,"lon":33.2145,"time":"2026-07-07T15:07:58+00:00","location":"Холм-Жирковский район","status":"approaching","count":null},{"lat":55.8657,"lon":34.1218,"time":"2026-07-07T15:07:58+00:00","location":"Сычевский район","status":"approaching","count":null}],"firstSeen":"2026-07-07T15:07:58+00:00","lastSeen":"2026-07-07T15:07:58+00:00","ended":false,"distanceKm":66},{"id":"trk-40","threatClass":"drone","points":[{"lat":48.312,"lon":38.2609,"time":"2026-07-07T15:19:31+00:00","location":"Углегорск","status":"unknown","count":null},{"lat":48.3397,"lon":38.3999,"time":"2026-07-07T15:19:31+00:00","location":"Дебальцево","status":"unknown","count":null}],"firstSeen":"2026-07-07T15:19:31+00:00","lastSeen":"2026-07-07T15:19:31+00:00","ended":false,"distanceKm":11}],"updatedAt":"2026-07-07T15:21:19.032Z"}