{"tracks":[{"id":"trk-1","threatClass":"drone","points":[{"lat":50.3379,"lon":36.494,"time":"2026-07-12T09:16:05+00:00","location":"Устинка","status":"approaching","count":null},{"lat":50.5228,"lon":36.3825,"time":"2026-07-12T09:16:05+00:00","location":"Белгородский район","status":"approaching","count":null}],"firstSeen":"2026-07-12T09:16:05+00:00","lastSeen":"2026-07-12T09:16:05+00:00","ended":false,"distanceKm":22},{"id":"trk-5","threatClass":"drone","points":[{"lat":55.4083,"lon":36.7976,"time":"2026-07-12T11:06:55+00:00","location":"Александровка","status":"approaching","count":null},{"lat":55.3808,"lon":36.4426,"time":"2026-07-12T11:06:55+00:00","location":"Наро-Фоминский район","status":"approaching","count":null},{"lat":54.9715,"lon":36.0575,"time":"2026-07-12T11:08:10+00:00","location":"Медынский район","status":"approaching","count":null},{"lat":54.0986,"lon":36.2472,"time":"2026-07-12T11:28:20+00:00","location":"Чекалин","status":"approaching","count":null}],"firstSeen":"2026-07-12T11:06:55+00:00","lastSeen":"2026-07-12T11:28:20+00:00","ended":false,"distanceKm":172},{"id":"trk-6","threatClass":"drone","points":[{"lat":55.4083,"lon":36.7976,"time":"2026-07-12T11:15:31+00:00","location":"Александровка","status":"approaching","count":null},{"lat":55.3808,"lon":36.4426,"time":"2026-07-12T11:15:31+00:00","location":"Наро-Фоминский район","status":"approaching","count":null}],"firstSeen":"2026-07-12T11:15:31+00:00","lastSeen":"2026-07-12T11:15:31+00:00","ended":false,"distanceKm":23},{"id":"trk-7","threatClass":"drone","points":[{"lat":45.8567,"lon":40.1256,"time":"2026-07-12T11:23:56+00:00","location":"Тихорецк","status":"unknown","count":null},{"lat":44.9892,"lon":41.1231,"time":"2026-07-12T11:23:56+00:00","location":"Армавир","status":"unknown","count":null}],"firstSeen":"2026-07-12T11:23:56+00:00","lastSeen":"2026-07-12T11:23:56+00:00","ended":false,"distanceKm":124},{"id":"trk-8","threatClass":"drone","points":[{"lat":52.278,"lon":32.1681,"time":"2026-07-12T11:34:55+00:00","location":"Климовский район","status":"unknown","count":null},{"lat":52.7061,"lon":32.031,"time":"2026-07-12T11:34:55+00:00","location":"Клинцовский район","status":"unknown","count":null}],"firstSeen":"2026-07-12T11:34:55+00:00","lastSeen":"2026-07-12T11:34:55+00:00","ended":false,"distanceKm":48},{"id":"trk-9","threatClass":"drone","points":[{"lat":52.5154,"lon":32.715,"time":"2026-07-12T11:34:55+00:00","location":"Стародубский район","status":"unknown","count":null},{"lat":52.5207,"lon":33.2053,"time":"2026-07-12T11:34:55+00:00","location":"Погарский район","status":"unknown","count":null}],"firstSeen":"2026-07-12T11:34:55+00:00","lastSeen":"2026-07-12T11:34:55+00:00","ended":false,"distanceKm":33},{"id":"trk-10","threatClass":"drone","points":[{"lat":54.7276,"lon":37.1771,"time":"2026-07-12T11:35:42+00:00","location":"Тарусский район","status":"approaching","count":2},{"lat":55.1964,"lon":34.3311,"time":"2026-07-12T11:36:23+00:00","location":"Вяземский район","status":"approaching","count":null},{"lat":55.8657,"lon":34.1218,"time":"2026-07-12T11:36:54+00:00","location":"Сычевский район","status":"approaching","count":null}],"firstSeen":"2026-07-12T11:35:42+00:00","lastSeen":"2026-07-12T11:36:54+00:00","ended":false,"distanceKm":265},{"id":"trk-12","threatClass":"drone","points":[{"lat":55.7558,"lon":37.6173,"time":"2026-07-12T11:38:42+00:00","location":"Москва","status":"approaching","count":null},{"lat":55.4087,"lon":37.9095,"time":"2026-07-12T11:53:17+00:00","location":"Домодедово","status":"overhead","count":null}],"firstSeen":"2026-07-12T11:38:42+00:00","lastSeen":"2026-07-12T11:53:17+00:00","ended":false,"distanceKm":43},{"id":"trk-13","threatClass":"drone","points":[{"lat":55.5065,"lon":36.0213,"time":"2026-07-12T11:40:48+00:00","location":"Можайск","status":"approaching","count":2},{"lat":55.6974,"lon":36.2834,"time":"2026-07-12T11:51:32+00:00","location":"Рузский","status":"approaching","count":2}],"firstSeen":"2026-07-12T11:40:48+00:00","lastSeen":"2026-07-12T11:51:32+00:00","ended":false,"distanceKm":27},{"id":"trk-14","threatClass":"drone","points":[{"lat":56.6325,"lon":37.1245,"time":"2026-07-12T11:45:17+00:00","location":"Ступино","status":"approaching","count":4},{"lat":55.0939,"lon":38.767,"time":"2026-07-12T11:45:56+00:00","location":"Коломна","status":"overhead","count":null}],"firstSeen":"2026-07-12T11:45:17+00:00","lastSeen":"2026-07-12T11:45:56+00:00","ended":false,"distanceKm":199},{"id":"trk-17","threatClass":"drone","points":[{"lat":44.9892,"lon":41.1231,"time":"2026-07-12T11:57:39+00:00","location":"Армавир","status":"approaching","count":null},{"lat":44.8852,"lon":40.5895,"time":"2026-07-12T11:57:39+00:00","location":"Курганинск","status":"approaching","count":null}],"firstSeen":"2026-07-12T11:57:39+00:00","lastSeen":"2026-07-12T11:57:39+00:00","ended":false,"distanceKm":44},{"id":"trk-19","threatClass":"drone","points":[{"lat":53.6667,"lon":33.35,"time":"2026-07-12T11:59:27+00:00","location":"Сосновка","status":"approaching","count":null},{"lat":53.1676,"lon":34.2052,"time":"2026-07-12T11:59:27+00:00","location":"Выгоничский район","status":"approaching","count":null}],"firstSeen":"2026-07-12T11:59:27+00:00","lastSeen":"2026-07-12T11:59:27+00:00","ended":false,"distanceKm":79},{"id":"trk-21","threatClass":"drone","points":[{"lat":46.3013,"lon":30.6549,"time":"2026-07-12T13:26:21+00:00","location":"Чорноморськ).","status":"unknown","count":null},{"lat":46.3731,"lon":30.6909,"time":"2026-07-12T14:15:46+00:00","location":"Лиманка).","status":"unknown","count":null}],"firstSeen":"2026-07-12T13:26:21+00:00","lastSeen":"2026-07-12T14:15:46+00:00","ended":false,"distanceKm":8},{"id":"trk-24","threatClass":"drone","points":[{"lat":53.3413,"lon":35.6035,"time":"2026-07-12T13:50:22+00:00","location":"Знаменский район","status":"approaching","count":null},{"lat":53.4361,"lon":35.988,"time":"2026-07-12T13:50:22+00:00","location":"Болховский район","status":"approaching","count":null},{"lat":54.1226,"lon":36.3581,"time":"2026-07-12T13:52:07+00:00","location":"Суворовский район","status":"approaching","count":null}],"firstSeen":"2026-07-12T13:50:22+00:00","lastSeen":"2026-07-12T13:52:07+00:00","ended":false,"distanceKm":108},{"id":"trk-25","threatClass":"drone","points":[{"lat":53.761,"lon":36.1634,"time":"2026-07-12T13:52:07+00:00","location":"Белевский район","status":"approaching","count":null},{"lat":53.7064,"lon":37.293,"time":"2026-07-12T13:52:07+00:00","location":"Плавский район","status":"approaching","count":null},{"lat":54.1931,"lon":37.6173,"time":"2026-07-12T14:38:26+00:00","location":"Тула","status":"overhead","count":null}],"firstSeen":"2026-07-12T13:52:07+00:00","lastSeen":"2026-07-12T14:38:26+00:00","ended":false,"distanceKm":133},{"id":"trk-26","threatClass":"drone","points":[{"lat":54.8479,"lon":33.3234,"time":"2026-07-12T13:52:39+00:00","location":"Дорогобужский район","status":"approaching","count":null},{"lat":54.7905,"lon":34.3736,"time":"2026-07-12T13:52:39+00:00","location":"Угранский район","status":"approaching","count":null}],"firstSeen":"2026-07-12T13:52:39+00:00","lastSeen":"2026-07-12T13:52:39+00:00","ended":false,"distanceKm":68},{"id":"trk-28","threatClass":"drone","points":[{"lat":54.1226,"lon":36.3581,"time":"2026-07-12T14:50:18+00:00","location":"Суворовский район","status":"approaching","count":null},{"lat":54.6938,"lon":38.1602,"time":"2026-07-12T14:50:18+00:00","location":"Веневский район","status":"approaching","count":null},{"lat":55.4087,"lon":37.9095,"time":"2026-07-12T15:36:51+00:00","location":"Домодедово","status":"overhead","count":null},{"lat":55.9146,"lon":36.8595,"time":"2026-07-12T15:37:19+00:00","location":"Воскресенск","status":"approaching","count":2}],"firstSeen":"2026-07-12T14:50:18+00:00","lastSeen":"2026-07-12T15:37:19+00:00","ended":false,"distanceKm":300},{"id":"trk-29","threatClass":"drone","points":[{"lat":53.4025,"lon":37.0331,"time":"2026-07-12T14:50:18+00:00","location":"Ленинский район","status":"approaching","count":null},{"lat":52.9685,"lon":36.0692,"time":"2026-07-12T14:50:54+00:00","location":"Орел","status":"overhead","count":null}],"firstSeen":"2026-07-12T14:50:18+00:00","lastSeen":"2026-07-12T14:50:54+00:00","ended":false,"distanceKm":80},{"id":"trk-31","threatClass":"drone","points":[{"lat":55.0939,"lon":38.767,"time":"2026-07-12T15:41:06+00:00","location":"Коломна","status":"overhead","count":null},{"lat":55.3843,"lon":36.7235,"time":"2026-07-12T15:41:24+00:00","location":"Наро-Фоминск","status":"approaching","count":2}],"firstSeen":"2026-07-12T15:41:06+00:00","lastSeen":"2026-07-12T15:41:24+00:00","ended":false,"distanceKm":134},{"id":"trk-33","threatClass":"drone","points":[{"lat":54.2216,"lon":36.3493,"time":"2026-07-12T16:58:56+00:00","location":"Калужская область","status":"unknown","count":null},{"lat":52.5094,"lon":35.1457,"time":"2026-07-12T17:46:15+00:00","location":"Дмитровск","status":"approaching","count":null}],"firstSeen":"2026-07-12T16:58:56+00:00","lastSeen":"2026-07-12T17:46:15+00:00","ended":false,"distanceKm":206},{"id":"trk-34","threatClass":"drone","points":[{"lat":54.2216,"lon":36.3493,"time":"2026-07-12T17:01:38+00:00","location":"Калужская область","status":"unknown","count":null},{"lat":54.1931,"lon":37.6173,"time":"2026-07-12T17:49:15+00:00","location":"Тула","status":"overhead","count":null},{"lat":53.7845,"lon":39.2369,"time":"2026-07-12T18:37:22+00:00","location":"Скопинский район","status":"approaching","count":null}],"firstSeen":"2026-07-12T17:01:38+00:00","lastSeen":"2026-07-12T18:37:22+00:00","ended":false,"distanceKm":198},{"id":"trk-36","threatClass":"drone","points":[{"lat":46.7868,"lon":39.6656,"time":"2026-07-12T17:57:14+00:00","location":"Кущевский район","status":"approaching","count":null},{"lat":46.7909,"lon":40.4949,"time":"2026-07-12T17:57:52+00:00","location":"Зерноградский район","status":"approaching","count":null},{"lat":46.573,"lon":41.0272,"time":"2026-07-12T17:58:59+00:00","location":"Целинский район","status":"approaching","count":null}],"firstSeen":"2026-07-12T17:57:14+00:00","lastSeen":"2026-07-12T17:58:59+00:00","ended":false,"distanceKm":110},{"id":"trk-37","threatClass":"drone","points":[{"lat":52.6644,"lon":35.7776,"time":"2026-07-12T17:59:56+00:00","location":"Кромской район","status":"approaching","count":null},{"lat":52.9857,"lon":35.9383,"time":"2026-07-12T17:59:56+00:00","location":"Орловский район","status":"approaching","count":null},{"lat":52.9628,"lon":37.56,"time":"2026-07-12T18:44:46+00:00","location":"Новодеревеньковский район","status":"approaching","count":null}],"firstSeen":"2026-07-12T17:59:56+00:00","lastSeen":"2026-07-12T18:44:46+00:00","ended":false,"distanceKm":146},{"id":"trk-38","threatClass":"drone","points":[{"lat":52.9729,"lon":35.452,"time":"2026-07-12T17:59:56+00:00","location":"Хотынецкий район","status":"approaching","count":null},{"lat":53.3413,"lon":35.6035,"time":"2026-07-12T18:00:44+00:00","location":"Знаменский район","status":"approaching","count":null},{"lat":53.4361,"lon":35.988,"time":"2026-07-12T18:00:44+00:00","location":"Болховский район","status":"approaching","count":null},{"lat":53.9435,"lon":36.7279,"time":"2026-07-12T18:42:40+00:00","location":"Одоевский район","status":"approaching","count":null},{"lat":54.1931,"lon":37.6173,"time":"2026-07-12T19:11:37+00:00","location":"Тула","status":"overhead","count":null}],"firstSeen":"2026-07-12T17:59:56+00:00","lastSeen":"2026-07-12T19:11:37+00:00","ended":false,"distanceKm":209},{"id":"trk-39","threatClass":"drone","points":[{"lat":53.8089,"lon":34.8495,"time":"2026-07-12T18:03:07+00:00","location":"Жиздринский район","status":"approaching","count":null},{"lat":54.5207,"lon":35.9735,"time":"2026-07-12T18:03:07+00:00","location":"Бабынинский район","status":"approaching","count":null},{"lat":54.3225,"lon":36.9689,"time":"2026-07-12T18:03:50+00:00","location":"Ферзиковский район","status":"approaching","count":null},{"lat":53.8907,"lon":37.3865,"time":"2026-07-12T18:42:40+00:00","location":"Щекинский район","status":"approaching","count":null}],"firstSeen":"2026-07-12T18:03:07+00:00","lastSeen":"2026-07-12T18:42:40+00:00","ended":false,"distanceKm":231},{"id":"trk-40","threatClass":"drone","points":[{"lat":55.0055,"lon":36.433,"time":"2026-07-12T18:03:50+00:00","location":"Малоярославецкий район","status":"approaching","count":null},{"lat":52.9708,"lon":35.4554,"time":"2026-07-12T18:05:07+00:00","location":"Урицкий район","status":"approaching","count":2}],"firstSeen":"2026-07-12T18:03:50+00:00","lastSeen":"2026-07-12T18:05:07+00:00","ended":false,"distanceKm":235},{"id":"trk-43","threatClass":"drone","points":[{"lat":54.0045,"lon":37.5179,"time":"2026-07-12T19:11:37+00:00","location":"Щекино","status":"overhead","count":null},{"lat":54.4727,"lon":37.091,"time":"2026-07-12T19:12:20+00:00","location":"Алексинский район","status":"approaching","count":null}],"firstSeen":"2026-07-12T19:11:37+00:00","lastSeen":"2026-07-12T19:12:20+00:00","ended":false,"distanceKm":59},{"id":"trk-45","threatClass":"drone","points":[{"lat":46.3013,"lon":30.6549,"time":"2026-07-12T19:20:03+00:00","location":"Чорноморськ","status":"approaching","count":null},{"lat":46.5849,"lon":30.9334,"time":"2026-07-12T19:20:03+00:00","location":"Одеса/Чорноморське).","status":"approaching","count":null}],"firstSeen":"2026-07-12T19:20:03+00:00","lastSeen":"2026-07-12T19:20:03+00:00","ended":false,"distanceKm":38},{"id":"trk-47","threatClass":"drone","points":[{"lat":55.7558,"lon":37.6173,"time":"2026-07-12T19:26:26+00:00","location":"Москва","status":"approaching","count":null},{"lat":55.6782,"lon":37.2668,"time":"2026-07-12T19:26:26+00:00","location":"Одинцово","status":"approaching","count":null}],"firstSeen":"2026-07-12T19:26:26+00:00","lastSeen":"2026-07-12T19:26:26+00:00","ended":false,"distanceKm":24}],"updatedAt":"2026-07-12T19:34:09.440Z"}