{"tracks":[{"id":"trk-8","threatClass":"drone","points":[{"lat":45.2411,"lon":35.9763,"time":"2026-07-11T13:35:53+00:00","location":"Керченский полуостров","status":"approaching","count":null},{"lat":46.4285,"lon":34.5761,"time":"2026-07-11T14:30:14+00:00","location":"Генический район","status":"approaching","count":null}],"firstSeen":"2026-07-11T13:35:53+00:00","lastSeen":"2026-07-11T14:30:14+00:00","ended":false,"distanceKm":171},{"id":"trk-11","threatClass":"drone","points":[{"lat":53,"lon":33.5,"time":"2026-07-11T19:34:42+00:00","location":"Брянская область","status":"unknown","count":null},{"lat":53.1482,"lon":36.3186,"time":"2026-07-11T20:23:02+00:00","location":"Валуйский район","status":"unknown","count":null}],"firstSeen":"2026-07-11T19:34:42+00:00","lastSeen":"2026-07-11T20:23:02+00:00","ended":false,"distanceKm":189},{"id":"trk-14","threatClass":"drone","points":[{"lat":48.5235,"lon":39.2864,"time":"2026-07-11T20:19:39+00:00","location":"ЛНР","status":"approaching","count":null},{"lat":48.0162,"lon":37.8095,"time":"2026-07-11T21:06:51+00:00","location":"ДНР","status":"approaching","count":null}],"firstSeen":"2026-07-11T20:19:39+00:00","lastSeen":"2026-07-11T21:06:51+00:00","ended":false,"distanceKm":123},{"id":"trk-15","threatClass":"drone","points":[{"lat":50.0371,"lon":38.011,"time":"2026-07-11T20:26:36+00:00","location":"Двулучное","status":"approaching","count":null},{"lat":50.2069,"lon":38.0997,"time":"2026-07-11T20:26:36+00:00","location":"Валуйки","status":"approaching","count":null},{"lat":50.4835,"lon":38.5679,"time":"2026-07-11T21:12:08+00:00","location":"Камышеватое","status":"approaching","count":null}],"firstSeen":"2026-07-11T20:26:36+00:00","lastSeen":"2026-07-11T21:12:08+00:00","ended":false,"distanceKm":65},{"id":"trk-16","threatClass":"drone","points":[{"lat":45.4421,"lon":36.8404,"time":"2026-07-11T20:39:09+00:00","location":"Приазовский","status":"approaching","count":null},{"lat":47.2362,"lon":38.8969,"time":"2026-07-11T20:39:53+00:00","location":"Таганрог","status":"shot_down","count":null}],"firstSeen":"2026-07-11T20:39:09+00:00","lastSeen":"2026-07-11T20:39:53+00:00","ended":true,"distanceKm":254},{"id":"trk-18","threatClass":"drone","points":[{"lat":48.6114,"lon":39.9793,"time":"2026-07-11T21:10:36+00:00","location":"Зеленовка","status":"approaching","count":null},{"lat":48.6824,"lon":40.4969,"time":"2026-07-11T21:23:04+00:00","location":"Тарасовский район","status":"approaching","count":null},{"lat":48.6572,"lon":40.6175,"time":"2026-07-11T21:27:06+00:00","location":"Мартыновка","status":"approaching","count":null}],"firstSeen":"2026-07-11T21:10:36+00:00","lastSeen":"2026-07-11T21:27:06+00:00","ended":false,"distanceKm":48},{"id":"trk-22","threatClass":"drone","points":[{"lat":45.5,"lon":39.5,"time":"2026-07-11T21:19:00+00:00","location":"Краснодарский край","status":"approaching","count":null},{"lat":47.2362,"lon":38.8969,"time":"2026-07-11T21:20:22+00:00","location":"Таганрог","status":"shot_down","count":null}],"firstSeen":"2026-07-11T21:19:00+00:00","lastSeen":"2026-07-11T21:20:22+00:00","ended":true,"distanceKm":199},{"id":"trk-24","threatClass":"drone","points":[{"lat":53.2077,"lon":34.6634,"time":"2026-07-11T21:29:51+00:00","location":"Белые Берега","status":"approaching","count":null},{"lat":52.891,"lon":34.4097,"time":"2026-07-11T21:31:16+00:00","location":"Навлинский район","status":"approaching","count":null}],"firstSeen":"2026-07-11T21:29:51+00:00","lastSeen":"2026-07-11T21:31:16+00:00","ended":false,"distanceKm":39}],"updatedAt":"2026-07-11T21:32:34.789Z"}