{"tracks":[{"id":"trk-2","threatClass":"drone","points":[{"lat":54.6336,"lon":38.7356,"time":"2026-07-14T12:11:13+00:00","location":"Зарайский район","status":"approaching","count":null},{"lat":55.2677,"lon":36.6925,"time":"2026-07-14T12:13:12+00:00","location":"Боровский район","status":"approaching","count":3},{"lat":55.3808,"lon":36.4426,"time":"2026-07-14T12:13:47+00:00","location":"Наро-Фоминский район","status":"approaching","count":null},{"lat":55.5137,"lon":36.2643,"time":"2026-07-14T12:14:29+00:00","location":"Можайский район","status":"approaching","count":null}],"firstSeen":"2026-07-14T12:11:13+00:00","lastSeen":"2026-07-14T12:14:29+00:00","ended":false,"distanceKm":187},{"id":"trk-3","threatClass":"drone","points":[{"lat":55.0442,"lon":37.7154,"time":"2026-07-14T12:13:47+00:00","location":"Чеховский район","status":"approaching","count":null},{"lat":54.8443,"lon":38.0394,"time":"2026-07-14T12:15:06+00:00","location":"Ступинский район","status":"approaching","count":null}],"firstSeen":"2026-07-14T12:13:47+00:00","lastSeen":"2026-07-14T12:15:06+00:00","ended":false,"distanceKm":30},{"id":"trk-4","threatClass":"drone","points":[{"lat":54.9155,"lon":37.4196,"time":"2026-07-14T12:15:28+00:00","location":"Серпухов","status":"approaching","count":2},{"lat":56.6325,"lon":37.1245,"time":"2026-07-14T12:16:43+00:00","location":"Ступино","status":"approaching","count":6}],"firstSeen":"2026-07-14T12:15:28+00:00","lastSeen":"2026-07-14T12:16:43+00:00","ended":false,"distanceKm":192},{"id":"trk-14","threatClass":"drone","points":[{"lat":55.6782,"lon":37.2668,"time":"2026-07-14T16:01:57+00:00","location":"Одинцово","status":"overhead","count":null},{"lat":55.4087,"lon":37.9095,"time":"2026-07-14T16:03:44+00:00","location":"Домодедово","status":"overhead","count":null},{"lat":55.422,"lon":38.2591,"time":"2026-07-14T16:25:43+00:00","location":"Бронницы","status":"overhead","count":null}],"firstSeen":"2026-07-14T16:01:57+00:00","lastSeen":"2026-07-14T16:25:43+00:00","ended":false,"distanceKm":72},{"id":"trk-18","threatClass":"drone","points":[{"lat":47.0971,"lon":37.5434,"time":"2026-07-14T17:22:27+00:00","location":"Мариуполь","status":"approaching","count":null},{"lat":48.0162,"lon":37.8095,"time":"2026-07-14T17:22:27+00:00","location":"ДНР","status":"approaching","count":null}],"firstSeen":"2026-07-14T17:22:27+00:00","lastSeen":"2026-07-14T17:22:27+00:00","ended":false,"distanceKm":104},{"id":"trk-19","threatClass":"drone","points":[{"lat":54.6938,"lon":38.1602,"time":"2026-07-14T17:32:42+00:00","location":"Веневский район","status":"approaching","count":3},{"lat":54.9656,"lon":39.0277,"time":"2026-07-14T17:34:28+00:00","location":"Луховицы","status":"approaching","count":null},{"lat":55.8062,"lon":38.981,"time":"2026-07-14T17:35:49+00:00","location":"Орехово-Зуево","status":"approaching","count":null}],"firstSeen":"2026-07-14T17:32:42+00:00","lastSeen":"2026-07-14T17:35:49+00:00","ended":false,"distanceKm":157},{"id":"trk-20","threatClass":"drone","points":[{"lat":55.0939,"lon":38.767,"time":"2026-07-14T17:34:28+00:00","location":"Коломна","status":"approaching","count":null},{"lat":55.9146,"lon":36.8595,"time":"2026-07-14T17:34:28+00:00","location":"Воскресенск","status":"approaching","count":null}],"firstSeen":"2026-07-14T17:34:28+00:00","lastSeen":"2026-07-14T17:34:28+00:00","ended":false,"distanceKm":151},{"id":"trk-21","threatClass":"drone","points":[{"lat":55.5784,"lon":39.5438,"time":"2026-07-14T17:35:49+00:00","location":"Шатура","status":"approaching","count":null},{"lat":55.2842,"lon":40.799,"time":"2026-07-14T18:13:14+00:00","location":"Гусь-Хрустальный район","status":"approaching","count":null}],"firstSeen":"2026-07-14T17:35:49+00:00","lastSeen":"2026-07-14T18:13:14+00:00","ended":false,"distanceKm":86},{"id":"trk-22","threatClass":"drone","points":[{"lat":51.5921,"lon":35.4129,"time":"2026-07-14T17:46:11+00:00","location":"Большие Угоны","status":"approaching","count":null},{"lat":51.6198,"lon":35.1329,"time":"2026-07-14T17:46:11+00:00","location":"Льговский район","status":"approaching","count":null}],"firstSeen":"2026-07-14T17:46:11+00:00","lastSeen":"2026-07-14T17:46:11+00:00","ended":false,"distanceKm":20},{"id":"trk-23","threatClass":"drone","points":[{"lat":44.7556,"lon":33.7235,"time":"2026-07-14T18:03:02+00:00","location":"Кача","status":"approaching","count":null},{"lat":44.6866,"lon":33.567,"time":"2026-07-14T18:03:02+00:00","location":"Бельбек","status":"approaching","count":null},{"lat":44.6166,"lon":33.5254,"time":"2026-07-14T18:30:48+00:00","location":"Севастополь","status":"approaching","count":null}],"firstSeen":"2026-07-14T18:03:02+00:00","lastSeen":"2026-07-14T18:30:48+00:00","ended":false,"distanceKm":23},{"id":"trk-24","threatClass":"drone","points":[{"lat":44.7555,"lon":33.8491,"time":"2026-07-14T18:19:57+00:00","location":"Бахчисарай","status":"approaching","count":null},{"lat":44.9888,"lon":33.8746,"time":"2026-07-14T18:19:57+00:00","location":"Симферопольский р-н","status":"approaching","count":null}],"firstSeen":"2026-07-14T18:19:57+00:00","lastSeen":"2026-07-14T18:19:57+00:00","ended":false,"distanceKm":26}],"updatedAt":"2026-07-14T18:54:54.640Z"}