{"tracks":[{"id":"trk-4","threatClass":"drone","points":[{"lat":45.1903,"lon":33.3669,"time":"2026-07-15T08:17:56+00:00","location":"Евпатория","status":"approaching","count":null},{"lat":45.1552,"lon":33.2744,"time":"2026-07-15T08:17:56+00:00","location":"Заозёрное","status":"approaching","count":null},{"lat":45.2079,"lon":33.1531,"time":"2026-07-15T08:17:56+00:00","location":"Витино","status":"approaching","count":null}],"firstSeen":"2026-07-15T08:17:56+00:00","lastSeen":"2026-07-15T08:17:56+00:00","ended":false,"distanceKm":19},{"id":"trk-5","threatClass":"drone","points":[{"lat":45.2614,"lon":38.1281,"time":"2026-07-15T08:19:42+00:00","location":"Славянск-На-Кубани","status":"approaching","count":null},{"lat":45.4324,"lon":37.8219,"time":"2026-07-15T08:36:01+00:00","location":"Славянский район","status":"overhead","count":null}],"firstSeen":"2026-07-15T08:19:42+00:00","lastSeen":"2026-07-15T08:36:01+00:00","ended":false,"distanceKm":31}],"updatedAt":"2026-07-15T14:19:51.501Z"}