{"tracks":[{"id":"trk-5","threatClass":"drone","points":[{"lat":44.8857,"lon":38.0857,"time":"2026-07-06T16:30:17+00:00","location":"Крымский район","status":"approaching","count":null},{"lat":45.5,"lon":39.5,"time":"2026-07-06T16:49:54+00:00","location":"Краснодарский край","status":"approaching","count":null}],"firstSeen":"2026-07-06T16:30:17+00:00","lastSeen":"2026-07-06T16:49:54+00:00","ended":false,"distanceKm":130},{"id":"trk-7","threatClass":"drone","points":[{"lat":44.7614,"lon":39.8713,"time":"2026-07-06T19:00:33+00:00","location":"Белореченск","status":"unknown","count":null},{"lat":45.3636,"lon":36.6115,"time":"2026-07-06T20:42:32+00:00","location":"Республика Крым","status":"approaching","count":null}],"firstSeen":"2026-07-06T19:00:33+00:00","lastSeen":"2026-07-06T20:42:32+00:00","ended":false,"distanceKm":265},{"id":"trk-8","threatClass":"drone","points":[{"lat":47.2362,"lon":38.8969,"time":"2026-07-06T19:07:55+00:00","location":"Таганрог","status":"overhead","count":null},{"lat":47.5126,"lon":34.5895,"time":"2026-07-06T20:11:33+00:00","location":"Запорожская область","status":"unknown","count":null}],"firstSeen":"2026-07-06T19:07:55+00:00","lastSeen":"2026-07-06T20:11:33+00:00","ended":false,"distanceKm":326},{"id":"trk-9","threatClass":"drone","points":[{"lat":47.2905,"lon":39.6657,"time":"2026-07-06T20:26:33+00:00","location":"Октябрьский район","status":"approaching","count":null},{"lat":44.7614,"lon":39.8713,"time":"2026-07-06T21:03:32+00:00","location":"Белореченск","status":"approaching","count":null}],"firstSeen":"2026-07-06T20:26:33+00:00","lastSeen":"2026-07-06T21:03:32+00:00","ended":false,"distanceKm":282},{"id":"trk-13","threatClass":"drone","points":[{"lat":52.7427,"lon":35.3809,"time":"2026-07-06T21:07:43+00:00","location":"Сосковский район","status":"approaching","count":null},{"lat":52.5157,"lon":35.2526,"time":"2026-07-06T21:07:43+00:00","location":"Дмитровский район","status":"approaching","count":null}],"firstSeen":"2026-07-06T21:07:43+00:00","lastSeen":"2026-07-06T21:07:43+00:00","ended":false,"distanceKm":27}],"updatedAt":"2026-07-06T21:09:26.495Z"}