{"tracks":[{"id":"trk-3","threatClass":"drone","points":[{"lat":54.5275,"lon":33.3509,"time":"2026-07-09T20:28:29+00:00","location":"Ельнинский район","status":"unknown","count":null},{"lat":53.347,"lon":34.0798,"time":"2026-07-09T20:29:40+00:00","location":"Сельцо","status":"approaching","count":null}],"firstSeen":"2026-07-09T20:28:29+00:00","lastSeen":"2026-07-09T20:29:40+00:00","ended":false,"distanceKm":140},{"id":"trk-12","threatClass":"drone","points":[{"lat":54.1517,"lon":33.2881,"time":"2026-07-09T20:53:34+00:00","location":"Десногорск","status":"approaching","count":null},{"lat":53.1203,"lon":35.3921,"time":"2026-07-09T21:43:10+00:00","location":"Хотынец","status":"approaching","count":null}],"firstSeen":"2026-07-09T20:53:34+00:00","lastSeen":"2026-07-09T21:43:10+00:00","ended":false,"distanceKm":180},{"id":"trk-15","threatClass":"drone","points":[{"lat":55.8132,"lon":32.282,"time":"2026-07-09T22:06:14+00:00","location":"Кривая","status":"approaching","count":null},{"lat":55.91,"lon":32.2116,"time":"2026-07-09T22:07:15+00:00","location":"Жарковский район","status":"approaching","count":3}],"firstSeen":"2026-07-09T22:06:14+00:00","lastSeen":"2026-07-09T22:07:15+00:00","ended":false,"distanceKm":12},{"id":"trk-17","threatClass":"drone","points":[{"lat":55.6542,"lon":34.9387,"time":"2026-07-09T22:08:29+00:00","location":"Пречистое","status":"unknown","count":null},{"lat":55.6045,"lon":31.195,"time":"2026-07-09T22:09:36+00:00","location":"Велиж","status":"approaching","count":10}],"firstSeen":"2026-07-09T22:08:29+00:00","lastSeen":"2026-07-09T22:09:36+00:00","ended":false,"distanceKm":235},{"id":"trk-18","threatClass":"drone","points":[{"lat":56.8556,"lon":33.4523,"time":"2026-07-09T22:16:40+00:00","location":"Селижарово","status":"approaching","count":null},{"lat":56.0912,"lon":36.6106,"time":"2026-07-09T23:09:18+00:00","location":"Тиликтино","status":"approaching","count":null}],"firstSeen":"2026-07-09T22:16:40+00:00","lastSeen":"2026-07-09T23:09:18+00:00","ended":false,"distanceKm":212},{"id":"trk-19","threatClass":"drone","points":[{"lat":54.3357,"lon":34.988,"time":"2026-07-09T22:18:12+00:00","location":"Серпейск","status":"approaching","count":null},{"lat":53.2077,"lon":34.6634,"time":"2026-07-09T22:19:41+00:00","location":"Белые Берега","status":"unknown","count":null}],"firstSeen":"2026-07-09T22:18:12+00:00","lastSeen":"2026-07-09T22:19:41+00:00","ended":false,"distanceKm":127},{"id":"trk-22","threatClass":"drone","points":[{"lat":55.6782,"lon":37.2668,"time":"2026-07-09T23:02:48+00:00","location":"Одинцово","status":"overhead","count":null},{"lat":55.4309,"lon":37.5453,"time":"2026-07-09T23:02:48+00:00","location":"Подольск","status":"overhead","count":null}],"firstSeen":"2026-07-09T23:02:48+00:00","lastSeen":"2026-07-09T23:02:48+00:00","ended":false,"distanceKm":33},{"id":"trk-25","threatClass":"drone","points":[{"lat":56.7363,"lon":37.1624,"time":"2026-07-09T23:13:25+00:00","location":"Дубна","status":"overhead","count":null},{"lat":56.1854,"lon":36.9782,"time":"2026-07-09T23:34:03+00:00","location":"Солнечногорск","status":"approaching","count":null}],"firstSeen":"2026-07-09T23:13:25+00:00","lastSeen":"2026-07-09T23:34:03+00:00","ended":false,"distanceKm":62},{"id":"trk-29","threatClass":"drone","points":[{"lat":46.8996,"lon":39.2767,"time":"2026-07-10T02:09:39+00:00","location":"Азовский район","status":"overhead","count":null},{"lat":46.9299,"lon":40.0169,"time":"2026-07-10T02:41:57+00:00","location":"Кагальницкий район","status":"overhead","count":null}],"firstSeen":"2026-07-10T02:09:39+00:00","lastSeen":"2026-07-10T02:41:57+00:00","ended":false,"distanceKm":56},{"id":"trk-30","threatClass":"drone","points":[{"lat":46.8996,"lon":39.2767,"time":"2026-07-10T02:41:57+00:00","location":"Азовский район","status":"overhead","count":null},{"lat":47.2362,"lon":38.8969,"time":"2026-07-10T02:51:41+00:00","location":"Таганрог","status":"overhead","count":null}],"firstSeen":"2026-07-10T02:41:57+00:00","lastSeen":"2026-07-10T02:51:41+00:00","ended":false,"distanceKm":47},{"id":"trk-31","threatClass":"drone","points":[{"lat":53.1721,"lon":34.358,"time":"2026-07-10T06:27:13+00:00","location":"Свень-Транспортная","status":"unknown","count":null},{"lat":53.3065,"lon":34.3676,"time":"2026-07-10T06:42:06+00:00","location":"Радица-Крыловка","status":"approaching","count":null}],"firstSeen":"2026-07-10T06:27:13+00:00","lastSeen":"2026-07-10T06:42:06+00:00","ended":false,"distanceKm":15},{"id":"trk-35","threatClass":"drone","points":[{"lat":52.2257,"lon":37.0362,"time":"2026-07-10T06:50:02+00:00","location":"Колпна","status":"approaching","count":null},{"lat":52.4254,"lon":37.6089,"time":"2026-07-10T06:50:02+00:00","location":"Ливны","status":"approaching","count":null}],"firstSeen":"2026-07-10T06:50:02+00:00","lastSeen":"2026-07-10T06:50:02+00:00","ended":false,"distanceKm":45}],"updatedAt":"2026-07-10T06:53:31.451Z"}