{"tracks":[{"id":"trk-4","threatClass":"drone","points":[{"lat":55.6782,"lon":37.2668,"time":"2026-07-09T23:02:48+00:00","location":"Одинцово","status":"overhead","count":null},{"lat":55.4309,"lon":37.5453,"time":"2026-07-09T23:02:48+00:00","location":"Подольск","status":"overhead","count":null}],"firstSeen":"2026-07-09T23:02:48+00:00","lastSeen":"2026-07-09T23:02:48+00:00","ended":false,"distanceKm":33},{"id":"trk-6","threatClass":"drone","points":[{"lat":56.0912,"lon":36.6106,"time":"2026-07-09T23:09:18+00:00","location":"Тиликтино","status":"approaching","count":null},{"lat":56.3326,"lon":36.5338,"time":"2026-07-09T23:09:18+00:00","location":"Клинский район","status":"approaching","count":null}],"firstSeen":"2026-07-09T23:09:18+00:00","lastSeen":"2026-07-09T23:09:18+00:00","ended":false,"distanceKm":27},{"id":"trk-7","threatClass":"drone","points":[{"lat":56.7363,"lon":37.1624,"time":"2026-07-09T23:13:25+00:00","location":"Дубна","status":"overhead","count":null},{"lat":56.1854,"lon":36.9782,"time":"2026-07-09T23:34:03+00:00","location":"Солнечногорск","status":"approaching","count":null}],"firstSeen":"2026-07-09T23:13:25+00:00","lastSeen":"2026-07-09T23:34:03+00:00","ended":false,"distanceKm":62},{"id":"trk-11","threatClass":"drone","points":[{"lat":46.8996,"lon":39.2767,"time":"2026-07-10T02:09:39+00:00","location":"Азовский район","status":"overhead","count":null},{"lat":46.9299,"lon":40.0169,"time":"2026-07-10T02:41:57+00:00","location":"Кагальницкий район","status":"overhead","count":null}],"firstSeen":"2026-07-10T02:09:39+00:00","lastSeen":"2026-07-10T02:41:57+00:00","ended":false,"distanceKm":56},{"id":"trk-12","threatClass":"drone","points":[{"lat":46.8996,"lon":39.2767,"time":"2026-07-10T02:41:57+00:00","location":"Азовский район","status":"overhead","count":null},{"lat":47.2362,"lon":38.8969,"time":"2026-07-10T02:51:41+00:00","location":"Таганрог","status":"overhead","count":null}],"firstSeen":"2026-07-10T02:41:57+00:00","lastSeen":"2026-07-10T02:51:41+00:00","ended":false,"distanceKm":47},{"id":"trk-13","threatClass":"drone","points":[{"lat":53.1721,"lon":34.358,"time":"2026-07-10T06:27:13+00:00","location":"Свень-Транспортная","status":"unknown","count":null},{"lat":53.3065,"lon":34.3676,"time":"2026-07-10T06:42:06+00:00","location":"Радица-Крыловка","status":"approaching","count":null}],"firstSeen":"2026-07-10T06:27:13+00:00","lastSeen":"2026-07-10T06:42:06+00:00","ended":false,"distanceKm":15},{"id":"trk-17","threatClass":"drone","points":[{"lat":52.2257,"lon":37.0362,"time":"2026-07-10T06:50:02+00:00","location":"Колпна","status":"approaching","count":null},{"lat":52.4254,"lon":37.6089,"time":"2026-07-10T06:50:02+00:00","location":"Ливны","status":"approaching","count":null}],"firstSeen":"2026-07-10T06:50:02+00:00","lastSeen":"2026-07-10T06:50:02+00:00","ended":false,"distanceKm":45}],"updatedAt":"2026-07-10T10:24:08.500Z"}