{"tracks":[{"id":"trk-1","threatClass":"drone","points":[{"lat":55.0456,"lon":58.9746,"time":"2026-07-08T06:45:06+00:00","location":"Сатка","status":"unknown","count":null},{"lat":56.0881,"lon":55.3487,"time":"2026-07-08T06:46:33+00:00","location":"Месягутово","status":"unknown","count":null}],"firstSeen":"2026-07-08T06:45:06+00:00","lastSeen":"2026-07-08T06:46:33+00:00","ended":false,"distanceKm":256},{"id":"trk-4","threatClass":"drone","points":[{"lat":56.0881,"lon":55.3487,"time":"2026-07-08T06:49:12+00:00","location":"Месягутово","status":"unknown","count":null},{"lat":56.4256,"lon":58.5327,"time":"2026-07-08T06:49:45+00:00","location":"Арти","status":"approaching","count":2}],"firstSeen":"2026-07-08T06:49:12+00:00","lastSeen":"2026-07-08T06:49:45+00:00","ended":false,"distanceKm":200},{"id":"trk-17","threatClass":"drone","points":[{"lat":45.5743,"lon":38.0942,"time":"2026-07-08T09:00:58+00:00","location":"Забойский","status":"approaching","count":null},{"lat":45.4324,"lon":37.8219,"time":"2026-07-08T09:00:58+00:00","location":"Славянский район","status":"approaching","count":null}],"firstSeen":"2026-07-08T09:00:58+00:00","lastSeen":"2026-07-08T09:00:58+00:00","ended":false,"distanceKm":26},{"id":"trk-20","threatClass":"drone","points":[{"lat":55.4087,"lon":37.9095,"time":"2026-07-08T12:16:47+00:00","location":"Домодедово","status":"overhead","count":null},{"lat":55.6782,"lon":37.2668,"time":"2026-07-08T12:28:25+00:00","location":"Одинцово","status":"overhead","count":null}],"firstSeen":"2026-07-08T12:16:47+00:00","lastSeen":"2026-07-08T12:28:25+00:00","ended":false,"distanceKm":50},{"id":"trk-22","threatClass":"drone","points":[{"lat":50.506,"lon":36.5735,"time":"2026-07-08T16:10:13+00:00","location":"Таврово","status":"approaching","count":null},{"lat":50.5228,"lon":36.3825,"time":"2026-07-08T16:10:13+00:00","location":"Белгородский район","status":"approaching","count":null}],"firstSeen":"2026-07-08T16:10:13+00:00","lastSeen":"2026-07-08T16:10:13+00:00","ended":false,"distanceKm":14}],"updatedAt":"2026-07-08T17:09:30.599Z"}