{"tracks":[{"id":"trk-2","threatClass":"drone","points":[{"lat":45.1981,"lon":36.0914,"time":"2026-07-14T21:49:37+00:00","location":"Марфовка Ленинский район","status":"approaching","count":null},{"lat":45.3636,"lon":36.6115,"time":"2026-07-14T22:49:36+00:00","location":"Республика Крым","status":"approaching","count":null}],"firstSeen":"2026-07-14T21:49:37+00:00","lastSeen":"2026-07-14T22:49:36+00:00","ended":false,"distanceKm":45},{"id":"trk-6","threatClass":"drone","points":[{"lat":47.0766,"lon":39.5542,"time":"2026-07-15T00:02:43+00:00","location":"Кулешовка","status":"unknown","count":null},{"lat":46.8996,"lon":39.2767,"time":"2026-07-15T00:02:43+00:00","location":"Азовский район","status":"unknown","count":null}],"firstSeen":"2026-07-15T00:02:43+00:00","lastSeen":"2026-07-15T00:02:43+00:00","ended":false,"distanceKm":29},{"id":"trk-10","threatClass":"missile","points":[{"lat":53.1585,"lon":48.4742,"time":"2026-07-15T00:53:58+00:00","location":"Сызрань","status":"unknown","count":null},{"lat":53.1959,"lon":50.1002,"time":"2026-07-15T00:53:58+00:00","location":"Самара","status":"unknown","count":null}],"firstSeen":"2026-07-15T00:53:58+00:00","lastSeen":"2026-07-15T00:53:58+00:00","ended":false,"distanceKm":108},{"id":"trk-11","threatClass":"missile","points":[{"lat":53.0996,"lon":49.9457,"time":"2026-07-15T00:53:58+00:00","location":"Новокуйбышевск","status":"unknown","count":null},{"lat":53.5099,"lon":49.4189,"time":"2026-07-15T00:53:58+00:00","location":"Тольятти","status":"unknown","count":null}],"firstSeen":"2026-07-15T00:53:58+00:00","lastSeen":"2026-07-15T00:53:58+00:00","ended":false,"distanceKm":58}],"updatedAt":"2026-07-15T06:30:29.282Z"}