{"tracks":[{"id":"trk-1","threatClass":"drone","points":[{"lat":52.7494,"lon":32.2356,"time":"2026-07-10T16:50:29+00:00","location":"Клинцы","status":"approaching","count":null},{"lat":52.5543,"lon":33.2637,"time":"2026-07-10T16:50:29+00:00","location":"Погар","status":"approaching","count":null}],"firstSeen":"2026-07-10T16:50:29+00:00","lastSeen":"2026-07-10T16:50:29+00:00","ended":false,"distanceKm":73},{"id":"trk-7","threatClass":"drone","points":[{"lat":53.1022,"lon":32.4189,"time":"2026-07-10T19:48:34+00:00","location":"Суражский район","status":"approaching","count":null},{"lat":52.8314,"lon":32.8245,"time":"2026-07-10T19:48:34+00:00","location":"Унечский район","status":"approaching","count":null},{"lat":52.7501,"lon":32.8824,"time":"2026-07-10T19:53:37+00:00","location":"Рохманово","status":"unknown","count":null}],"firstSeen":"2026-07-10T19:48:34+00:00","lastSeen":"2026-07-10T19:53:37+00:00","ended":false,"distanceKm":50},{"id":"trk-11","threatClass":"drone","points":[{"lat":52.7061,"lon":32.031,"time":"2026-07-10T20:00:19+00:00","location":"Клинцовский район","status":"approaching","count":null},{"lat":53.0057,"lon":31.6028,"time":"2026-07-10T20:22:49+00:00","location":"Красная Гора","status":"approaching","count":16}],"firstSeen":"2026-07-10T20:00:19+00:00","lastSeen":"2026-07-10T20:22:49+00:00","ended":false,"distanceKm":44},{"id":"trk-13","threatClass":"drone","points":[{"lat":59.653,"lon":32.1164,"time":"2026-07-10T20:50:49+00:00","location":"Глажево","status":"approaching","count":null},{"lat":59.4412,"lon":32.1751,"time":"2026-07-10T20:50:49+00:00","location":"Киришский район","status":"approaching","count":null}],"firstSeen":"2026-07-10T20:50:49+00:00","lastSeen":"2026-07-10T20:50:49+00:00","ended":false,"distanceKm":24},{"id":"trk-19","threatClass":"drone","points":[{"lat":53.5651,"lon":34.7033,"time":"2026-07-10T22:08:13+00:00","location":"Овсорок","status":"unknown","count":null},{"lat":51.7001,"lon":35.8415,"time":"2026-07-10T22:09:48+00:00","location":"Большое Долженково","status":"approaching","count":4}],"firstSeen":"2026-07-10T22:08:13+00:00","lastSeen":"2026-07-10T22:09:48+00:00","ended":false,"distanceKm":221},{"id":"trk-21","threatClass":"drone","points":[{"lat":53.2077,"lon":34.6634,"time":"2026-07-10T22:10:39+00:00","location":"Белые Берега","status":"unknown","count":null},{"lat":53.1203,"lon":35.3921,"time":"2026-07-10T22:26:57+00:00","location":"Хотынец","status":"unknown","count":null}],"firstSeen":"2026-07-10T22:10:39+00:00","lastSeen":"2026-07-10T22:26:57+00:00","ended":false,"distanceKm":50},{"id":"trk-25","threatClass":"drone","points":[{"lat":47.2362,"lon":38.8969,"time":"2026-07-11T00:12:02+00:00","location":"Таганрог","status":"approaching","count":null},{"lat":46.8996,"lon":39.2767,"time":"2026-07-11T00:12:32+00:00","location":"Азовский район","status":"overhead","count":null}],"firstSeen":"2026-07-11T00:12:02+00:00","lastSeen":"2026-07-11T00:12:32+00:00","ended":false,"distanceKm":47}],"updatedAt":"2026-07-11T04:31:40.819Z"}