{"tracks":[{"id":"trk-1","threatClass":"drone","points":[{"lat":53.5985,"lon":37.8191,"time":"2026-07-24T02:53:44+00:00","location":"Тёпло-Огарёвский район","status":"approaching","count":null},{"lat":53.909,"lon":38.1445,"time":"2026-07-24T02:54:14+00:00","location":"Узловский район","status":"approaching","count":null},{"lat":54.0576,"lon":38.3597,"time":"2026-07-24T02:55:00+00:00","location":"Новомосковский район","status":"approaching","count":2}],"firstSeen":"2026-07-24T02:53:44+00:00","lastSeen":"2026-07-24T02:55:00+00:00","ended":false,"distanceKm":62},{"id":"trk-2","threatClass":"drone","points":[{"lat":54.4727,"lon":37.091,"time":"2026-07-24T02:55:43+00:00","location":"Алексинский район","status":"approaching","count":2},{"lat":53.7236,"lon":35.5324,"time":"2026-07-24T02:59:20+00:00","location":"Ульяновский район","status":"approaching","count":null},{"lat":53.8089,"lon":34.8495,"time":"2026-07-24T02:59:20+00:00","location":"Жиздринский район","status":"approaching","count":null},{"lat":53.8631,"lon":34.4489,"time":"2026-07-24T02:59:20+00:00","location":"Людиновский район","status":"approaching","count":null}],"firstSeen":"2026-07-24T02:55:43+00:00","lastSeen":"2026-07-24T02:59:20+00:00","ended":false,"distanceKm":204},{"id":"trk-3","threatClass":"drone","points":[{"lat":54.1014,"lon":35.3397,"time":"2026-07-24T02:59:20+00:00","location":"Сухиничский район","status":"approaching","count":null},{"lat":54.5207,"lon":35.9735,"time":"2026-07-24T02:59:49+00:00","location":"Бабынинский район","status":"approaching","count":3},{"lat":54.9715,"lon":36.0575,"time":"2026-07-24T03:01:05+00:00","location":"Медынский район","status":"approaching","count":null}],"firstSeen":"2026-07-24T02:59:20+00:00","lastSeen":"2026-07-24T03:01:05+00:00","ended":false,"distanceKm":113},{"id":"trk-5","threatClass":"drone","points":[{"lat":55.1964,"lon":34.3311,"time":"2026-07-24T03:02:30+00:00","location":"Вяземский район","status":"approaching","count":null},{"lat":56.9424,"lon":32.452,"time":"2026-07-24T03:02:48+00:00","location":"Пеновский район","status":"approaching","count":null}],"firstSeen":"2026-07-24T03:02:30+00:00","lastSeen":"2026-07-24T03:02:48+00:00","ended":false,"distanceKm":226},{"id":"trk-13","threatClass":"drone","points":[{"lat":44.7971,"lon":33.8119,"time":"2026-07-24T10:01:54+00:00","location":"Маловидное","status":"approaching","count":null},{"lat":44.9613,"lon":34.1043,"time":"2026-07-24T10:24:39+00:00","location":"Фиолент","status":"approaching","count":null}],"firstSeen":"2026-07-24T10:01:54+00:00","lastSeen":"2026-07-24T10:24:39+00:00","ended":false,"distanceKm":29},{"id":"trk-18","threatClass":"drone","points":[{"lat":44.9344,"lon":37.9869,"time":"2026-07-24T13:43:52+00:00","location":"Крымск","status":"unknown","count":null},{"lat":44.8908,"lon":37.3164,"time":"2026-07-24T13:43:52+00:00","location":"Анапа","status":"unknown","count":null}],"firstSeen":"2026-07-24T13:43:52+00:00","lastSeen":"2026-07-24T13:43:52+00:00","ended":false,"distanceKm":53}],"updatedAt":"2026-07-24T14:18:28.421Z"}