{"tracks":[{"id":"trk-8","threatClass":"drone","points":[{"lat":55.8062,"lon":38.981,"time":"2026-07-23T08:39:11+00:00","location":"Орехово-Зуево","status":"approaching","count":2},{"lat":55.7813,"lon":38.6508,"time":"2026-07-23T08:50:15+00:00","location":"Павловский Посад","status":"unknown","count":null},{"lat":55.7845,"lon":38.4449,"time":"2026-07-23T08:50:15+00:00","location":"Электросталь","status":"unknown","count":null},{"lat":55.8095,"lon":37.9485,"time":"2026-07-23T08:50:15+00:00","location":"Балашиха","status":"unknown","count":null},{"lat":55.7516,"lon":37.8556,"time":"2026-07-23T08:50:15+00:00","location":"Реутов","status":"unknown","count":null},{"lat":55.6783,"lon":37.8938,"time":"2026-07-23T08:50:15+00:00","location":"Люберцы","status":"unknown","count":null}],"firstSeen":"2026-07-23T08:39:11+00:00","lastSeen":"2026-07-23T08:50:15+00:00","ended":false,"distanceKm":82},{"id":"trk-9","threatClass":"drone","points":[{"lat":55.7813,"lon":38.6508,"time":"2026-07-23T08:46:45+00:00","location":"Павловский Посад","status":"unknown","count":null},{"lat":55.7845,"lon":38.4449,"time":"2026-07-23T08:46:45+00:00","location":"Электросталь","status":"unknown","count":null},{"lat":55.8095,"lon":37.9485,"time":"2026-07-23T08:46:45+00:00","location":"Балашиха","status":"unknown","count":null},{"lat":55.7516,"lon":37.8556,"time":"2026-07-23T08:46:45+00:00","location":"Реутов","status":"unknown","count":null},{"lat":55.6783,"lon":37.8938,"time":"2026-07-23T08:46:45+00:00","location":"Люберцы","status":"unknown","count":null}],"firstSeen":"2026-07-23T08:46:45+00:00","lastSeen":"2026-07-23T08:46:45+00:00","ended":false,"distanceKm":61}],"updatedAt":"2026-07-23T12:55:44.205Z"}