{"tracks":[{"id":"trk-1","threatClass":"drone","points":[{"lat":50.5075,"lon":36.5079,"time":"2026-07-20T04:03:51+00:00","location":"Шагаровка","status":"approaching","count":null},{"lat":50.5228,"lon":36.3825,"time":"2026-07-20T04:03:51+00:00","location":"Белгородский район","status":"approaching","count":null}],"firstSeen":"2026-07-20T04:03:51+00:00","lastSeen":"2026-07-20T04:03:51+00:00","ended":false,"distanceKm":9},{"id":"trk-7","threatClass":"drone","points":[{"lat":56.5511,"lon":60.3047,"time":"2026-07-20T07:00:00+00:00","location":"ЧП ЕКАТЕРИНБУРГ","status":"approaching","count":null},{"lat":54.7437,"lon":60.97,"time":"2026-07-20T07:00:00+00:00","location":"ЧП ЧЕЛЯБИНСК","status":"approaching","count":null}],"firstSeen":"2026-07-20T07:00:00+00:00","lastSeen":"2026-07-20T07:00:00+00:00","ended":false,"distanceKm":205},{"id":"trk-9","threatClass":"drone","points":[{"lat":57.4549,"lon":41.5322,"time":"2026-07-20T07:00:00+00:00","location":"ЧП ИВАНОВО","status":"approaching","count":null},{"lat":57.7101,"lon":41.2199,"time":"2026-07-20T07:00:00+00:00","location":"ЧП КОСТРОМА","status":"approaching","count":null}],"firstSeen":"2026-07-20T07:00:00+00:00","lastSeen":"2026-07-20T07:00:00+00:00","ended":false,"distanceKm":34},{"id":"trk-12","threatClass":"drone","points":[{"lat":54.9842,"lon":83.0615,"time":"2026-07-20T07:00:00+00:00","location":"ЧП НОВОСИБИРСК","status":"approaching","count":null},{"lat":56.3553,"lon":85.1551,"time":"2026-07-20T07:00:00+00:00","location":"ЧП ТОМСК","status":"approaching","count":null}],"firstSeen":"2026-07-20T07:00:00+00:00","lastSeen":"2026-07-20T07:00:00+00:00","ended":false,"distanceKm":201},{"id":"trk-17","threatClass":"drone","points":[{"lat":51.5714,"lon":34.624,"time":"2026-07-20T09:31:45+00:00","location":"Рыльский район","status":"approaching","count":null},{"lat":51.6473,"lon":35.576,"time":"2026-07-20T10:15:41+00:00","location":"Иванино","status":"approaching","count":null}],"firstSeen":"2026-07-20T09:31:45+00:00","lastSeen":"2026-07-20T10:15:41+00:00","ended":false,"distanceKm":66}],"updatedAt":"2026-07-20T12:35:57.170Z"}