{"tracks":[{"id":"trk-1","threatClass":"drone","points":[{"lat":52.4635,"lon":32.358,"time":"2026-07-16T23:29:57+00:00","location":"Каменка","status":"approaching","count":null},{"lat":53.5775,"lon":34.2779,"time":"2026-07-16T23:31:36+00:00","location":"Чернятичи","status":"approaching","count":null},{"lat":53.6655,"lon":35.363,"time":"2026-07-16T23:32:28+00:00","location":"Дудоровский","status":"approaching","count":null}],"firstSeen":"2026-07-16T23:29:57+00:00","lastSeen":"2026-07-16T23:32:28+00:00","ended":false,"distanceKm":251},{"id":"trk-2","threatClass":"drone","points":[{"lat":50.9402,"lon":36.6252,"time":"2026-07-16T23:35:03+00:00","location":"Беленихино","status":"unknown","count":null},{"lat":51.6111,"lon":36.5007,"time":"2026-07-16T23:35:46+00:00","location":"Полевая","status":"approaching","count":null}],"firstSeen":"2026-07-16T23:35:03+00:00","lastSeen":"2026-07-16T23:35:46+00:00","ended":false,"distanceKm":75},{"id":"trk-5","threatClass":"drone","points":[{"lat":52.5715,"lon":36.8974,"time":"2026-07-17T00:58:18+00:00","location":"Покровский район","status":"approaching","count":null},{"lat":52.7427,"lon":35.3809,"time":"2026-07-17T00:58:18+00:00","location":"Сосковский район","status":"approaching","count":null}],"firstSeen":"2026-07-17T00:58:18+00:00","lastSeen":"2026-07-17T00:58:18+00:00","ended":false,"distanceKm":104},{"id":"trk-6","threatClass":"drone","points":[{"lat":53.761,"lon":36.1634,"time":"2026-07-17T01:00:13+00:00","location":"Белёвский район","status":"approaching","count":null},{"lat":54.5207,"lon":35.9735,"time":"2026-07-17T01:00:36+00:00","location":"Бабынинский район","status":"approaching","count":null}],"firstSeen":"2026-07-17T01:00:13+00:00","lastSeen":"2026-07-17T01:00:36+00:00","ended":false,"distanceKm":85},{"id":"trk-7","threatClass":"drone","points":[{"lat":54.1226,"lon":36.3581,"time":"2026-07-17T01:01:00+00:00","location":"Суворовский район","status":"approaching","count":null},{"lat":53.7064,"lon":37.293,"time":"2026-07-17T01:01:21+00:00","location":"Плавский район","status":"approaching","count":null}],"firstSeen":"2026-07-17T01:01:00+00:00","lastSeen":"2026-07-17T01:01:21+00:00","ended":false,"distanceKm":77}],"updatedAt":"2026-07-17T11:02:30.117Z"}