{"tracks":[{"id":"trk-12","threatClass":"drone","points":[{"lat":45.5743,"lon":38.0942,"time":"2026-07-08T09:00:58+00:00","location":"Забойский","status":"approaching","count":null},{"lat":45.4324,"lon":37.8219,"time":"2026-07-08T09:00:58+00:00","location":"Славянский район","status":"approaching","count":null}],"firstSeen":"2026-07-08T09:00:58+00:00","lastSeen":"2026-07-08T09:00:58+00:00","ended":false,"distanceKm":26},{"id":"trk-15","threatClass":"drone","points":[{"lat":55.4087,"lon":37.9095,"time":"2026-07-08T12:16:47+00:00","location":"Домодедово","status":"overhead","count":null},{"lat":55.6782,"lon":37.2668,"time":"2026-07-08T12:28:25+00:00","location":"Одинцово","status":"overhead","count":null}],"firstSeen":"2026-07-08T12:16:47+00:00","lastSeen":"2026-07-08T12:28:25+00:00","ended":false,"distanceKm":50},{"id":"trk-17","threatClass":"drone","points":[{"lat":50.506,"lon":36.5735,"time":"2026-07-08T16:10:13+00:00","location":"Таврово","status":"approaching","count":null},{"lat":50.5228,"lon":36.3825,"time":"2026-07-08T16:10:13+00:00","location":"Белгородский район","status":"approaching","count":null}],"firstSeen":"2026-07-08T16:10:13+00:00","lastSeen":"2026-07-08T16:10:13+00:00","ended":false,"distanceKm":14}],"updatedAt":"2026-07-08T20:15:08.934Z"}