{"tracks":[{"id":"trk-14","threatClass":"drone","points":[{"lat":52.891,"lon":34.4097,"time":"2026-07-21T20:31:46+00:00","location":"Навлинский район","status":"unknown","count":null},{"lat":52.5835,"lon":33.7675,"time":"2026-07-21T21:01:20+00:00","location":"Трубчевск","status":"unknown","count":null}],"firstSeen":"2026-07-21T20:31:46+00:00","lastSeen":"2026-07-21T21:01:20+00:00","ended":false,"distanceKm":55},{"id":"trk-19","threatClass":"drone","points":[{"lat":53.6046,"lon":32.6902,"time":"2026-07-21T20:48:26+00:00","location":"Ершичский район","status":"approaching","count":null},{"lat":54.0967,"lon":33.7911,"time":"2026-07-21T20:49:16+00:00","location":"Куйбышевский район","status":"approaching","count":null},{"lat":54.4471,"lon":34.3132,"time":"2026-07-21T20:49:16+00:00","location":"Спас-Деменский район","status":"approaching","count":null},{"lat":53.9435,"lon":36.7279,"time":"2026-07-21T20:50:58+00:00","location":"Одоевский район","status":"approaching","count":null},{"lat":53.8907,"lon":37.3865,"time":"2026-07-21T21:09:39+00:00","location":"Щекинский район","status":"approaching","count":null}],"firstSeen":"2026-07-21T20:48:26+00:00","lastSeen":"2026-07-21T21:09:39+00:00","ended":false,"distanceKm":353},{"id":"trk-20","threatClass":"drone","points":[{"lat":52.9708,"lon":35.4554,"time":"2026-07-21T20:50:17+00:00","location":"Урицкий район","status":"approaching","count":null},{"lat":52.858,"lon":35.1026,"time":"2026-07-21T20:50:17+00:00","location":"Шаблыкинский район","status":"approaching","count":null}],"firstSeen":"2026-07-21T20:50:17+00:00","lastSeen":"2026-07-21T20:50:17+00:00","ended":false,"distanceKm":27},{"id":"trk-21","threatClass":"drone","points":[{"lat":52.3932,"lon":36.5399,"time":"2026-07-21T20:50:17+00:00","location":"Малоархангельский район","status":"approaching","count":null},{"lat":52.6765,"lon":36.2816,"time":"2026-07-21T21:09:24+00:00","location":"Свердловский район","status":"approaching","count":null}],"firstSeen":"2026-07-21T20:50:17+00:00","lastSeen":"2026-07-21T21:09:24+00:00","ended":false,"distanceKm":36}],"updatedAt":"2026-07-21T21:24:03.827Z"}