{"tracks":[{"id":"trk-3","threatClass":"drone","points":[{"lat":52.5715,"lon":36.8974,"time":"2026-07-17T00:58:18+00:00","location":"Покровский район","status":"approaching","count":null},{"lat":52.7427,"lon":35.3809,"time":"2026-07-17T00:58:18+00:00","location":"Сосковский район","status":"approaching","count":null}],"firstSeen":"2026-07-17T00:58:18+00:00","lastSeen":"2026-07-17T00:58:18+00:00","ended":false,"distanceKm":104},{"id":"trk-4","threatClass":"drone","points":[{"lat":53.761,"lon":36.1634,"time":"2026-07-17T01:00:13+00:00","location":"Белёвский район","status":"approaching","count":null},{"lat":54.5207,"lon":35.9735,"time":"2026-07-17T01:00:36+00:00","location":"Бабынинский район","status":"approaching","count":null}],"firstSeen":"2026-07-17T01:00:13+00:00","lastSeen":"2026-07-17T01:00:36+00:00","ended":false,"distanceKm":85},{"id":"trk-5","threatClass":"drone","points":[{"lat":54.1226,"lon":36.3581,"time":"2026-07-17T01:01:00+00:00","location":"Суворовский район","status":"approaching","count":null},{"lat":53.7064,"lon":37.293,"time":"2026-07-17T01:01:21+00:00","location":"Плавский район","status":"approaching","count":null}],"firstSeen":"2026-07-17T01:01:00+00:00","lastSeen":"2026-07-17T01:01:21+00:00","ended":false,"distanceKm":77}],"updatedAt":"2026-07-17T12:19:53.454Z"}