{"tracks":[{"id":"trk-1","threatClass":"drone","points":[{"lat":45.2207,"lon":42.18,"time":"2026-07-19T00:21:32+00:00","location":"Дубовка","status":"approaching","count":null},{"lat":45.0451,"lon":41.5668,"time":"2026-07-19T00:21:32+00:00","location":"Шпаковский район","status":"approaching","count":null}],"firstSeen":"2026-07-19T00:21:32+00:00","lastSeen":"2026-07-19T00:21:32+00:00","ended":false,"distanceKm":52},{"id":"trk-2","threatClass":"drone","points":[{"lat":46.7909,"lon":40.4949,"time":"2026-07-19T00:36:45+00:00","location":"Зерноградский район","status":"approaching","count":null},{"lat":47.1442,"lon":40.732,"time":"2026-07-19T00:36:45+00:00","location":"Веселовский район","status":"approaching","count":null}],"firstSeen":"2026-07-19T00:36:45+00:00","lastSeen":"2026-07-19T00:36:45+00:00","ended":false,"distanceKm":43},{"id":"trk-4","threatClass":"drone","points":[{"lat":51.6269,"lon":36.1275,"time":"2026-07-19T06:44:09+00:00","location":"Кукуевка","status":"unknown","count":null},{"lat":51.7209,"lon":36.3538,"time":"2026-07-19T06:44:09+00:00","location":"Долгое","status":"unknown","count":null}],"firstSeen":"2026-07-19T06:44:09+00:00","lastSeen":"2026-07-19T06:44:09+00:00","ended":false,"distanceKm":19},{"id":"trk-5","threatClass":"drone","points":[{"lat":50.211,"lon":38.0997,"time":"2026-07-19T06:44:09+00:00","location":"Валуйского района","status":"unknown","count":null},{"lat":50.9163,"lon":35.4272,"time":"2026-07-19T06:44:31+00:00","location":"Графовка","status":"approaching","count":null}],"firstSeen":"2026-07-19T06:44:09+00:00","lastSeen":"2026-07-19T06:44:31+00:00","ended":false,"distanceKm":204},{"id":"trk-10","threatClass":"drone","points":[{"lat":55.8781,"lon":36.8714,"time":"2026-07-19T09:56:15+00:00","location":"СНТ Садовод","status":"approaching","count":null},{"lat":55.7446,"lon":38.8489,"time":"2026-07-19T10:11:39+00:00","location":"Орехово-Зуевский район","status":"approaching","count":null}],"firstSeen":"2026-07-19T09:56:15+00:00","lastSeen":"2026-07-19T10:11:39+00:00","ended":false,"distanceKm":124},{"id":"trk-11","threatClass":"drone","points":[{"lat":55.8781,"lon":36.8714,"time":"2026-07-19T09:56:48+00:00","location":"СНТ Садовод","status":"approaching","count":null},{"lat":55.7446,"lon":38.8489,"time":"2026-07-19T10:13:54+00:00","location":"Орехово-Зуевский район","status":"approaching","count":null},{"lat":55.8062,"lon":38.981,"time":"2026-07-19T11:05:24+00:00","location":"Орехово-Зуево","status":"approaching","count":null},{"lat":57.0591,"lon":37.9645,"time":"2026-07-19T11:06:41+00:00","location":"Калязинский район","status":"approaching","count":null}],"firstSeen":"2026-07-19T09:56:48+00:00","lastSeen":"2026-07-19T11:06:41+00:00","ended":false,"distanceKm":288},{"id":"trk-21","threatClass":"drone","points":[{"lat":53.3413,"lon":35.6035,"time":"2026-07-19T11:04:02+00:00","location":"Знаменский район","status":"approaching","count":null},{"lat":53.8089,"lon":34.8495,"time":"2026-07-19T11:04:34+00:00","location":"Жиздринский район","status":"approaching","count":null}],"firstSeen":"2026-07-19T11:04:02+00:00","lastSeen":"2026-07-19T11:04:34+00:00","ended":false,"distanceKm":72}],"updatedAt":"2026-07-19T11:56:55.819Z"}