{"tracks":[{"id":"trk-5","threatClass":"drone","points":[{"lat":54.6746,"lon":39.6721,"time":"2026-07-17T15:07:27+00:00","location":"Спасский район","status":"approaching","count":null},{"lat":53.2075,"lon":40.3696,"time":"2026-07-17T15:08:07+00:00","location":"Первомайский район","status":"approaching","count":null}],"firstSeen":"2026-07-17T15:07:27+00:00","lastSeen":"2026-07-17T15:08:07+00:00","ended":false,"distanceKm":169},{"id":"trk-6","threatClass":"drone","points":[{"lat":53.5068,"lon":41.7004,"time":"2026-07-17T15:08:07+00:00","location":"Моршанский район","status":"approaching","count":null},{"lat":53.1877,"lon":41.3576,"time":"2026-07-17T15:08:07+00:00","location":"Сосновский район","status":"approaching","count":null}],"firstSeen":"2026-07-17T15:08:07+00:00","lastSeen":"2026-07-17T15:08:07+00:00","ended":false,"distanceKm":42},{"id":"trk-8","threatClass":"drone","points":[{"lat":52.5401,"lon":39.766,"time":"2026-07-17T16:38:34+00:00","location":"Грязинский район","status":"approaching","count":null},{"lat":54.6746,"lon":39.6721,"time":"2026-07-17T16:38:58+00:00","location":"Спасский район","status":"approaching","count":null}],"firstSeen":"2026-07-17T16:38:34+00:00","lastSeen":"2026-07-17T16:38:58+00:00","ended":false,"distanceKm":237},{"id":"trk-10","threatClass":"drone","points":[{"lat":52.6031,"lon":39.5708,"time":"2026-07-17T16:50:08+00:00","location":"Липецк","status":"approaching","count":null},{"lat":52.3424,"lon":39.7006,"time":"2026-07-17T16:50:08+00:00","location":"Усманский район","status":"approaching","count":null}],"firstSeen":"2026-07-17T16:50:08+00:00","lastSeen":"2026-07-17T16:50:08+00:00","ended":false,"distanceKm":30},{"id":"trk-12","threatClass":"drone","points":[{"lat":52.7427,"lon":35.3809,"time":"2026-07-17T19:03:36+00:00","location":"Сосковский район","status":"approaching","count":2},{"lat":53.4361,"lon":35.988,"time":"2026-07-17T19:50:10+00:00","location":"Болховский район","status":"approaching","count":null},{"lat":53.8907,"lon":37.3865,"time":"2026-07-17T20:20:40+00:00","location":"Щекинский район","status":"approaching","count":null}],"firstSeen":"2026-07-17T19:03:36+00:00","lastSeen":"2026-07-17T20:20:40+00:00","ended":false,"distanceKm":192},{"id":"trk-13","threatClass":"drone","points":[{"lat":50.3476,"lon":39.4458,"time":"2026-07-17T19:05:57+00:00","location":"Россошанский район","status":"approaching","count":2},{"lat":50.4605,"lon":39.3894,"time":"2026-07-17T20:13:50+00:00","location":"Ольховатский район","status":"approaching","count":null},{"lat":51.2136,"lon":39.0706,"time":"2026-07-17T20:13:50+00:00","location":"Острогожский район","status":"approaching","count":null}],"firstSeen":"2026-07-17T19:05:57+00:00","lastSeen":"2026-07-17T20:13:50+00:00","ended":false,"distanceKm":100},{"id":"trk-14","threatClass":"drone","points":[{"lat":52.858,"lon":35.1026,"time":"2026-07-17T19:06:35+00:00","location":"Шаблыкинский район","status":"approaching","count":2},{"lat":52.5157,"lon":35.2526,"time":"2026-07-17T19:50:10+00:00","location":"Дмитровский район","status":"approaching","count":null}],"firstSeen":"2026-07-17T19:06:35+00:00","lastSeen":"2026-07-17T19:50:10+00:00","ended":false,"distanceKm":39},{"id":"trk-15","threatClass":"drone","points":[{"lat":50.6688,"lon":38.8746,"time":"2026-07-17T19:17:55+00:00","location":"Мухоудеровка","status":"unknown","count":null},{"lat":50.1519,"lon":38.4453,"time":"2026-07-17T19:32:45+00:00","location":"Вейделевка","status":"approaching","count":null}],"firstSeen":"2026-07-17T19:17:55+00:00","lastSeen":"2026-07-17T19:32:45+00:00","ended":false,"distanceKm":65},{"id":"trk-16","threatClass":"drone","points":[{"lat":50.9874,"lon":39.4778,"time":"2026-07-17T19:22:40+00:00","location":"Лиски","status":"approaching","count":null},{"lat":51.6608,"lon":39.2003,"time":"2026-07-17T19:22:40+00:00","location":"Воронеж","status":"approaching","count":null},{"lat":51.847,"lon":38.4436,"time":"2026-07-17T19:44:43+00:00","location":"Каменка","status":"approaching","count":null}],"firstSeen":"2026-07-17T19:22:40+00:00","lastSeen":"2026-07-17T19:44:43+00:00","ended":false,"distanceKm":133},{"id":"trk-17","threatClass":"drone","points":[{"lat":51.0966,"lon":40.0423,"time":"2026-07-17T19:22:40+00:00","location":"Бобров","status":"approaching","count":null},{"lat":50.7893,"lon":38.9549,"time":"2026-07-17T19:51:57+00:00","location":"Новая Осиновка","status":"approaching","count":null}],"firstSeen":"2026-07-17T19:22:40+00:00","lastSeen":"2026-07-17T19:51:57+00:00","ended":false,"distanceKm":83},{"id":"trk-18","threatClass":"drone","points":[{"lat":45.4324,"lon":37.8219,"time":"2026-07-17T19:37:11+00:00","location":"Славянский район","status":"approaching","count":null},{"lat":45.2643,"lon":37.2941,"time":"2026-07-17T19:37:11+00:00","location":"Темрюкский район","status":"approaching","count":null}],"firstSeen":"2026-07-17T19:37:11+00:00","lastSeen":"2026-07-17T19:37:11+00:00","ended":false,"distanceKm":45},{"id":"trk-19","threatClass":"drone","points":[{"lat":45.0703,"lon":37.7553,"time":"2026-07-17T19:37:11+00:00","location":"Анапский район","status":"approaching","count":null},{"lat":44.8857,"lon":38.0857,"time":"2026-07-17T19:37:11+00:00","location":"Крымский район","status":"approaching","count":null},{"lat":45.0858,"lon":39.8567,"time":"2026-07-17T20:19:50+00:00","location":"Республика Адыгея","status":"unknown","count":null}],"firstSeen":"2026-07-17T19:37:11+00:00","lastSeen":"2026-07-17T20:19:50+00:00","ended":false,"distanceKm":174},{"id":"trk-22","threatClass":"drone","points":[{"lat":51.2136,"lon":39.0706,"time":"2026-07-17T19:51:57+00:00","location":"Острогожский район","status":"approaching","count":null},{"lat":51.9063,"lon":35.3043,"time":"2026-07-17T19:52:51+00:00","location":"Конышевский район","status":"approaching","count":null}],"firstSeen":"2026-07-17T19:51:57+00:00","lastSeen":"2026-07-17T19:52:51+00:00","ended":false,"distanceKm":271},{"id":"trk-23","threatClass":"drone","points":[{"lat":52.1408,"lon":34.9845,"time":"2026-07-17T19:52:51+00:00","location":"Дмитриевский район","status":"approaching","count":null},{"lat":52.2326,"lon":35.4575,"time":"2026-07-17T19:52:51+00:00","location":"Железногорский район","status":"approaching","count":null}],"firstSeen":"2026-07-17T19:52:51+00:00","lastSeen":"2026-07-17T19:52:51+00:00","ended":false,"distanceKm":34},{"id":"trk-24","threatClass":"drone","points":[{"lat":50.7961,"lon":40.6019,"time":"2026-07-17T19:53:55+00:00","location":"Бутурлиновка","status":"unknown","count":null},{"lat":51.5379,"lon":40.492,"time":"2026-07-17T20:20:33+00:00","location":"Садовое Аннинский район","status":"unknown","count":3}],"firstSeen":"2026-07-17T19:53:55+00:00","lastSeen":"2026-07-17T20:20:33+00:00","ended":false,"distanceKm":83},{"id":"trk-25","threatClass":"drone","points":[{"lat":50.0802,"lon":38.5853,"time":"2026-07-17T19:56:11+00:00","location":"Олейники","status":"approaching","count":null},{"lat":50.15,"lon":38.8376,"time":"2026-07-17T20:07:51+00:00","location":"Ровны","status":"approaching","count":null},{"lat":50.7249,"lon":39.0293,"time":"2026-07-17T20:24:51+00:00","location":"Дальняя Полубянка","status":"unknown","count":null}],"firstSeen":"2026-07-17T19:56:11+00:00","lastSeen":"2026-07-17T20:24:51+00:00","ended":false,"distanceKm":85},{"id":"trk-26","threatClass":"drone","points":[{"lat":52.7501,"lon":32.8824,"time":"2026-07-17T19:56:25+00:00","location":"Рохманово","status":"unknown","count":null},{"lat":52.8314,"lon":32.8245,"time":"2026-07-17T19:56:25+00:00","location":"Унечский район","status":"unknown","count":null}],"firstSeen":"2026-07-17T19:56:25+00:00","lastSeen":"2026-07-17T19:56:25+00:00","ended":false,"distanceKm":10},{"id":"trk-27","threatClass":"drone","points":[{"lat":50.4666,"lon":38.9654,"time":"2026-07-17T19:58:15+00:00","location":"Бабичев","status":"approaching","count":null},{"lat":48.5235,"lon":39.2864,"time":"2026-07-17T20:00:14+00:00","location":"ЛНР","status":"approaching","count":null},{"lat":48.1146,"lon":39.1188,"time":"2026-07-17T20:10:29+00:00","location":"Ровеньский район","status":"approaching","count":null}],"firstSeen":"2026-07-17T19:58:15+00:00","lastSeen":"2026-07-17T20:10:29+00:00","ended":false,"distanceKm":264},{"id":"trk-29","threatClass":"drone","points":[{"lat":49.7972,"lon":39.7513,"time":"2026-07-17T20:00:36+00:00","location":"Кантемировский район","status":"approaching","count":null},{"lat":50.5089,"lon":39.6692,"time":"2026-07-17T20:00:36+00:00","location":"Подгоренский район","status":"approaching","count":null},{"lat":51.0588,"lon":40.1363,"time":"2026-07-17T20:14:53+00:00","location":"Бобровский район","status":"approaching","count":null}],"firstSeen":"2026-07-17T20:00:36+00:00","lastSeen":"2026-07-17T20:14:53+00:00","ended":false,"distanceKm":149},{"id":"trk-30","threatClass":"drone","points":[{"lat":49.5896,"lon":40.5547,"time":"2026-07-17T20:10:41+00:00","location":"Чертковский район","status":"approaching","count":null},{"lat":49.7972,"lon":39.7513,"time":"2026-07-17T20:11:33+00:00","location":"Кантемировский район","status":"approaching","count":5}],"firstSeen":"2026-07-17T20:10:41+00:00","lastSeen":"2026-07-17T20:11:33+00:00","ended":false,"distanceKm":62},{"id":"trk-32","threatClass":"drone","points":[{"lat":50.3476,"lon":39.4458,"time":"2026-07-17T20:13:50+00:00","location":"Россошанский район","status":"approaching","count":null},{"lat":51.1725,"lon":39.7173,"time":"2026-07-17T20:14:53+00:00","location":"Лискинский район","status":"approaching","count":null}],"firstSeen":"2026-07-17T20:13:50+00:00","lastSeen":"2026-07-17T20:14:53+00:00","ended":false,"distanceKm":94},{"id":"trk-34","threatClass":"drone","points":[{"lat":53.5985,"lon":37.8191,"time":"2026-07-17T20:20:40+00:00","location":"Тепло-Огаревский район","status":"approaching","count":null},{"lat":53.4518,"lon":36.822,"time":"2026-07-17T20:20:40+00:00","location":"Чернский район","status":"approaching","count":null},{"lat":53.4361,"lon":35.988,"time":"2026-07-17T20:22:20+00:00","location":"Болховский район","status":"approaching","count":2}],"firstSeen":"2026-07-17T20:20:40+00:00","lastSeen":"2026-07-17T20:22:20+00:00","ended":false,"distanceKm":123}],"updatedAt":"2026-07-17T20:31:25.936Z"}