{"tracks":[{"id":"trk-4","threatClass":"drone","points":[{"lat":44.8857,"lon":38.0857,"time":"2026-07-06T16:30:17+00:00","location":"Крымский район","status":"approaching","count":null},{"lat":45.5,"lon":39.5,"time":"2026-07-06T16:49:54+00:00","location":"Краснодарский край","status":"approaching","count":null}],"firstSeen":"2026-07-06T16:30:17+00:00","lastSeen":"2026-07-06T16:49:54+00:00","ended":false,"distanceKm":130},{"id":"trk-6","threatClass":"drone","points":[{"lat":44.7614,"lon":39.8713,"time":"2026-07-06T19:00:33+00:00","location":"Белореченск","status":"unknown","count":null},{"lat":45.3636,"lon":36.6115,"time":"2026-07-06T20:42:32+00:00","location":"Республика Крым","status":"approaching","count":null}],"firstSeen":"2026-07-06T19:00:33+00:00","lastSeen":"2026-07-06T20:42:32+00:00","ended":false,"distanceKm":265},{"id":"trk-7","threatClass":"drone","points":[{"lat":47.2362,"lon":38.8969,"time":"2026-07-06T19:07:55+00:00","location":"Таганрог","status":"overhead","count":null},{"lat":47.5126,"lon":34.5895,"time":"2026-07-06T20:11:33+00:00","location":"Запорожская область","status":"unknown","count":null}],"firstSeen":"2026-07-06T19:07:55+00:00","lastSeen":"2026-07-06T20:11:33+00:00","ended":false,"distanceKm":326},{"id":"trk-8","threatClass":"drone","points":[{"lat":47.2905,"lon":39.6657,"time":"2026-07-06T20:26:33+00:00","location":"Октябрьский район","status":"approaching","count":null},{"lat":44.7614,"lon":39.8713,"time":"2026-07-06T21:03:32+00:00","location":"Белореченск","status":"approaching","count":null}],"firstSeen":"2026-07-06T20:26:33+00:00","lastSeen":"2026-07-06T21:03:32+00:00","ended":false,"distanceKm":282},{"id":"trk-9","threatClass":"drone","points":[{"lat":54.4865,"lon":45.0128,"time":"2026-07-06T20:34:52+00:00","location":"Нижегородская область","status":"unknown","count":null},{"lat":52.5661,"lon":39.2899,"time":"2026-07-06T21:57:46+00:00","location":"Липецкий район","status":"approaching","count":5},{"lat":53.1649,"lon":38.2545,"time":"2026-07-06T22:37:04+00:00","location":"Ефремовский район","status":"approaching","count":null}],"firstSeen":"2026-07-06T20:34:52+00:00","lastSeen":"2026-07-06T22:37:04+00:00","ended":false,"distanceKm":530},{"id":"trk-10","threatClass":"drone","points":[{"lat":51.0539,"lon":38.9461,"time":"2026-07-06T20:36:51+00:00","location":"Репьевский район","status":"approaching","count":null},{"lat":52.5666,"lon":40.3535,"time":"2026-07-06T21:57:24+00:00","location":"Петровский район","status":"approaching","count":2},{"lat":52.8988,"lon":39.7359,"time":"2026-07-06T22:34:20+00:00","location":"Добровский район","status":"approaching","count":null}],"firstSeen":"2026-07-06T20:36:51+00:00","lastSeen":"2026-07-06T22:34:20+00:00","ended":false,"distanceKm":250},{"id":"trk-11","threatClass":"drone","points":[{"lat":48.5883,"lon":44.3931,"time":"2026-07-06T20:58:01+00:00","location":"Михайловский район","status":"approaching","count":null},{"lat":49.2817,"lon":41.7308,"time":"2026-07-06T22:33:45+00:00","location":"Боковский район","status":"approaching","count":null}],"firstSeen":"2026-07-06T20:58:01+00:00","lastSeen":"2026-07-06T22:33:45+00:00","ended":false,"distanceKm":209},{"id":"trk-12","threatClass":"drone","points":[{"lat":52.7427,"lon":35.3809,"time":"2026-07-06T21:07:43+00:00","location":"Сосковский район","status":"approaching","count":null},{"lat":52.5157,"lon":35.2526,"time":"2026-07-06T22:00:19+00:00","location":"Дмитровский район","status":"approaching","count":null}],"firstSeen":"2026-07-06T21:07:43+00:00","lastSeen":"2026-07-06T22:00:19+00:00","ended":false,"distanceKm":27},{"id":"trk-14","threatClass":"drone","points":[{"lat":53.0355,"lon":37.0551,"time":"2026-07-06T22:00:19+00:00","location":"Новосильский район","status":"approaching","count":null},{"lat":52.9042,"lon":36.6906,"time":"2026-07-06T22:00:19+00:00","location":"Залегощенский район","status":"approaching","count":null},{"lat":52.0929,"lon":37.4888,"time":"2026-07-06T22:00:19+00:00","location":"Должанский район","status":"approaching","count":null}],"firstSeen":"2026-07-06T22:00:19+00:00","lastSeen":"2026-07-06T22:00:19+00:00","ended":false,"distanceKm":134},{"id":"trk-15","threatClass":"drone","points":[{"lat":52.858,"lon":35.1026,"time":"2026-07-06T22:00:19+00:00","location":"Шаблыкинский район","status":"approaching","count":null},{"lat":52.9729,"lon":35.452,"time":"2026-07-06T22:00:19+00:00","location":"Хотынецкий район","status":"approaching","count":null},{"lat":53.8089,"lon":34.8495,"time":"2026-07-06T22:01:00+00:00","location":"Жиздринский район","status":"approaching","count":null}],"firstSeen":"2026-07-06T22:00:19+00:00","lastSeen":"2026-07-06T22:01:00+00:00","ended":false,"distanceKm":128}],"updatedAt":"2026-07-06T22:38:56.849Z"}