{"tracks":[{"id":"trk-2","threatClass":"drone","points":[{"lat":53,"lon":33.5,"time":"2026-07-11T19:34:42+00:00","location":"Брянская область","status":"unknown","count":null},{"lat":53.1482,"lon":36.3186,"time":"2026-07-11T20:23:02+00:00","location":"Валуйский район","status":"unknown","count":null}],"firstSeen":"2026-07-11T19:34:42+00:00","lastSeen":"2026-07-11T20:23:02+00:00","ended":false,"distanceKm":189},{"id":"trk-5","threatClass":"drone","points":[{"lat":48.5235,"lon":39.2864,"time":"2026-07-11T20:19:39+00:00","location":"ЛНР","status":"approaching","count":null},{"lat":48.0162,"lon":37.8095,"time":"2026-07-11T21:06:51+00:00","location":"ДНР","status":"approaching","count":null}],"firstSeen":"2026-07-11T20:19:39+00:00","lastSeen":"2026-07-11T21:06:51+00:00","ended":false,"distanceKm":123},{"id":"trk-6","threatClass":"drone","points":[{"lat":50.0371,"lon":38.011,"time":"2026-07-11T20:26:36+00:00","location":"Двулучное","status":"approaching","count":null},{"lat":50.2069,"lon":38.0997,"time":"2026-07-11T20:26:36+00:00","location":"Валуйки","status":"approaching","count":null},{"lat":50.4835,"lon":38.5679,"time":"2026-07-11T21:12:08+00:00","location":"Камышеватое","status":"approaching","count":null},{"lat":50.0544,"lon":40.5939,"time":"2026-07-11T21:50:25+00:00","location":"Журавка","status":"approaching","count":null},{"lat":50.0625,"lon":41.2185,"time":"2026-07-11T22:10:10+00:00","location":"Краснофлотское","status":"approaching","count":2}],"firstSeen":"2026-07-11T20:26:36+00:00","lastSeen":"2026-07-11T22:10:10+00:00","ended":false,"distanceKm":261},{"id":"trk-7","threatClass":"drone","points":[{"lat":45.4421,"lon":36.8404,"time":"2026-07-11T20:39:09+00:00","location":"Приазовский","status":"approaching","count":null},{"lat":47.2362,"lon":38.8969,"time":"2026-07-11T20:39:53+00:00","location":"Таганрог","status":"shot_down","count":null}],"firstSeen":"2026-07-11T20:39:09+00:00","lastSeen":"2026-07-11T20:39:53+00:00","ended":true,"distanceKm":254},{"id":"trk-9","threatClass":"drone","points":[{"lat":48.6114,"lon":39.9793,"time":"2026-07-11T21:10:36+00:00","location":"Зеленовка","status":"approaching","count":null},{"lat":48.6824,"lon":40.4969,"time":"2026-07-11T21:23:04+00:00","location":"Тарасовский район","status":"approaching","count":null},{"lat":48.6572,"lon":40.6175,"time":"2026-07-11T21:27:06+00:00","location":"Мартыновка","status":"approaching","count":null}],"firstSeen":"2026-07-11T21:10:36+00:00","lastSeen":"2026-07-11T21:27:06+00:00","ended":false,"distanceKm":48},{"id":"trk-12","threatClass":"drone","points":[{"lat":52.0848,"lon":36.3799,"time":"2026-07-11T21:14:14+00:00","location":"Золотухино","status":"approaching","count":null},{"lat":50.7573,"lon":38.9227,"time":"2026-07-11T22:03:51+00:00","location":"Нижний Ольшан","status":"approaching","count":null},{"lat":50.7895,"lon":40.0481,"time":"2026-07-11T22:20:53+00:00","location":"Шестаково","status":"unknown","count":null}],"firstSeen":"2026-07-11T21:14:14+00:00","lastSeen":"2026-07-11T22:20:53+00:00","ended":false,"distanceKm":309},{"id":"trk-13","threatClass":"drone","points":[{"lat":45.5,"lon":39.5,"time":"2026-07-11T21:19:00+00:00","location":"Краснодарский край","status":"approaching","count":null},{"lat":47.2362,"lon":38.8969,"time":"2026-07-11T21:20:22+00:00","location":"Таганрог","status":"shot_down","count":null}],"firstSeen":"2026-07-11T21:19:00+00:00","lastSeen":"2026-07-11T21:20:22+00:00","ended":true,"distanceKm":199},{"id":"trk-15","threatClass":"drone","points":[{"lat":53.2077,"lon":34.6634,"time":"2026-07-11T21:29:51+00:00","location":"Белые Берега","status":"approaching","count":null},{"lat":52.891,"lon":34.4097,"time":"2026-07-11T21:31:16+00:00","location":"Навлинский район","status":"approaching","count":null}],"firstSeen":"2026-07-11T21:29:51+00:00","lastSeen":"2026-07-11T21:31:16+00:00","ended":false,"distanceKm":39},{"id":"trk-16","threatClass":"drone","points":[{"lat":48.3383,"lon":39.9509,"time":"2026-07-11T21:26:07+00:00","location":"Донецк","status":"overhead","count":null},{"lat":48.6824,"lon":40.4969,"time":"2026-07-11T21:57:16+00:00","location":"Тарасовский район","status":"approaching","count":null},{"lat":49.025,"lon":40.2652,"time":"2026-07-11T21:57:16+00:00","location":"Миллеровский район","status":"approaching","count":null}],"firstSeen":"2026-07-11T21:26:07+00:00","lastSeen":"2026-07-11T21:57:16+00:00","ended":false,"distanceKm":97},{"id":"trk-17","threatClass":"drone","points":[{"lat":48.6824,"lon":40.4969,"time":"2026-07-11T21:27:06+00:00","location":"Тарасовский район","status":"approaching","count":null},{"lat":49.3416,"lon":40.6632,"time":"2026-07-11T22:00:02+00:00","location":"Греково-Степановка","status":"approaching","count":2}],"firstSeen":"2026-07-11T21:27:06+00:00","lastSeen":"2026-07-11T22:00:02+00:00","ended":false,"distanceKm":74},{"id":"trk-18","threatClass":"drone","points":[{"lat":52.6,"lon":39.6,"time":"2026-07-11T21:31:48+00:00","location":"Липецкая область","status":"unknown","count":null},{"lat":50.9874,"lon":39.4972,"time":"2026-07-11T22:10:51+00:00","location":"Лиски","status":"shot_down","count":null}],"firstSeen":"2026-07-11T21:31:48+00:00","lastSeen":"2026-07-11T22:10:51+00:00","ended":true,"distanceKm":179},{"id":"trk-19","threatClass":"drone","points":[{"lat":50.0483,"lon":39.3042,"time":"2026-07-11T21:38:06+00:00","location":"Шекаловка","status":"unknown","count":null},{"lat":50.3476,"lon":39.4458,"time":"2026-07-11T21:38:06+00:00","location":"Россошанский район","status":"unknown","count":null},{"lat":50.4575,"lon":40.1097,"time":"2026-07-11T21:55:29+00:00","location":"Павловск","status":"unknown","count":null},{"lat":50.0544,"lon":40.5939,"time":"2026-07-11T22:16:01+00:00","location":"Журавка","status":"approaching","count":null}],"firstSeen":"2026-07-11T21:38:06+00:00","lastSeen":"2026-07-11T22:16:01+00:00","ended":false,"distanceKm":140},{"id":"trk-20","threatClass":"drone","points":[{"lat":49.7972,"lon":39.7513,"time":"2026-07-11T21:40:12+00:00","location":"Кантемировский район","status":"approaching","count":8},{"lat":49.8881,"lon":40.2257,"time":"2026-07-11T21:42:10+00:00","location":"Богучарский район","status":"approaching","count":3},{"lat":48.3508,"lon":41.8253,"time":"2026-07-11T22:25:32+00:00","location":"Морозовск","status":"approaching","count":null},{"lat":48.1781,"lon":41.8703,"time":"2026-07-11T22:45:18+00:00","location":"Морозовский район","status":"unknown","count":null},{"lat":47.7886,"lon":42.2447,"time":"2026-07-11T23:14:52+00:00","location":"Цимлянский район","status":"approaching","count":null}],"firstSeen":"2026-07-11T21:40:12+00:00","lastSeen":"2026-07-11T23:14:52+00:00","ended":false,"distanceKm":313},{"id":"trk-21","threatClass":"drone","points":[{"lat":50.3476,"lon":39.4458,"time":"2026-07-11T21:42:54+00:00","location":"Россошанский район","status":"approaching","count":null},{"lat":49.7972,"lon":39.7513,"time":"2026-07-11T21:42:54+00:00","location":"Кантемировский район","status":"approaching","count":null}],"firstSeen":"2026-07-11T21:42:54+00:00","lastSeen":"2026-07-11T21:42:54+00:00","ended":false,"distanceKm":65},{"id":"trk-22","threatClass":"drone","points":[{"lat":51.0588,"lon":40.1363,"time":"2026-07-11T21:42:54+00:00","location":"Бобровский район","status":"approaching","count":null},{"lat":52.7165,"lon":37.2543,"time":"2026-07-11T21:44:43+00:00","location":"Верховский район","status":"approaching","count":null},{"lat":53.3507,"lon":36.7147,"time":"2026-07-11T22:01:02+00:00","location":"Мценский район","status":"approaching","count":null}],"firstSeen":"2026-07-11T21:42:54+00:00","lastSeen":"2026-07-11T22:01:02+00:00","ended":false,"distanceKm":350},{"id":"trk-23","threatClass":"drone","points":[{"lat":52.6644,"lon":35.7776,"time":"2026-07-11T21:43:21+00:00","location":"Кромской район","status":"approaching","count":2},{"lat":52.4485,"lon":36.2419,"time":"2026-07-11T21:44:43+00:00","location":"Глазуновский район","status":"approaching","count":null},{"lat":52.3932,"lon":36.5399,"time":"2026-07-11T21:44:43+00:00","location":"Малоархангельский район","status":"approaching","count":null},{"lat":52.0929,"lon":37.4888,"time":"2026-07-11T21:44:43+00:00","location":"Должанский район","status":"approaching","count":null}],"firstSeen":"2026-07-11T21:43:21+00:00","lastSeen":"2026-07-11T21:44:43+00:00","ended":false,"distanceKm":133},{"id":"trk-25","threatClass":"drone","points":[{"lat":49.9147,"lon":38.892,"time":"2026-07-11T21:53:38+00:00","location":"Ровеньки","status":"approaching","count":null},{"lat":49.8227,"lon":39.2824,"time":"2026-07-11T22:05:23+00:00","location":"Новобелая","status":"approaching","count":null}],"firstSeen":"2026-07-11T21:53:38+00:00","lastSeen":"2026-07-11T22:05:23+00:00","ended":false,"distanceKm":30},{"id":"trk-26","threatClass":"drone","points":[{"lat":53.9643,"lon":40.6934,"time":"2026-07-11T21:56:55+00:00","location":"Рязанская область","status":"unknown","count":null},{"lat":52.5136,"lon":40.4648,"time":"2026-07-11T22:43:28+00:00","location":"Шехмань","status":"approaching","count":null},{"lat":52.1087,"lon":40.1981,"time":"2026-07-11T23:10:08+00:00","location":"Средняя Матренка","status":"unknown","count":null}],"firstSeen":"2026-07-11T21:56:55+00:00","lastSeen":"2026-07-11T23:10:08+00:00","ended":false,"distanceKm":211},{"id":"trk-27","threatClass":"drone","points":[{"lat":48.728,"lon":41.6401,"time":"2026-07-11T21:57:16+00:00","location":"Милютинский район","status":"approaching","count":null},{"lat":49.856,"lon":42.447,"time":"2026-07-11T21:58:10+00:00","location":"Кумылженский район","status":"approaching","count":2}],"firstSeen":"2026-07-11T21:57:16+00:00","lastSeen":"2026-07-11T21:58:10+00:00","ended":false,"distanceKm":138},{"id":"trk-29","threatClass":"drone","points":[{"lat":50.91,"lon":38.833,"time":"2026-07-11T22:13:27+00:00","location":"Лесное Уколово","status":"approaching","count":null},{"lat":52.4017,"lon":36.7168,"time":"2026-07-11T22:15:04+00:00","location":"Первая Ивань","status":"approaching","count":null}],"firstSeen":"2026-07-11T22:13:27+00:00","lastSeen":"2026-07-11T22:15:04+00:00","ended":false,"distanceKm":221},{"id":"trk-31","threatClass":"drone","points":[{"lat":51,"lon":40,"time":"2026-07-11T22:25:07+00:00","location":"Воронежская область","status":"unknown","count":null},{"lat":51.6017,"lon":42.001,"time":"2026-07-11T23:19:19+00:00","location":"Алексеевка","status":"unknown","count":null},{"lat":50.9788,"lon":44.7789,"time":"2026-07-12T00:13:22+00:00","location":"Жирновск","status":"approaching","count":8},{"lat":51.5333,"lon":46.0344,"time":"2026-07-12T00:13:37+00:00","location":"Саратов","status":"unknown","count":null}],"firstSeen":"2026-07-11T22:25:07+00:00","lastSeen":"2026-07-12T00:13:37+00:00","ended":false,"distanceKm":466},{"id":"trk-32","threatClass":"drone","points":[{"lat":51.9135,"lon":39.3361,"time":"2026-07-11T22:27:44+00:00","location":"Рамонского района","status":"approaching","count":null},{"lat":52.3529,"lon":40.2455,"time":"2026-07-11T23:15:56+00:00","location":"Хворостянка","status":"approaching","count":null}],"firstSeen":"2026-07-11T22:27:44+00:00","lastSeen":"2026-07-11T23:15:56+00:00","ended":false,"distanceKm":79},{"id":"trk-33","threatClass":"drone","points":[{"lat":45.2614,"lon":38.1281,"time":"2026-07-11T22:37:03+00:00","location":"Славянск-на-Кубани","status":"approaching","count":null},{"lat":45.3636,"lon":36.6115,"time":"2026-07-11T23:11:10+00:00","location":"Республика Крым","status":"approaching","count":null}],"firstSeen":"2026-07-11T22:37:03+00:00","lastSeen":"2026-07-11T23:11:10+00:00","ended":false,"distanceKm":119},{"id":"trk-34","threatClass":"drone","points":[{"lat":44.6166,"lon":33.5254,"time":"2026-07-11T22:51:51+00:00","location":"Севастополь","status":"approaching","count":null},{"lat":44.5121,"lon":33.599,"time":"2026-07-11T23:29:03+00:00","location":"Балаклава","status":"approaching","count":null}],"firstSeen":"2026-07-11T22:51:51+00:00","lastSeen":"2026-07-11T23:29:03+00:00","ended":false,"distanceKm":13},{"id":"trk-35","threatClass":"drone","points":[{"lat":44.9613,"lon":34.1043,"time":"2026-07-11T22:55:43+00:00","location":"Фиолент","status":"approaching","count":null},{"lat":44.6166,"lon":33.5254,"time":"2026-07-11T23:29:03+00:00","location":"Севастополь","status":"approaching","count":null}],"firstSeen":"2026-07-11T22:55:43+00:00","lastSeen":"2026-07-11T23:29:03+00:00","ended":false,"distanceKm":60},{"id":"trk-36","threatClass":"drone","points":[{"lat":49.4953,"lon":42.7518,"time":"2026-07-11T22:57:58+00:00","location":"Серафимовичский район","status":"approaching","count":null},{"lat":49.856,"lon":42.447,"time":"2026-07-11T23:07:41+00:00","location":"Кумылженский район","status":"approaching","count":null},{"lat":50.2226,"lon":42.3203,"time":"2026-07-11T23:07:41+00:00","location":"Алексеевский район","status":"approaching","count":null}],"firstSeen":"2026-07-11T22:57:58+00:00","lastSeen":"2026-07-11T23:07:41+00:00","ended":false,"distanceKm":87},{"id":"trk-37","threatClass":"drone","points":[{"lat":52.606,"lon":38.9206,"time":"2026-07-11T23:04:57+00:00","location":"Задонский район","status":"approaching","count":2},{"lat":52.0875,"lon":39.1791,"time":"2026-07-11T23:06:21+00:00","location":"Рамонский район","status":"approaching","count":null}],"firstSeen":"2026-07-11T23:04:57+00:00","lastSeen":"2026-07-11T23:06:21+00:00","ended":false,"distanceKm":60},{"id":"trk-38","threatClass":"drone","points":[{"lat":49.1888,"lon":42.9191,"time":"2026-07-11T23:07:41+00:00","location":"Клетский район","status":"approaching","count":null},{"lat":49.5896,"lon":40.5547,"time":"2026-07-11T23:08:58+00:00","location":"Чертковский район","status":"approaching","count":null}],"firstSeen":"2026-07-11T23:07:41+00:00","lastSeen":"2026-07-11T23:08:58+00:00","ended":false,"distanceKm":177},{"id":"trk-39","threatClass":"drone","points":[{"lat":49.6423,"lon":41.8156,"time":"2026-07-11T23:08:58+00:00","location":"Шолоховский район","status":"approaching","count":null},{"lat":49.7991,"lon":41.2631,"time":"2026-07-11T23:08:58+00:00","location":"Верхнедонской район","status":"approaching","count":null}],"firstSeen":"2026-07-11T23:08:58+00:00","lastSeen":"2026-07-11T23:08:58+00:00","ended":false,"distanceKm":43},{"id":"trk-40","threatClass":"drone","points":[{"lat":49.4953,"lon":42.7518,"time":"2026-07-11T23:10:08+00:00","location":"Серафимовичский район","status":"unknown","count":null},{"lat":49.856,"lon":42.447,"time":"2026-07-11T23:21:55+00:00","location":"Кумылженский район","status":"approaching","count":9},{"lat":50.2226,"lon":42.3203,"time":"2026-07-12T00:13:03+00:00","location":"Алексеевский район","status":"approaching","count":null}],"firstSeen":"2026-07-11T23:10:08+00:00","lastSeen":"2026-07-12T00:13:03+00:00","ended":false,"distanceKm":87},{"id":"trk-41","threatClass":"drone","points":[{"lat":49.8794,"lon":43.4464,"time":"2026-07-11T23:22:57+00:00","location":"Фроловский район","status":"approaching","count":null},{"lat":48.5582,"lon":43.0045,"time":"2026-07-11T23:22:57+00:00","location":"Суровикинский район","status":"approaching","count":null},{"lat":48.1446,"lon":42.5571,"time":"2026-07-11T23:22:57+00:00","location":"Чернышковский район","status":"approaching","count":null}],"firstSeen":"2026-07-11T23:22:57+00:00","lastSeen":"2026-07-11T23:22:57+00:00","ended":false,"distanceKm":207},{"id":"trk-45","threatClass":"drone","points":[{"lat":49.6423,"lon":41.8156,"time":"2026-07-11T23:24:31+00:00","location":"Шолоховский район","status":"approaching","count":null},{"lat":48.6824,"lon":40.4969,"time":"2026-07-11T23:24:31+00:00","location":"Тарасовский район","status":"approaching","count":null}],"firstSeen":"2026-07-11T23:24:31+00:00","lastSeen":"2026-07-11T23:24:31+00:00","ended":false,"distanceKm":143},{"id":"trk-46","threatClass":"drone","points":[{"lat":49.025,"lon":40.2652,"time":"2026-07-11T23:24:31+00:00","location":"Миллеровский район","status":"approaching","count":null},{"lat":49.5896,"lon":40.5547,"time":"2026-07-12T00:13:28+00:00","location":"Чертковский район","status":"approaching","count":2}],"firstSeen":"2026-07-11T23:24:31+00:00","lastSeen":"2026-07-12T00:13:28+00:00","ended":false,"distanceKm":66},{"id":"trk-47","threatClass":"drone","points":[{"lat":51.6461,"lon":41.5505,"time":"2026-07-11T23:25:43+00:00","location":"Терновский район","status":"approaching","count":null},{"lat":51.7502,"lon":40.6662,"time":"2026-07-11T23:25:43+00:00","location":"Эртильский район","status":"approaching","count":null},{"lat":52.3424,"lon":39.7006,"time":"2026-07-11T23:26:44+00:00","location":"Усманский район","status":"approaching","count":null}],"firstSeen":"2026-07-11T23:25:43+00:00","lastSeen":"2026-07-11T23:26:44+00:00","ended":false,"distanceKm":155},{"id":"trk-48","threatClass":"drone","points":[{"lat":48.6051,"lon":42.8441,"time":"2026-07-11T23:27:26+00:00","location":"Суровикино","status":"approaching","count":null},{"lat":48.5883,"lon":44.3931,"time":"2026-07-12T00:13:03+00:00","location":"Михайловский район","status":"approaching","count":null}],"firstSeen":"2026-07-11T23:27:26+00:00","lastSeen":"2026-07-12T00:13:03+00:00","ended":false,"distanceKm":114},{"id":"trk-50","threatClass":"drone","points":[{"lat":51.9767,"lon":35.016,"time":"2026-07-12T00:18:20+00:00","location":"Белые Берега","status":"unknown","count":null},{"lat":53.2521,"lon":34.3717,"time":"2026-07-12T00:18:20+00:00","location":"Брянск","status":"unknown","count":null},{"lat":53.347,"lon":34.0798,"time":"2026-07-12T00:33:20+00:00","location":"Сельцо","status":"approaching","count":null}],"firstSeen":"2026-07-12T00:18:20+00:00","lastSeen":"2026-07-12T00:33:20+00:00","ended":false,"distanceKm":170},{"id":"trk-52","threatClass":"drone","points":[{"lat":53.6046,"lon":32.6902,"time":"2026-07-12T00:35:30+00:00","location":"Ершичский район","status":"approaching","count":2},{"lat":53.8631,"lon":34.4489,"time":"2026-07-12T00:36:16+00:00","location":"Людиновский район","status":"approaching","count":2}],"firstSeen":"2026-07-12T00:35:30+00:00","lastSeen":"2026-07-12T00:36:16+00:00","ended":false,"distanceKm":119},{"id":"trk-53","threatClass":"drone","points":[{"lat":53.1585,"lon":48.4742,"time":"2026-07-12T00:41:06+00:00","location":"Сызрань","status":"unknown","count":null},{"lat":53.1959,"lon":50.1002,"time":"2026-07-12T00:56:48+00:00","location":"Самара","status":"unknown","count":null}],"firstSeen":"2026-07-12T00:41:06+00:00","lastSeen":"2026-07-12T00:56:48+00:00","ended":false,"distanceKm":108},{"id":"trk-54","threatClass":"drone","points":[{"lat":53.0996,"lon":49.9457,"time":"2026-07-12T00:41:06+00:00","location":"Новокуйбышевск","status":"unknown","count":null},{"lat":53.5099,"lon":49.4189,"time":"2026-07-12T00:41:06+00:00","location":"Тольятти","status":"unknown","count":null}],"firstSeen":"2026-07-12T00:41:06+00:00","lastSeen":"2026-07-12T00:41:06+00:00","ended":false,"distanceKm":58},{"id":"trk-56","threatClass":"drone","points":[{"lat":53.1263,"lon":46.9702,"time":"2026-07-12T00:46:11+00:00","location":"Кузнецкий район","status":"approaching","count":null},{"lat":52.7787,"lon":46.6902,"time":"2026-07-12T01:09:35+00:00","location":"Неверкинский район","status":"approaching","count":2}],"firstSeen":"2026-07-12T00:46:11+00:00","lastSeen":"2026-07-12T01:09:35+00:00","ended":false,"distanceKm":43},{"id":"trk-59","threatClass":"drone","points":[{"lat":52.5157,"lon":35.2526,"time":"2026-07-12T01:07:50+00:00","location":"Дмитровский район","status":"approaching","count":null},{"lat":52.7427,"lon":35.3809,"time":"2026-07-12T01:07:50+00:00","location":"Сосковский район","status":"approaching","count":null},{"lat":52.858,"lon":35.1026,"time":"2026-07-12T01:07:50+00:00","location":"Шаблыкинский район","status":"approaching","count":null}],"firstSeen":"2026-07-12T01:07:50+00:00","lastSeen":"2026-07-12T01:07:50+00:00","ended":false,"distanceKm":49},{"id":"trk-60","threatClass":"drone","points":[{"lat":54.468,"lon":38.7224,"time":"2026-07-12T03:57:45+00:00","location":"Серебряные Пруды","status":"approaching","count":null},{"lat":54.8912,"lon":37.5079,"time":"2026-07-12T03:59:57+00:00","location":"Серпуховский район","status":"approaching","count":2},{"lat":55.9146,"lon":36.8595,"time":"2026-07-12T04:01:43+00:00","location":"Воскресенск","status":"overhead","count":null}],"firstSeen":"2026-07-12T03:57:45+00:00","lastSeen":"2026-07-12T04:01:43+00:00","ended":false,"distanceKm":212},{"id":"trk-61","threatClass":"drone","points":[{"lat":55.422,"lon":38.2591,"time":"2026-07-12T03:58:59+00:00","location":"Бронницы","status":"overhead","count":null},{"lat":54.8443,"lon":38.0394,"time":"2026-07-12T04:00:54+00:00","location":"Ступинский район","status":"approaching","count":2}],"firstSeen":"2026-07-12T03:58:59+00:00","lastSeen":"2026-07-12T04:00:54+00:00","ended":false,"distanceKm":66},{"id":"trk-65","threatClass":"drone","points":[{"lat":55.422,"lon":38.2591,"time":"2026-07-12T04:17:37+00:00","location":"Бронницы","status":"overhead","count":null},{"lat":55.4087,"lon":37.9095,"time":"2026-07-12T04:18:32+00:00","location":"Домодедово","status":"shot_down","count":null}],"firstSeen":"2026-07-12T04:17:37+00:00","lastSeen":"2026-07-12T04:18:32+00:00","ended":true,"distanceKm":22}],"updatedAt":"2026-07-12T04:44:25.772Z"}