{"tracks":[{"id":"trk-2","threatClass":"drone","points":[{"lat":55.8781,"lon":36.8714,"time":"2026-07-19T09:56:15+00:00","location":"СНТ Садовод","status":"approaching","count":null},{"lat":55.7446,"lon":38.8489,"time":"2026-07-19T10:11:39+00:00","location":"Орехово-Зуевский район","status":"approaching","count":null}],"firstSeen":"2026-07-19T09:56:15+00:00","lastSeen":"2026-07-19T10:11:39+00:00","ended":false,"distanceKm":124},{"id":"trk-3","threatClass":"drone","points":[{"lat":55.8781,"lon":36.8714,"time":"2026-07-19T09:56:48+00:00","location":"СНТ Садовод","status":"approaching","count":null},{"lat":55.7446,"lon":38.8489,"time":"2026-07-19T10:13:54+00:00","location":"Орехово-Зуевский район","status":"approaching","count":null},{"lat":55.8062,"lon":38.981,"time":"2026-07-19T11:05:24+00:00","location":"Орехово-Зуево","status":"approaching","count":null},{"lat":57.0591,"lon":37.9645,"time":"2026-07-19T11:06:41+00:00","location":"Калязинский район","status":"approaching","count":null}],"firstSeen":"2026-07-19T09:56:48+00:00","lastSeen":"2026-07-19T11:06:41+00:00","ended":false,"distanceKm":288},{"id":"trk-13","threatClass":"drone","points":[{"lat":53.3413,"lon":35.6035,"time":"2026-07-19T11:04:02+00:00","location":"Знаменский район","status":"approaching","count":null},{"lat":53.8089,"lon":34.8495,"time":"2026-07-19T11:04:34+00:00","location":"Жиздринский район","status":"approaching","count":null}],"firstSeen":"2026-07-19T11:04:02+00:00","lastSeen":"2026-07-19T11:04:34+00:00","ended":false,"distanceKm":72},{"id":"trk-20","threatClass":"drone","points":[{"lat":44.8605,"lon":38.6093,"time":"2026-07-19T13:40:05+00:00","location":"НПЗ Ильский","status":"unknown","count":null},{"lat":44.8828,"lon":38.8255,"time":"2026-07-19T13:40:05+00:00","location":"НПЗ Афипский","status":"unknown","count":null}],"firstSeen":"2026-07-19T13:40:05+00:00","lastSeen":"2026-07-19T13:40:05+00:00","ended":false,"distanceKm":17},{"id":"trk-23","threatClass":"drone","points":[{"lat":55.3843,"lon":36.7235,"time":"2026-07-19T13:58:17+00:00","location":"Наро-Фоминск","status":"approaching","count":null},{"lat":55.6974,"lon":36.2834,"time":"2026-07-19T13:58:17+00:00","location":"Рузский","status":"approaching","count":null}],"firstSeen":"2026-07-19T13:58:17+00:00","lastSeen":"2026-07-19T13:58:17+00:00","ended":false,"distanceKm":44},{"id":"trk-29","threatClass":"drone","points":[{"lat":50.9786,"lon":36.1538,"time":"2026-07-19T17:50:17+00:00","location":"Новенькое","status":"approaching","count":null},{"lat":51.654,"lon":36.0497,"time":"2026-07-19T18:12:37+00:00","location":"Ворошнево","status":"approaching","count":null},{"lat":51.884,"lon":36.3168,"time":"2026-07-19T18:12:37+00:00","location":"Курский район","status":"approaching","count":null}],"firstSeen":"2026-07-19T17:50:17+00:00","lastSeen":"2026-07-19T18:12:37+00:00","ended":false,"distanceKm":107},{"id":"trk-31","threatClass":"drone","points":[{"lat":45.3805,"lon":36.222,"time":"2026-07-19T18:57:40+00:00","location":"Ленинский район","status":"approaching","count":null},{"lat":45.2411,"lon":35.9763,"time":"2026-07-19T18:57:40+00:00","location":"Керченский полуостров","status":"approaching","count":null}],"firstSeen":"2026-07-19T18:57:40+00:00","lastSeen":"2026-07-19T18:57:40+00:00","ended":false,"distanceKm":25},{"id":"trk-33","threatClass":"drone","points":[{"lat":52.5207,"lon":33.2053,"time":"2026-07-19T19:01:59+00:00","location":"Погарский район","status":"unknown","count":null},{"lat":53.3891,"lon":33.0938,"time":"2026-07-19T19:55:30+00:00","location":"Клетнянский район","status":"unknown","count":null}],"firstSeen":"2026-07-19T19:01:59+00:00","lastSeen":"2026-07-19T19:55:30+00:00","ended":false,"distanceKm":97},{"id":"trk-34","threatClass":"drone","points":[{"lat":51.9638,"lon":35.9644,"time":"2026-07-19T19:05:27+00:00","location":"Большое Жирово","status":"approaching","count":null},{"lat":52.2926,"lon":35.821,"time":"2026-07-19T19:05:27+00:00","location":"Фатежский район","status":"approaching","count":null},{"lat":53.1022,"lon":32.4189,"time":"2026-07-19T19:55:30+00:00","location":"Суражский район","status":"unknown","count":null}],"firstSeen":"2026-07-19T19:05:27+00:00","lastSeen":"2026-07-19T19:55:30+00:00","ended":false,"distanceKm":284},{"id":"trk-35","threatClass":"drone","points":[{"lat":49.5008,"lon":40.3006,"time":"2026-07-19T19:11:44+00:00","location":"Щедровка","status":"approaching","count":null},{"lat":49.5896,"lon":40.5547,"time":"2026-07-19T19:11:44+00:00","location":"Чертковский район","status":"approaching","count":null}],"firstSeen":"2026-07-19T19:11:44+00:00","lastSeen":"2026-07-19T19:11:44+00:00","ended":false,"distanceKm":21}],"updatedAt":"2026-07-19T19:57:34.656Z"}