{"tracks":[{"id":"trk-5","threatClass":"drone","points":[{"lat":45.2411,"lon":35.9763,"time":"2026-07-11T13:35:53+00:00","location":"Керченский полуостров","status":"approaching","count":null},{"lat":46.4285,"lon":34.5761,"time":"2026-07-11T14:30:14+00:00","location":"Генический район","status":"approaching","count":null}],"firstSeen":"2026-07-11T13:35:53+00:00","lastSeen":"2026-07-11T14:30:14+00:00","ended":false,"distanceKm":171},{"id":"trk-8","threatClass":"drone","points":[{"lat":53,"lon":33.5,"time":"2026-07-11T19:34:42+00:00","location":"Брянская область","status":"unknown","count":null},{"lat":53.1482,"lon":36.3186,"time":"2026-07-11T20:23:02+00:00","location":"Валуйский район","status":"unknown","count":null}],"firstSeen":"2026-07-11T19:34:42+00:00","lastSeen":"2026-07-11T20:23:02+00:00","ended":false,"distanceKm":189},{"id":"trk-11","threatClass":"drone","points":[{"lat":48.5235,"lon":39.2864,"time":"2026-07-11T20:19:39+00:00","location":"ЛНР","status":"approaching","count":null},{"lat":48.0162,"lon":37.8095,"time":"2026-07-11T21:06:51+00:00","location":"ДНР","status":"approaching","count":null}],"firstSeen":"2026-07-11T20:19:39+00:00","lastSeen":"2026-07-11T21:06:51+00:00","ended":false,"distanceKm":123},{"id":"trk-12","threatClass":"drone","points":[{"lat":50.0371,"lon":38.011,"time":"2026-07-11T20:26:36+00:00","location":"Двулучное","status":"approaching","count":null},{"lat":50.2069,"lon":38.0997,"time":"2026-07-11T20:26:36+00:00","location":"Валуйки","status":"approaching","count":null},{"lat":50.4835,"lon":38.5679,"time":"2026-07-11T21:12:08+00:00","location":"Камышеватое","status":"approaching","count":null},{"lat":50.0544,"lon":40.5939,"time":"2026-07-11T21:50:25+00:00","location":"Журавка","status":"approaching","count":null},{"lat":50.0625,"lon":41.2185,"time":"2026-07-11T22:10:10+00:00","location":"Краснофлотское","status":"approaching","count":2}],"firstSeen":"2026-07-11T20:26:36+00:00","lastSeen":"2026-07-11T22:10:10+00:00","ended":false,"distanceKm":261},{"id":"trk-13","threatClass":"drone","points":[{"lat":45.4421,"lon":36.8404,"time":"2026-07-11T20:39:09+00:00","location":"Приазовский","status":"approaching","count":null},{"lat":47.2362,"lon":38.8969,"time":"2026-07-11T20:39:53+00:00","location":"Таганрог","status":"shot_down","count":null}],"firstSeen":"2026-07-11T20:39:09+00:00","lastSeen":"2026-07-11T20:39:53+00:00","ended":true,"distanceKm":254},{"id":"trk-15","threatClass":"drone","points":[{"lat":48.6114,"lon":39.9793,"time":"2026-07-11T21:10:36+00:00","location":"Зеленовка","status":"approaching","count":null},{"lat":48.6824,"lon":40.4969,"time":"2026-07-11T21:23:04+00:00","location":"Тарасовский район","status":"approaching","count":null},{"lat":48.6572,"lon":40.6175,"time":"2026-07-11T21:27:06+00:00","location":"Мартыновка","status":"approaching","count":null}],"firstSeen":"2026-07-11T21:10:36+00:00","lastSeen":"2026-07-11T21:27:06+00:00","ended":false,"distanceKm":48},{"id":"trk-18","threatClass":"drone","points":[{"lat":52.0848,"lon":36.3799,"time":"2026-07-11T21:14:14+00:00","location":"Золотухино","status":"approaching","count":null},{"lat":50.7573,"lon":38.9227,"time":"2026-07-11T22:03:51+00:00","location":"Нижний Ольшан","status":"approaching","count":null},{"lat":50.7895,"lon":40.0481,"time":"2026-07-11T22:20:53+00:00","location":"Шестаково","status":"unknown","count":null}],"firstSeen":"2026-07-11T21:14:14+00:00","lastSeen":"2026-07-11T22:20:53+00:00","ended":false,"distanceKm":309},{"id":"trk-19","threatClass":"drone","points":[{"lat":45.5,"lon":39.5,"time":"2026-07-11T21:19:00+00:00","location":"Краснодарский край","status":"approaching","count":null},{"lat":47.2362,"lon":38.8969,"time":"2026-07-11T21:20:22+00:00","location":"Таганрог","status":"shot_down","count":null}],"firstSeen":"2026-07-11T21:19:00+00:00","lastSeen":"2026-07-11T21:20:22+00:00","ended":true,"distanceKm":199},{"id":"trk-21","threatClass":"drone","points":[{"lat":53.2077,"lon":34.6634,"time":"2026-07-11T21:29:51+00:00","location":"Белые Берега","status":"approaching","count":null},{"lat":52.891,"lon":34.4097,"time":"2026-07-11T21:31:16+00:00","location":"Навлинский район","status":"approaching","count":null}],"firstSeen":"2026-07-11T21:29:51+00:00","lastSeen":"2026-07-11T21:31:16+00:00","ended":false,"distanceKm":39},{"id":"trk-22","threatClass":"drone","points":[{"lat":48.3383,"lon":39.9509,"time":"2026-07-11T21:26:07+00:00","location":"Донецк","status":"overhead","count":null},{"lat":48.6824,"lon":40.4969,"time":"2026-07-11T21:57:16+00:00","location":"Тарасовский район","status":"approaching","count":null},{"lat":49.025,"lon":40.2652,"time":"2026-07-11T21:57:16+00:00","location":"Миллеровский район","status":"approaching","count":null}],"firstSeen":"2026-07-11T21:26:07+00:00","lastSeen":"2026-07-11T21:57:16+00:00","ended":false,"distanceKm":97},{"id":"trk-23","threatClass":"drone","points":[{"lat":48.6824,"lon":40.4969,"time":"2026-07-11T21:27:06+00:00","location":"Тарасовский район","status":"approaching","count":null},{"lat":49.3416,"lon":40.6632,"time":"2026-07-11T22:00:02+00:00","location":"Греково-Степановка","status":"approaching","count":2}],"firstSeen":"2026-07-11T21:27:06+00:00","lastSeen":"2026-07-11T22:00:02+00:00","ended":false,"distanceKm":74},{"id":"trk-24","threatClass":"drone","points":[{"lat":52.6,"lon":39.6,"time":"2026-07-11T21:31:48+00:00","location":"Липецкая область","status":"unknown","count":null},{"lat":50.9874,"lon":39.4972,"time":"2026-07-11T22:10:51+00:00","location":"Лиски","status":"shot_down","count":null}],"firstSeen":"2026-07-11T21:31:48+00:00","lastSeen":"2026-07-11T22:10:51+00:00","ended":true,"distanceKm":179},{"id":"trk-25","threatClass":"drone","points":[{"lat":50.0483,"lon":39.3042,"time":"2026-07-11T21:38:06+00:00","location":"Шекаловка","status":"unknown","count":null},{"lat":50.3476,"lon":39.4458,"time":"2026-07-11T21:38:06+00:00","location":"Россошанский район","status":"unknown","count":null},{"lat":50.4575,"lon":40.1097,"time":"2026-07-11T21:55:29+00:00","location":"Павловск","status":"unknown","count":null},{"lat":50.0544,"lon":40.5939,"time":"2026-07-11T22:16:01+00:00","location":"Журавка","status":"approaching","count":null}],"firstSeen":"2026-07-11T21:38:06+00:00","lastSeen":"2026-07-11T22:16:01+00:00","ended":false,"distanceKm":140},{"id":"trk-26","threatClass":"drone","points":[{"lat":49.7972,"lon":39.7513,"time":"2026-07-11T21:40:12+00:00","location":"Кантемировский район","status":"approaching","count":8},{"lat":49.8881,"lon":40.2257,"time":"2026-07-11T21:42:10+00:00","location":"Богучарский район","status":"approaching","count":3},{"lat":48.3508,"lon":41.8253,"time":"2026-07-11T22:25:32+00:00","location":"Морозовск","status":"approaching","count":null}],"firstSeen":"2026-07-11T21:40:12+00:00","lastSeen":"2026-07-11T22:25:32+00:00","ended":false,"distanceKm":242},{"id":"trk-27","threatClass":"drone","points":[{"lat":50.3476,"lon":39.4458,"time":"2026-07-11T21:42:54+00:00","location":"Россошанский район","status":"approaching","count":null},{"lat":49.7972,"lon":39.7513,"time":"2026-07-11T21:42:54+00:00","location":"Кантемировский район","status":"approaching","count":null}],"firstSeen":"2026-07-11T21:42:54+00:00","lastSeen":"2026-07-11T21:42:54+00:00","ended":false,"distanceKm":65},{"id":"trk-28","threatClass":"drone","points":[{"lat":51.0588,"lon":40.1363,"time":"2026-07-11T21:42:54+00:00","location":"Бобровский район","status":"approaching","count":null},{"lat":52.7165,"lon":37.2543,"time":"2026-07-11T21:44:43+00:00","location":"Верховский район","status":"approaching","count":null},{"lat":53.3507,"lon":36.7147,"time":"2026-07-11T22:01:02+00:00","location":"Мценский район","status":"approaching","count":null}],"firstSeen":"2026-07-11T21:42:54+00:00","lastSeen":"2026-07-11T22:01:02+00:00","ended":false,"distanceKm":350},{"id":"trk-29","threatClass":"drone","points":[{"lat":52.6644,"lon":35.7776,"time":"2026-07-11T21:43:21+00:00","location":"Кромской район","status":"approaching","count":2},{"lat":52.4485,"lon":36.2419,"time":"2026-07-11T21:44:43+00:00","location":"Глазуновский район","status":"approaching","count":null},{"lat":52.3932,"lon":36.5399,"time":"2026-07-11T21:44:43+00:00","location":"Малоархангельский район","status":"approaching","count":null},{"lat":52.0929,"lon":37.4888,"time":"2026-07-11T21:44:43+00:00","location":"Должанский район","status":"approaching","count":null}],"firstSeen":"2026-07-11T21:43:21+00:00","lastSeen":"2026-07-11T21:44:43+00:00","ended":false,"distanceKm":133},{"id":"trk-31","threatClass":"drone","points":[{"lat":49.9147,"lon":38.892,"time":"2026-07-11T21:53:38+00:00","location":"Ровеньки","status":"approaching","count":null},{"lat":49.8227,"lon":39.2824,"time":"2026-07-11T22:05:23+00:00","location":"Новобелая","status":"approaching","count":null}],"firstSeen":"2026-07-11T21:53:38+00:00","lastSeen":"2026-07-11T22:05:23+00:00","ended":false,"distanceKm":30},{"id":"trk-33","threatClass":"drone","points":[{"lat":48.728,"lon":41.6401,"time":"2026-07-11T21:57:16+00:00","location":"Милютинский район","status":"approaching","count":null},{"lat":49.856,"lon":42.447,"time":"2026-07-11T21:58:10+00:00","location":"Кумылженский район","status":"approaching","count":2}],"firstSeen":"2026-07-11T21:57:16+00:00","lastSeen":"2026-07-11T21:58:10+00:00","ended":false,"distanceKm":138},{"id":"trk-35","threatClass":"drone","points":[{"lat":50.91,"lon":38.833,"time":"2026-07-11T22:13:27+00:00","location":"Лесное Уколово","status":"approaching","count":null},{"lat":52.4017,"lon":36.7168,"time":"2026-07-11T22:15:04+00:00","location":"Первая Ивань","status":"approaching","count":null}],"firstSeen":"2026-07-11T22:13:27+00:00","lastSeen":"2026-07-11T22:15:04+00:00","ended":false,"distanceKm":221}],"updatedAt":"2026-07-11T22:29:17.815Z"}