{"tracks":[{"id":"trk-2","threatClass":"drone","points":[{"lat":44.6166,"lon":33.5254,"time":"2026-07-20T22:15:16+00:00","location":"Севастополь","status":"approaching","count":null},{"lat":44.7556,"lon":33.7235,"time":"2026-07-20T22:35:25+00:00","location":"Кача","status":"approaching","count":null},{"lat":44.7555,"lon":33.8491,"time":"2026-07-20T23:26:40+00:00","location":"Бахчисарай","status":"approaching","count":null}],"firstSeen":"2026-07-20T22:15:16+00:00","lastSeen":"2026-07-20T23:26:40+00:00","ended":false,"distanceKm":32},{"id":"trk-15","threatClass":"drone","points":[{"lat":55.2677,"lon":36.6925,"time":"2026-07-21T06:34:42+00:00","location":"Боровский район","status":"approaching","count":null},{"lat":55.9206,"lon":37.9916,"time":"2026-07-21T06:35:46+00:00","location":"Щелково","status":"approaching","count":null}],"firstSeen":"2026-07-21T06:34:42+00:00","lastSeen":"2026-07-21T06:35:46+00:00","ended":false,"distanceKm":109},{"id":"trk-16","threatClass":"drone","points":[{"lat":55.9146,"lon":36.8595,"time":"2026-07-21T06:47:16+00:00","location":"Истра","status":"approaching","count":2},{"lat":55.6974,"lon":36.2834,"time":"2026-07-21T06:47:44+00:00","location":"Рузский","status":"approaching","count":null}],"firstSeen":"2026-07-21T06:47:16+00:00","lastSeen":"2026-07-21T06:47:44+00:00","ended":false,"distanceKm":43}],"updatedAt":"2026-07-21T09:56:52.585Z"}