{"tracks":[{"id":"trk-3","threatClass":"drone","points":[{"lat":45.1903,"lon":33.3669,"time":"2026-07-15T08:17:56+00:00","location":"Евпатория","status":"approaching","count":null},{"lat":45.1552,"lon":33.2744,"time":"2026-07-15T08:17:56+00:00","location":"Заозёрное","status":"approaching","count":null},{"lat":45.2079,"lon":33.1531,"time":"2026-07-15T08:17:56+00:00","location":"Витино","status":"approaching","count":null}],"firstSeen":"2026-07-15T08:17:56+00:00","lastSeen":"2026-07-15T08:17:56+00:00","ended":false,"distanceKm":19},{"id":"trk-4","threatClass":"drone","points":[{"lat":45.2614,"lon":38.1281,"time":"2026-07-15T08:19:42+00:00","location":"Славянск-На-Кубани","status":"approaching","count":null},{"lat":45.4324,"lon":37.8219,"time":"2026-07-15T08:36:01+00:00","location":"Славянский район","status":"overhead","count":null}],"firstSeen":"2026-07-15T08:19:42+00:00","lastSeen":"2026-07-15T08:36:01+00:00","ended":false,"distanceKm":31},{"id":"trk-11","threatClass":"drone","points":[{"lat":53.3507,"lon":36.7147,"time":"2026-07-15T15:10:16+00:00","location":"Мценский район","status":"approaching","count":null},{"lat":52.5401,"lon":39.766,"time":"2026-07-15T15:10:50+00:00","location":"Грязинский район","status":"approaching","count":null},{"lat":51.997,"lon":41.1766,"time":"2026-07-15T15:11:21+00:00","location":"Токаревский район","status":"approaching","count":null},{"lat":52.3137,"lon":42.5798,"time":"2026-07-15T15:11:21+00:00","location":"Инжавинский район","status":"approaching","count":null},{"lat":53.9409,"lon":43.1321,"time":"2026-07-15T15:54:53+00:00","location":"Пензенская область","status":"unknown","count":null}],"firstSeen":"2026-07-15T15:10:16+00:00","lastSeen":"2026-07-15T15:54:53+00:00","ended":false,"distanceKm":623}],"updatedAt":"2026-07-15T15:59:05.853Z"}