{"tracks":[{"id":"trk-1","threatClass":"drone","points":[{"lat":52.6644,"lon":35.7776,"time":"2026-07-19T22:30:26+00:00","location":"Кромской район","status":"approaching","count":3},{"lat":52.9685,"lon":36.0692,"time":"2026-07-19T22:36:42+00:00","location":"Орел","status":"approaching","count":null},{"lat":54.0094,"lon":38.2906,"time":"2026-07-19T23:35:15+00:00","location":"Новомосковск","status":"overhead","count":null},{"lat":55.0939,"lon":38.767,"time":"2026-07-19T23:35:52+00:00","location":"Коломна","status":"overhead","count":null},{"lat":55.4087,"lon":37.9095,"time":"2026-07-19T23:37:53+00:00","location":"Домодедово","status":"shot_down","count":null}],"firstSeen":"2026-07-19T22:30:26+00:00","lastSeen":"2026-07-19T23:37:53+00:00","ended":true,"distanceKm":415},{"id":"trk-2","threatClass":"drone","points":[{"lat":52.5539,"lon":38.7015,"time":"2026-07-19T22:37:55+00:00","location":"Екатериновка","status":"approaching","count":null},{"lat":52.957,"lon":37.6423,"time":"2026-07-19T22:38:54+00:00","location":"Судбище","status":"approaching","count":null},{"lat":54.6938,"lon":38.1602,"time":"2026-07-20T00:13:04+00:00","location":"Венёвский район","status":"approaching","count":null}],"firstSeen":"2026-07-19T22:37:55+00:00","lastSeen":"2026-07-20T00:13:04+00:00","ended":false,"distanceKm":280},{"id":"trk-3","threatClass":"drone","points":[{"lat":55.4087,"lon":37.9095,"time":"2026-07-19T22:39:05+00:00","location":"Домодедово","status":"overhead","count":null},{"lat":54.5028,"lon":37.0667,"time":"2026-07-19T22:39:49+00:00","location":"Алексин","status":"overhead","count":null},{"lat":54.1931,"lon":37.6173,"time":"2026-07-19T23:01:30+00:00","location":"Тула","status":"overhead","count":null},{"lat":53.7064,"lon":37.293,"time":"2026-07-19T23:23:59+00:00","location":"Плавский район","status":"approaching","count":null},{"lat":52.3967,"lon":35.8058,"time":"2026-07-20T00:04:24+00:00","location":"Троснянский район","status":"approaching","count":null}],"firstSeen":"2026-07-19T22:39:05+00:00","lastSeen":"2026-07-20T00:04:24+00:00","ended":false,"distanceKm":398},{"id":"trk-4","threatClass":"drone","points":[{"lat":53.9254,"lon":38.7867,"time":"2026-07-19T22:39:58+00:00","location":"Новольвовск","status":"unknown","count":null},{"lat":53.9673,"lon":38.3377,"time":"2026-07-19T23:58:03+00:00","location":"Донской","status":"approaching","count":2},{"lat":53.9362,"lon":37.5702,"time":"2026-07-20T00:10:22+00:00","location":"Огаревка","status":"approaching","count":null},{"lat":54.0883,"lon":36.5551,"time":"2026-07-20T00:10:22+00:00","location":"Михайловка","status":"approaching","count":null}],"firstSeen":"2026-07-19T22:39:58+00:00","lastSeen":"2026-07-20T00:10:22+00:00","ended":false,"distanceKm":149},{"id":"trk-5","threatClass":"drone","points":[{"lat":52.6244,"lon":38.5014,"time":"2026-07-19T22:48:14+00:00","location":"Елец","status":"approaching","count":null},{"lat":53.7879,"lon":39.2421,"time":"2026-07-19T23:35:41+00:00","location":"Павелец","status":"approaching","count":null},{"lat":54.4043,"lon":38.2027,"time":"2026-07-20T00:13:04+00:00","location":"Метростроевский","status":"approaching","count":null}],"firstSeen":"2026-07-19T22:48:14+00:00","lastSeen":"2026-07-20T00:13:04+00:00","ended":false,"distanceKm":235},{"id":"trk-6","threatClass":"drone","points":[{"lat":53.1649,"lon":38.2545,"time":"2026-07-19T22:51:01+00:00","location":"Ефремовский район","status":"approaching","count":null},{"lat":54.5028,"lon":37.0667,"time":"2026-07-19T23:31:14+00:00","location":"Алексин","status":"shot_down","count":null}],"firstSeen":"2026-07-19T22:51:01+00:00","lastSeen":"2026-07-19T23:31:14+00:00","ended":true,"distanceKm":168},{"id":"trk-8","threatClass":"missile","points":[{"lat":53.3285,"lon":37.1138,"time":"2026-07-19T23:00:01+00:00","location":"Архангельское","status":"unknown","count":null},{"lat":53.2413,"lon":37.7558,"time":"2026-07-19T23:00:01+00:00","location":"Каменский район","status":"unknown","count":null}],"firstSeen":"2026-07-19T23:00:01+00:00","lastSeen":"2026-07-19T23:00:01+00:00","ended":false,"distanceKm":44},{"id":"trk-10","threatClass":"drone","points":[{"lat":54.7439,"lon":37.941,"time":"2026-07-19T23:33:02+00:00","location":"Иваньково","status":"approaching","count":null},{"lat":54.5815,"lon":37.9206,"time":"2026-07-20T00:10:39+00:00","location":"Ясногорский район","status":"approaching","count":null}],"firstSeen":"2026-07-19T23:33:02+00:00","lastSeen":"2026-07-20T00:10:39+00:00","ended":false,"distanceKm":18},{"id":"trk-11","threatClass":"drone","points":[{"lat":54.5028,"lon":37.0667,"time":"2026-07-19T23:33:31+00:00","location":"Алексин","status":"unknown","count":null},{"lat":54.5293,"lon":36.2754,"time":"2026-07-20T00:02:09+00:00","location":"Калуга","status":"approaching","count":null}],"firstSeen":"2026-07-19T23:33:31+00:00","lastSeen":"2026-07-20T00:02:09+00:00","ended":false,"distanceKm":51},{"id":"trk-12","threatClass":"drone","points":[{"lat":54.0045,"lon":37.5179,"time":"2026-07-19T23:35:15+00:00","location":"Щекино","status":"overhead","count":null},{"lat":54.468,"lon":38.7224,"time":"2026-07-20T00:08:47+00:00","location":"Серебряные Пруды","status":"approaching","count":6}],"firstSeen":"2026-07-19T23:35:15+00:00","lastSeen":"2026-07-20T00:08:47+00:00","ended":false,"distanceKm":94},{"id":"trk-13","threatClass":"drone","points":[{"lat":54.9155,"lon":37.4196,"time":"2026-07-19T23:37:19+00:00","location":"Серпухов","status":"approaching","count":null},{"lat":53.909,"lon":38.1445,"time":"2026-07-19T23:38:46+00:00","location":"Узловский район","status":"approaching","count":null},{"lat":53.1649,"lon":38.2545,"time":"2026-07-20T00:06:28+00:00","location":"Ефремовский район","status":"approaching","count":null}],"firstSeen":"2026-07-19T23:37:19+00:00","lastSeen":"2026-07-20T00:06:28+00:00","ended":false,"distanceKm":204},{"id":"trk-15","threatClass":"drone","points":[{"lat":55.5497,"lon":38.1548,"time":"2026-07-19T23:39:33+00:00","location":"Раменское","status":"overhead","count":null},{"lat":54.5293,"lon":36.2754,"time":"2026-07-19T23:40:33+00:00","location":"Калуга","status":"approaching","count":null}],"firstSeen":"2026-07-19T23:39:33+00:00","lastSeen":"2026-07-19T23:40:33+00:00","ended":false,"distanceKm":165},{"id":"trk-16","threatClass":"drone","points":[{"lat":54.7439,"lon":37.941,"time":"2026-07-19T23:59:13+00:00","location":"Иваньково","status":"approaching","count":null},{"lat":54.5219,"lon":37.3649,"time":"2026-07-20T00:10:22+00:00","location":"Березовка","status":"approaching","count":null}],"firstSeen":"2026-07-19T23:59:13+00:00","lastSeen":"2026-07-20T00:10:22+00:00","ended":false,"distanceKm":45},{"id":"trk-17","threatClass":"drone","points":[{"lat":55.5497,"lon":38.1548,"time":"2026-07-19T23:41:11+00:00","location":"Раменское","status":"overhead","count":null},{"lat":54.9155,"lon":37.4196,"time":"2026-07-19T23:58:40+00:00","location":"Серпухов","status":"approaching","count":null}],"firstSeen":"2026-07-19T23:41:11+00:00","lastSeen":"2026-07-19T23:58:40+00:00","ended":false,"distanceKm":85},{"id":"trk-18","threatClass":"drone","points":[{"lat":55.0939,"lon":38.767,"time":"2026-07-19T23:41:59+00:00","location":"Коломна","status":"approaching","count":null},{"lat":54.0094,"lon":38.2906,"time":"2026-07-19T23:43:41+00:00","location":"Новомосковск","status":"approaching","count":null},{"lat":53.8405,"lon":38.6778,"time":"2026-07-20T00:07:44+00:00","location":"Кимовский район","status":"approaching","count":null}],"firstSeen":"2026-07-19T23:41:59+00:00","lastSeen":"2026-07-20T00:07:44+00:00","ended":false,"distanceKm":156},{"id":"trk-19","threatClass":"drone","points":[{"lat":55.0939,"lon":38.767,"time":"2026-07-19T23:44:29+00:00","location":"Коломна","status":"approaching","count":null},{"lat":55.1427,"lon":37.4545,"time":"2026-07-19T23:45:12+00:00","location":"Чехов","status":"overhead","count":null},{"lat":54.5028,"lon":37.0667,"time":"2026-07-19T23:46:00+00:00","location":"Алексин","status":"approaching","count":null}],"firstSeen":"2026-07-19T23:44:29+00:00","lastSeen":"2026-07-19T23:46:00+00:00","ended":false,"distanceKm":159},{"id":"trk-22","threatClass":"drone","points":[{"lat":44.5121,"lon":33.599,"time":"2026-07-19T23:52:34+00:00","location":"Балаклава","status":"approaching","count":null},{"lat":44.6166,"lon":33.5254,"time":"2026-07-20T00:09:17+00:00","location":"Севастополь","status":"approaching","count":null}],"firstSeen":"2026-07-19T23:52:34+00:00","lastSeen":"2026-07-20T00:09:17+00:00","ended":false,"distanceKm":13},{"id":"trk-23","threatClass":"drone","points":[{"lat":55.0939,"lon":38.767,"time":"2026-07-19T23:49:18+00:00","location":"Коломна","status":"approaching","count":null},{"lat":55.4087,"lon":37.9095,"time":"2026-07-19T23:49:47+00:00","location":"Домодедово","status":"shot_down","count":null}],"firstSeen":"2026-07-19T23:49:18+00:00","lastSeen":"2026-07-19T23:49:47+00:00","ended":true,"distanceKm":65},{"id":"trk-30","threatClass":"drone","points":[{"lat":54.6938,"lon":38.1602,"time":"2026-07-19T23:57:39+00:00","location":"Веневский район","status":"approaching","count":9},{"lat":54.8374,"lon":38.1505,"time":"2026-07-19T23:58:40+00:00","location":"Кашира","status":"approaching","count":null},{"lat":56.6325,"lon":37.1245,"time":"2026-07-20T00:10:38+00:00","location":"Ступино","status":"approaching","count":null}],"firstSeen":"2026-07-19T23:57:39+00:00","lastSeen":"2026-07-20T00:10:38+00:00","ended":false,"distanceKm":226},{"id":"trk-35","threatClass":"drone","points":[{"lat":52.5715,"lon":36.8974,"time":"2026-07-20T00:04:24+00:00","location":"Покровский район","status":"approaching","count":null},{"lat":53.3507,"lon":36.7147,"time":"2026-07-20T00:04:55+00:00","location":"Мценский район","status":"approaching","count":null},{"lat":55.5497,"lon":38.1548,"time":"2026-07-20T00:05:39+00:00","location":"Раменское","status":"shot_down","count":null}],"firstSeen":"2026-07-20T00:04:24+00:00","lastSeen":"2026-07-20T00:05:39+00:00","ended":true,"distanceKm":349},{"id":"trk-36","threatClass":"drone","points":[{"lat":54.6938,"lon":38.1602,"time":"2026-07-20T00:07:44+00:00","location":"Венёвский район","status":"approaching","count":null},{"lat":55.4087,"lon":37.9095,"time":"2026-07-20T00:08:17+00:00","location":"Домодедово","status":"shot_down","count":null}],"firstSeen":"2026-07-20T00:07:44+00:00","lastSeen":"2026-07-20T00:08:17+00:00","ended":true,"distanceKm":81},{"id":"trk-39","threatClass":"drone","points":[{"lat":54.1731,"lon":39.0747,"time":"2026-07-20T00:09:09+00:00","location":"Михайловский район","status":"approaching","count":4},{"lat":54.8374,"lon":38.1505,"time":"2026-07-20T00:10:38+00:00","location":"Кашира","status":"approaching","count":null},{"lat":55.1427,"lon":37.4545,"time":"2026-07-20T00:11:08+00:00","location":"Чехов","status":"approaching","count":4},{"lat":55.4309,"lon":37.5453,"time":"2026-07-20T00:11:34+00:00","location":"Подольск","status":"shot_down","count":null}],"firstSeen":"2026-07-20T00:09:09+00:00","lastSeen":"2026-07-20T00:11:34+00:00","ended":true,"distanceKm":183},{"id":"trk-41","threatClass":"drone","points":[{"lat":54.0221,"lon":37.8625,"time":"2026-07-20T00:10:22+00:00","location":"Киреевский район","status":"approaching","count":null},{"lat":54.7439,"lon":37.941,"time":"2026-07-20T00:10:39+00:00","location":"Иваньково","status":"approaching","count":null}],"firstSeen":"2026-07-20T00:10:22+00:00","lastSeen":"2026-07-20T00:10:39+00:00","ended":false,"distanceKm":80},{"id":"trk-44","threatClass":"drone","points":[{"lat":55.1116,"lon":34.9753,"time":"2026-07-20T00:12:07+00:00","location":"Тёмкинский район","status":"approaching","count":null},{"lat":55.4087,"lon":37.9095,"time":"2026-07-20T00:13:21+00:00","location":"Домодедово","status":"approaching","count":null}],"firstSeen":"2026-07-20T00:12:07+00:00","lastSeen":"2026-07-20T00:13:21+00:00","ended":false,"distanceKm":189},{"id":"trk-47","threatClass":"drone","points":[{"lat":50.5075,"lon":36.5079,"time":"2026-07-20T04:03:51+00:00","location":"Шагаровка","status":"approaching","count":null},{"lat":50.5228,"lon":36.3825,"time":"2026-07-20T04:03:51+00:00","location":"Белгородский район","status":"approaching","count":null}],"firstSeen":"2026-07-20T04:03:51+00:00","lastSeen":"2026-07-20T04:03:51+00:00","ended":false,"distanceKm":9},{"id":"trk-53","threatClass":"drone","points":[{"lat":56.5511,"lon":60.3047,"time":"2026-07-20T07:00:00+00:00","location":"ЧП ЕКАТЕРИНБУРГ","status":"approaching","count":null},{"lat":54.7437,"lon":60.97,"time":"2026-07-20T07:00:00+00:00","location":"ЧП ЧЕЛЯБИНСК","status":"approaching","count":null}],"firstSeen":"2026-07-20T07:00:00+00:00","lastSeen":"2026-07-20T07:00:00+00:00","ended":false,"distanceKm":205},{"id":"trk-55","threatClass":"drone","points":[{"lat":57.4549,"lon":41.5322,"time":"2026-07-20T07:00:00+00:00","location":"ЧП ИВАНОВО","status":"approaching","count":null},{"lat":57.7101,"lon":41.2199,"time":"2026-07-20T07:00:00+00:00","location":"ЧП КОСТРОМА","status":"approaching","count":null}],"firstSeen":"2026-07-20T07:00:00+00:00","lastSeen":"2026-07-20T07:00:00+00:00","ended":false,"distanceKm":34},{"id":"trk-58","threatClass":"drone","points":[{"lat":54.9842,"lon":83.0615,"time":"2026-07-20T07:00:00+00:00","location":"ЧП НОВОСИБИРСК","status":"approaching","count":null},{"lat":56.3553,"lon":85.1551,"time":"2026-07-20T07:00:00+00:00","location":"ЧП ТОМСК","status":"approaching","count":null}],"firstSeen":"2026-07-20T07:00:00+00:00","lastSeen":"2026-07-20T07:00:00+00:00","ended":false,"distanceKm":201},{"id":"trk-63","threatClass":"drone","points":[{"lat":51.5714,"lon":34.624,"time":"2026-07-20T09:31:45+00:00","location":"Рыльский район","status":"approaching","count":null},{"lat":51.6473,"lon":35.576,"time":"2026-07-20T10:15:41+00:00","location":"Иванино","status":"approaching","count":null}],"firstSeen":"2026-07-20T09:31:45+00:00","lastSeen":"2026-07-20T10:15:41+00:00","ended":false,"distanceKm":66}],"updatedAt":"2026-07-20T10:28:57.469Z"}