{"tracks":[{"id":"trk-12","threatClass":"drone","points":[{"lat":52.891,"lon":34.4097,"time":"2026-07-21T20:31:46+00:00","location":"Навлинский район","status":"unknown","count":null},{"lat":52.5835,"lon":33.7675,"time":"2026-07-21T21:01:20+00:00","location":"Трубчевск","status":"unknown","count":null}],"firstSeen":"2026-07-21T20:31:46+00:00","lastSeen":"2026-07-21T21:01:20+00:00","ended":false,"distanceKm":55},{"id":"trk-17","threatClass":"drone","points":[{"lat":53.6046,"lon":32.6902,"time":"2026-07-21T20:48:26+00:00","location":"Ершичский район","status":"approaching","count":null},{"lat":54.0967,"lon":33.7911,"time":"2026-07-21T20:49:16+00:00","location":"Куйбышевский район","status":"approaching","count":null},{"lat":54.4471,"lon":34.3132,"time":"2026-07-21T20:49:16+00:00","location":"Спас-Деменский район","status":"approaching","count":null},{"lat":53.9435,"lon":36.7279,"time":"2026-07-21T20:50:58+00:00","location":"Одоевский район","status":"approaching","count":null},{"lat":53.8907,"lon":37.3865,"time":"2026-07-21T21:09:39+00:00","location":"Щекинский район","status":"approaching","count":null}],"firstSeen":"2026-07-21T20:48:26+00:00","lastSeen":"2026-07-21T21:09:39+00:00","ended":false,"distanceKm":353},{"id":"trk-18","threatClass":"drone","points":[{"lat":52.9708,"lon":35.4554,"time":"2026-07-21T20:50:17+00:00","location":"Урицкий район","status":"approaching","count":null},{"lat":52.858,"lon":35.1026,"time":"2026-07-21T20:50:17+00:00","location":"Шаблыкинский район","status":"approaching","count":null}],"firstSeen":"2026-07-21T20:50:17+00:00","lastSeen":"2026-07-21T20:50:17+00:00","ended":false,"distanceKm":27},{"id":"trk-19","threatClass":"drone","points":[{"lat":52.3932,"lon":36.5399,"time":"2026-07-21T20:50:17+00:00","location":"Малоархангельский район","status":"approaching","count":null},{"lat":52.6765,"lon":36.2816,"time":"2026-07-21T21:09:24+00:00","location":"Свердловский район","status":"approaching","count":null}],"firstSeen":"2026-07-21T20:50:17+00:00","lastSeen":"2026-07-21T21:09:24+00:00","ended":false,"distanceKm":36},{"id":"trk-23","threatClass":"drone","points":[{"lat":52.7238,"lon":34.0021,"time":"2026-07-21T21:14:49+00:00","location":"Любожичи","status":"approaching","count":null},{"lat":53,"lon":33.5,"time":"2026-07-21T21:57:39+00:00","location":"Брянская область.","status":"unknown","count":null}],"firstSeen":"2026-07-21T21:14:49+00:00","lastSeen":"2026-07-21T21:57:39+00:00","ended":false,"distanceKm":46},{"id":"trk-27","threatClass":"drone","points":[{"lat":48.1939,"lon":41.2809,"time":"2026-07-21T22:02:35+00:00","location":"Тацинская","status":"approaching","count":null},{"lat":48.3508,"lon":41.8253,"time":"2026-07-21T22:02:35+00:00","location":"Морозовск","status":"approaching","count":null}],"firstSeen":"2026-07-21T22:02:35+00:00","lastSeen":"2026-07-21T22:02:35+00:00","ended":false,"distanceKm":44},{"id":"trk-30","threatClass":"drone","points":[{"lat":54.8479,"lon":33.3234,"time":"2026-07-21T22:07:21+00:00","location":"Дорогобужский район","status":"approaching","count":null},{"lat":55.1964,"lon":34.3311,"time":"2026-07-21T22:07:21+00:00","location":"Вяземский район","status":"approaching","count":null}],"firstSeen":"2026-07-21T22:07:21+00:00","lastSeen":"2026-07-21T22:07:21+00:00","ended":false,"distanceKm":75},{"id":"trk-33","threatClass":"drone","points":[{"lat":54.5815,"lon":37.9206,"time":"2026-07-21T22:13:26+00:00","location":"Ясногорский район","status":"approaching","count":null},{"lat":54.6296,"lon":39.7415,"time":"2026-07-21T22:45:22+00:00","location":"Рязань","status":"overhead","count":null}],"firstSeen":"2026-07-21T22:13:26+00:00","lastSeen":"2026-07-21T22:45:22+00:00","ended":false,"distanceKm":117},{"id":"trk-35","threatClass":"drone","points":[{"lat":50.7421,"lon":33.4877,"time":"2026-07-21T22:24:58+00:00","location":"Ромни.","status":"approaching","count":null},{"lat":49.9615,"lon":34.533,"time":"2026-07-21T23:02:20+00:00","location":"Ромодан/Лубни.","status":"unknown","count":null}],"firstSeen":"2026-07-21T22:24:58+00:00","lastSeen":"2026-07-21T23:02:20+00:00","ended":false,"distanceKm":114},{"id":"trk-36","threatClass":"drone","points":[{"lat":45.6554,"lon":38.8456,"time":"2026-07-21T22:37:08+00:00","location":"Крупской","status":"unknown","count":null},{"lat":45.3419,"lon":39.073,"time":"2026-07-21T23:23:08+00:00","location":"Старомышастовская","status":"approaching","count":null}],"firstSeen":"2026-07-21T22:37:08+00:00","lastSeen":"2026-07-21T23:23:08+00:00","ended":false,"distanceKm":39},{"id":"trk-37","threatClass":"drone","points":[{"lat":47.9594,"lon":40.1889,"time":"2026-07-21T22:45:38+00:00","location":"Красносулинский район","status":"overhead","count":null},{"lat":47.5696,"lon":38.7696,"time":"2026-07-21T23:27:47+00:00","location":"Матвеево-Курганский район","status":"approaching","count":null}],"firstSeen":"2026-07-21T22:45:38+00:00","lastSeen":"2026-07-21T23:27:47+00:00","ended":false,"distanceKm":115},{"id":"trk-38","threatClass":"drone","points":[{"lat":44.6002,"lon":39.7341,"time":"2026-07-21T22:46:29+00:00","location":"Заречный","status":"approaching","count":null},{"lat":45.3848,"lon":38.6015,"time":"2026-07-21T23:26:41+00:00","location":"Гришковское","status":"approaching","count":null}],"firstSeen":"2026-07-21T22:46:29+00:00","lastSeen":"2026-07-21T23:26:41+00:00","ended":false,"distanceKm":125},{"id":"trk-41","threatClass":"drone","points":[{"lat":45.4324,"lon":37.8219,"time":"2026-07-21T23:11:30+00:00","location":"Славянский район","status":"overhead","count":null},{"lat":45.2614,"lon":38.1281,"time":"2026-07-21T23:18:52+00:00","location":"Славянск-на-Кубани","status":"approaching","count":null}],"firstSeen":"2026-07-21T23:11:30+00:00","lastSeen":"2026-07-21T23:18:52+00:00","ended":false,"distanceKm":31},{"id":"trk-44","threatClass":"drone","points":[{"lat":47.7621,"lon":41.4063,"time":"2026-07-21T23:32:33+00:00","location":"Константиновский район","status":"approaching","count":null},{"lat":47.1442,"lon":40.732,"time":"2026-07-21T23:32:33+00:00","location":"Веселовский район","status":"approaching","count":null},{"lat":46.573,"lon":41.0272,"time":"2026-07-21T23:32:33+00:00","location":"Целинский район","status":"approaching","count":null}],"firstSeen":"2026-07-21T23:32:33+00:00","lastSeen":"2026-07-21T23:32:33+00:00","ended":false,"distanceKm":153}],"updatedAt":"2026-07-21T23:33:55.778Z"}