{"tracks":[{"id":"trk-1","threatClass":"drone","points":[{"lat":53.4518,"lon":36.822,"time":"2026-07-09T09:44:09+00:00","location":"Чернский район","status":"approaching","count":null},{"lat":53.7064,"lon":37.293,"time":"2026-07-09T09:44:57+00:00","location":"Плавский район","status":"approaching","count":2}],"firstSeen":"2026-07-09T09:44:09+00:00","lastSeen":"2026-07-09T09:44:57+00:00","ended":false,"distanceKm":42},{"id":"trk-4","threatClass":"drone","points":[{"lat":54.0967,"lon":33.7911,"time":"2026-07-09T17:09:14+00:00","location":"Куйбышевский район","status":"approaching","count":null},{"lat":53.8631,"lon":34.4489,"time":"2026-07-09T17:09:14+00:00","location":"Людиновский район","status":"approaching","count":null}],"firstSeen":"2026-07-09T17:09:14+00:00","lastSeen":"2026-07-09T17:09:14+00:00","ended":false,"distanceKm":50},{"id":"trk-5","threatClass":"drone","points":[{"lat":54.5275,"lon":33.3509,"time":"2026-07-09T17:11:14+00:00","location":"Ельнинский район","status":"approaching","count":null},{"lat":55.2222,"lon":32.8025,"time":"2026-07-09T17:11:14+00:00","location":"Ярцевский район","status":"approaching","count":null}],"firstSeen":"2026-07-09T17:11:14+00:00","lastSeen":"2026-07-09T17:11:14+00:00","ended":false,"distanceKm":85},{"id":"trk-6","threatClass":"drone","points":[{"lat":55.3843,"lon":36.7235,"time":"2026-07-09T17:11:30+00:00","location":"Наро-Фоминск","status":"approaching","count":null},{"lat":55.9937,"lon":35.9362,"time":"2026-07-09T17:11:48+00:00","location":"Волоколамск","status":"approaching","count":null},{"lat":56.7434,"lon":35.841,"time":"2026-07-09T17:12:01+00:00","location":"Калининский район","status":"approaching","count":null}],"firstSeen":"2026-07-09T17:11:30+00:00","lastSeen":"2026-07-09T17:12:01+00:00","ended":false,"distanceKm":167},{"id":"trk-14","threatClass":"drone","points":[{"lat":54.5275,"lon":33.3509,"time":"2026-07-09T20:28:29+00:00","location":"Ельнинский район","status":"unknown","count":null},{"lat":53.347,"lon":34.0798,"time":"2026-07-09T20:29:40+00:00","location":"Сельцо","status":"approaching","count":null}],"firstSeen":"2026-07-09T20:28:29+00:00","lastSeen":"2026-07-09T20:29:40+00:00","ended":false,"distanceKm":140}],"updatedAt":"2026-07-09T21:00:10.768Z"}