{"tracks":[{"id":"trk-9","threatClass":"drone","points":[{"lat":54.6746,"lon":39.6721,"time":"2026-07-17T15:07:27+00:00","location":"Спасский район","status":"approaching","count":null},{"lat":53.2075,"lon":40.3696,"time":"2026-07-17T15:08:07+00:00","location":"Первомайский район","status":"approaching","count":null}],"firstSeen":"2026-07-17T15:07:27+00:00","lastSeen":"2026-07-17T15:08:07+00:00","ended":false,"distanceKm":169},{"id":"trk-10","threatClass":"drone","points":[{"lat":53.5068,"lon":41.7004,"time":"2026-07-17T15:08:07+00:00","location":"Моршанский район","status":"approaching","count":null},{"lat":53.1877,"lon":41.3576,"time":"2026-07-17T15:08:07+00:00","location":"Сосновский район","status":"approaching","count":null}],"firstSeen":"2026-07-17T15:08:07+00:00","lastSeen":"2026-07-17T15:08:07+00:00","ended":false,"distanceKm":42},{"id":"trk-12","threatClass":"drone","points":[{"lat":52.5401,"lon":39.766,"time":"2026-07-17T16:38:34+00:00","location":"Грязинский район","status":"approaching","count":null},{"lat":54.6746,"lon":39.6721,"time":"2026-07-17T16:38:58+00:00","location":"Спасский район","status":"approaching","count":null}],"firstSeen":"2026-07-17T16:38:34+00:00","lastSeen":"2026-07-17T16:38:58+00:00","ended":false,"distanceKm":237},{"id":"trk-14","threatClass":"drone","points":[{"lat":52.6031,"lon":39.5708,"time":"2026-07-17T16:50:08+00:00","location":"Липецк","status":"approaching","count":null},{"lat":52.3424,"lon":39.7006,"time":"2026-07-17T16:50:08+00:00","location":"Усманский район","status":"approaching","count":null}],"firstSeen":"2026-07-17T16:50:08+00:00","lastSeen":"2026-07-17T16:50:08+00:00","ended":false,"distanceKm":30}],"updatedAt":"2026-07-17T16:52:50.198Z"}