{"tracks":[{"id":"trk-1","threatClass":"drone","points":[{"lat":54.0967,"lon":33.7911,"time":"2026-07-13T00:44:32+00:00","location":"Куйбышевский район","status":"approaching","count":null},{"lat":54.4471,"lon":34.3132,"time":"2026-07-13T00:44:32+00:00","location":"Спас-Деменский район","status":"approaching","count":null},{"lat":55.6168,"lon":34.1262,"time":"2026-07-13T00:44:52+00:00","location":"Новодугинский район","status":"approaching","count":null}],"firstSeen":"2026-07-13T00:44:32+00:00","lastSeen":"2026-07-13T00:44:52+00:00","ended":false,"distanceKm":182},{"id":"trk-4","threatClass":"drone","points":[{"lat":55.9146,"lon":36.8595,"time":"2026-07-13T00:39:36+00:00","location":"Воскресенск","status":"approaching","count":5},{"lat":55.422,"lon":38.2591,"time":"2026-07-13T00:40:46+00:00","location":"Бронницы","status":"approaching","count":4}],"firstSeen":"2026-07-13T00:39:36+00:00","lastSeen":"2026-07-13T00:40:46+00:00","ended":false,"distanceKm":103},{"id":"trk-5","threatClass":"drone","points":[{"lat":56.6325,"lon":37.1245,"time":"2026-07-13T00:41:09+00:00","location":"Ступино","status":"approaching","count":3},{"lat":54.9155,"lon":37.4196,"time":"2026-07-13T00:41:31+00:00","location":"Серпухов","status":"approaching","count":2}],"firstSeen":"2026-07-13T00:41:09+00:00","lastSeen":"2026-07-13T00:41:31+00:00","ended":false,"distanceKm":192}],"updatedAt":"2026-07-13T11:27:04.757Z"}