{"tracks":[{"id":"trk-3","threatClass":"drone","points":[{"lat":44.8857,"lon":38.0857,"time":"2026-07-06T16:30:17+00:00","location":"Крымский район","status":"approaching","count":null},{"lat":45.5,"lon":39.5,"time":"2026-07-06T16:49:54+00:00","location":"Краснодарский край","status":"approaching","count":null}],"firstSeen":"2026-07-06T16:30:17+00:00","lastSeen":"2026-07-06T16:49:54+00:00","ended":false,"distanceKm":130},{"id":"trk-5","threatClass":"drone","points":[{"lat":44.7614,"lon":39.8713,"time":"2026-07-06T19:00:33+00:00","location":"Белореченск","status":"unknown","count":null},{"lat":45.3636,"lon":36.6115,"time":"2026-07-06T20:42:32+00:00","location":"Республика Крым","status":"approaching","count":null}],"firstSeen":"2026-07-06T19:00:33+00:00","lastSeen":"2026-07-06T20:42:32+00:00","ended":false,"distanceKm":265},{"id":"trk-6","threatClass":"drone","points":[{"lat":47.2362,"lon":38.8969,"time":"2026-07-06T19:07:55+00:00","location":"Таганрог","status":"overhead","count":null},{"lat":47.5126,"lon":34.5895,"time":"2026-07-06T20:11:33+00:00","location":"Запорожская область","status":"unknown","count":null}],"firstSeen":"2026-07-06T19:07:55+00:00","lastSeen":"2026-07-06T20:11:33+00:00","ended":false,"distanceKm":326},{"id":"trk-7","threatClass":"drone","points":[{"lat":47.2905,"lon":39.6657,"time":"2026-07-06T20:26:33+00:00","location":"Октябрьский район","status":"approaching","count":null},{"lat":44.7614,"lon":39.8713,"time":"2026-07-06T21:03:32+00:00","location":"Белореченск","status":"approaching","count":null}],"firstSeen":"2026-07-06T20:26:33+00:00","lastSeen":"2026-07-06T21:03:32+00:00","ended":false,"distanceKm":282},{"id":"trk-8","threatClass":"drone","points":[{"lat":54.4865,"lon":45.0128,"time":"2026-07-06T20:34:52+00:00","location":"Нижегородская область","status":"unknown","count":null},{"lat":52.5661,"lon":39.2899,"time":"2026-07-06T21:57:46+00:00","location":"Липецкий район","status":"approaching","count":5},{"lat":53.1649,"lon":38.2545,"time":"2026-07-06T22:37:04+00:00","location":"Ефремовский район","status":"approaching","count":null},{"lat":52.9685,"lon":36.0692,"time":"2026-07-06T23:03:50+00:00","location":"Орел","status":"approaching","count":null},{"lat":52.9708,"lon":35.4554,"time":"2026-07-06T23:18:04+00:00","location":"Урицкий район","status":"approaching","count":null},{"lat":52.858,"lon":35.1026,"time":"2026-07-06T23:18:04+00:00","location":"Шаблыкинский район","status":"approaching","count":null}],"firstSeen":"2026-07-06T20:34:52+00:00","lastSeen":"2026-07-06T23:18:04+00:00","ended":false,"distanceKm":746},{"id":"trk-9","threatClass":"drone","points":[{"lat":51.0539,"lon":38.9461,"time":"2026-07-06T20:36:51+00:00","location":"Репьевский район","status":"approaching","count":null},{"lat":52.5666,"lon":40.3535,"time":"2026-07-06T21:57:24+00:00","location":"Петровский район","status":"approaching","count":2},{"lat":52.8988,"lon":39.7359,"time":"2026-07-06T22:34:20+00:00","location":"Добровский район","status":"approaching","count":null},{"lat":54.7586,"lon":38.8818,"time":"2026-07-06T23:06:57+00:00","location":"Зарайск","status":"approaching","count":null}],"firstSeen":"2026-07-06T20:36:51+00:00","lastSeen":"2026-07-06T23:06:57+00:00","ended":false,"distanceKm":464},{"id":"trk-10","threatClass":"drone","points":[{"lat":48.5883,"lon":44.3931,"time":"2026-07-06T20:58:01+00:00","location":"Михайловский район","status":"approaching","count":null},{"lat":49.2817,"lon":41.7308,"time":"2026-07-06T22:33:45+00:00","location":"Боковский район","status":"approaching","count":null}],"firstSeen":"2026-07-06T20:58:01+00:00","lastSeen":"2026-07-06T22:33:45+00:00","ended":false,"distanceKm":209},{"id":"trk-11","threatClass":"drone","points":[{"lat":52.7427,"lon":35.3809,"time":"2026-07-06T21:07:43+00:00","location":"Сосковский район","status":"approaching","count":null},{"lat":52.5157,"lon":35.2526,"time":"2026-07-06T23:18:04+00:00","location":"Дмитровский район","status":"approaching","count":null}],"firstSeen":"2026-07-06T21:07:43+00:00","lastSeen":"2026-07-06T23:18:04+00:00","ended":false,"distanceKm":27},{"id":"trk-12","threatClass":"drone","points":[{"lat":45.4324,"lon":37.8219,"time":"2026-07-06T21:43:32+00:00","location":"Славянский район","status":"approaching","count":null},{"lat":44.5672,"lon":33.4159,"time":"2026-07-06T23:09:01+00:00","location":"Бухта Казачья","status":"unknown","count":null}],"firstSeen":"2026-07-06T21:43:32+00:00","lastSeen":"2026-07-06T23:09:01+00:00","ended":false,"distanceKm":359},{"id":"trk-13","threatClass":"drone","points":[{"lat":53.0355,"lon":37.0551,"time":"2026-07-06T22:00:19+00:00","location":"Новосильский район","status":"approaching","count":null},{"lat":52.9042,"lon":36.6906,"time":"2026-07-06T22:00:19+00:00","location":"Залегощенский район","status":"approaching","count":null},{"lat":52.0929,"lon":37.4888,"time":"2026-07-06T22:00:19+00:00","location":"Должанский район","status":"approaching","count":null},{"lat":52.606,"lon":38.9206,"time":"2026-07-06T23:22:28+00:00","location":"Задонский район","status":"approaching","count":null}],"firstSeen":"2026-07-06T22:00:19+00:00","lastSeen":"2026-07-06T23:22:28+00:00","ended":false,"distanceKm":246},{"id":"trk-14","threatClass":"drone","points":[{"lat":52.858,"lon":35.1026,"time":"2026-07-06T22:00:19+00:00","location":"Шаблыкинский район","status":"approaching","count":null},{"lat":52.9729,"lon":35.452,"time":"2026-07-06T22:00:19+00:00","location":"Хотынецкий район","status":"approaching","count":null},{"lat":53.8089,"lon":34.8495,"time":"2026-07-06T22:01:00+00:00","location":"Жиздринский район","status":"approaching","count":null},{"lat":54.1226,"lon":36.3581,"time":"2026-07-06T23:13:08+00:00","location":"Суворовский район","status":"approaching","count":null}],"firstSeen":"2026-07-06T22:00:19+00:00","lastSeen":"2026-07-06T23:13:08+00:00","ended":false,"distanceKm":233},{"id":"trk-15","threatClass":"drone","points":[{"lat":53.6046,"lon":32.6902,"time":"2026-07-06T22:03:30+00:00","location":"Ершичский район","status":"approaching","count":null},{"lat":53.4025,"lon":37.0331,"time":"2026-07-06T23:13:08+00:00","location":"Ленинский район","status":"approaching","count":null},{"lat":54.0576,"lon":38.3597,"time":"2026-07-06T23:13:08+00:00","location":"Новомосковский район","status":"approaching","count":null}],"firstSeen":"2026-07-06T22:03:30+00:00","lastSeen":"2026-07-06T23:13:08+00:00","ended":false,"distanceKm":402},{"id":"trk-16","threatClass":"drone","points":[{"lat":54.5293,"lon":36.2754,"time":"2026-07-06T22:51:23+00:00","location":"Калуга","status":"approaching","count":null},{"lat":54.5028,"lon":37.0667,"time":"2026-07-06T23:02:32+00:00","location":"Алексин","status":"overhead","count":null},{"lat":54.0221,"lon":37.8625,"time":"2026-07-06T23:13:08+00:00","location":"Киреевский район","status":"approaching","count":null},{"lat":53.5985,"lon":37.8191,"time":"2026-07-06T23:13:08+00:00","location":"Тепло-Огаревский район","status":"approaching","count":null},{"lat":53.2413,"lon":37.7558,"time":"2026-07-06T23:13:08+00:00","location":"Каменский район","status":"approaching","count":null},{"lat":52.9857,"lon":35.9383,"time":"2026-07-06T23:40:51+00:00","location":"Орловский район","status":"approaching","count":2}],"firstSeen":"2026-07-06T22:51:23+00:00","lastSeen":"2026-07-06T23:40:51+00:00","ended":false,"distanceKm":337},{"id":"trk-17","threatClass":"drone","points":[{"lat":57.6555,"lon":39.9425,"time":"2026-07-06T22:22:57+00:00","location":"Много.","status":"approaching","count":null},{"lat":55.5784,"lon":39.5438,"time":"2026-07-06T23:09:09+00:00","location":"Шатура","status":"approaching","count":null}],"firstSeen":"2026-07-06T22:22:57+00:00","lastSeen":"2026-07-06T23:09:09+00:00","ended":false,"distanceKm":232},{"id":"trk-18","threatClass":"drone","points":[{"lat":51.5384,"lon":46.0063,"time":"2026-07-06T23:06:41+00:00","location":"Саратовский район","status":"approaching","count":2},{"lat":53.1353,"lon":44.2759,"time":"2026-07-06T23:38:32+00:00","location":"Каменский район","status":"approaching","count":null}],"firstSeen":"2026-07-06T23:06:41+00:00","lastSeen":"2026-07-06T23:38:32+00:00","ended":false,"distanceKm":213},{"id":"trk-20","threatClass":"drone","points":[{"lat":54.0705,"lon":34.2991,"time":"2026-07-06T23:14:53+00:00","location":"Кировский район","status":"approaching","count":null},{"lat":53.8089,"lon":34.8495,"time":"2026-07-06T23:14:53+00:00","location":"Жиздринский район","status":"approaching","count":null},{"lat":54.2141,"lon":35.3921,"time":"2026-07-06T23:14:53+00:00","location":"Мещовский район","status":"approaching","count":null},{"lat":54.7905,"lon":34.3736,"time":"2026-07-06T23:15:47+00:00","location":"Угранский район","status":"approaching","count":null},{"lat":55.1964,"lon":34.3311,"time":"2026-07-06T23:15:47+00:00","location":"Вяземский район","status":"approaching","count":null}],"firstSeen":"2026-07-06T23:14:53+00:00","lastSeen":"2026-07-06T23:15:47+00:00","ended":false,"distanceKm":241}],"updatedAt":"2026-07-06T23:46:33.511Z"}