{"tracks":[{"id":"trk-1","threatClass":"drone","points":[{"lat":53.1721,"lon":34.358,"time":"2026-07-10T06:27:13+00:00","location":"Свень-Транспортная","status":"unknown","count":null},{"lat":53.3065,"lon":34.3676,"time":"2026-07-10T06:42:06+00:00","location":"Радица-Крыловка","status":"approaching","count":null}],"firstSeen":"2026-07-10T06:27:13+00:00","lastSeen":"2026-07-10T06:42:06+00:00","ended":false,"distanceKm":15},{"id":"trk-5","threatClass":"drone","points":[{"lat":52.2257,"lon":37.0362,"time":"2026-07-10T06:50:02+00:00","location":"Колпна","status":"approaching","count":null},{"lat":52.4254,"lon":37.6089,"time":"2026-07-10T06:50:02+00:00","location":"Ливны","status":"approaching","count":null}],"firstSeen":"2026-07-10T06:50:02+00:00","lastSeen":"2026-07-10T06:50:02+00:00","ended":false,"distanceKm":45},{"id":"trk-9","threatClass":"drone","points":[{"lat":52.7494,"lon":32.2356,"time":"2026-07-10T16:50:29+00:00","location":"Клинцы","status":"approaching","count":null},{"lat":52.5543,"lon":33.2637,"time":"2026-07-10T16:50:29+00:00","location":"Погар","status":"approaching","count":null}],"firstSeen":"2026-07-10T16:50:29+00:00","lastSeen":"2026-07-10T16:50:29+00:00","ended":false,"distanceKm":73}],"updatedAt":"2026-07-10T17:17:36.237Z"}