{"tracks":[{"id":"trk-6","threatClass":"drone","points":[{"lat":53.5651,"lon":34.7033,"time":"2026-07-10T22:08:13+00:00","location":"Овсорок","status":"unknown","count":null},{"lat":51.7001,"lon":35.8415,"time":"2026-07-10T22:09:48+00:00","location":"Большое Долженково","status":"approaching","count":4}],"firstSeen":"2026-07-10T22:08:13+00:00","lastSeen":"2026-07-10T22:09:48+00:00","ended":false,"distanceKm":221},{"id":"trk-8","threatClass":"drone","points":[{"lat":53.2077,"lon":34.6634,"time":"2026-07-10T22:10:39+00:00","location":"Белые Берега","status":"unknown","count":null},{"lat":53.1203,"lon":35.3921,"time":"2026-07-10T22:26:57+00:00","location":"Хотынец","status":"unknown","count":null}],"firstSeen":"2026-07-10T22:10:39+00:00","lastSeen":"2026-07-10T22:26:57+00:00","ended":false,"distanceKm":50},{"id":"trk-12","threatClass":"drone","points":[{"lat":47.2362,"lon":38.8969,"time":"2026-07-11T00:12:02+00:00","location":"Таганрог","status":"approaching","count":null},{"lat":46.8996,"lon":39.2767,"time":"2026-07-11T00:12:32+00:00","location":"Азовский район","status":"overhead","count":null}],"firstSeen":"2026-07-11T00:12:02+00:00","lastSeen":"2026-07-11T00:12:32+00:00","ended":false,"distanceKm":47}],"updatedAt":"2026-07-11T08:55:11.756Z"}