{"tracks":[{"id":"trk-6","threatClass":"drone","points":[{"lat":48.0448,"lon":37.9635,"time":"2026-07-22T16:34:53+00:00","location":"Макеевка","status":"unknown","count":null},{"lat":48.0162,"lon":37.8095,"time":"2026-07-22T16:34:53+00:00","location":"ДНР","status":"unknown","count":null}],"firstSeen":"2026-07-22T16:34:53+00:00","lastSeen":"2026-07-22T16:34:53+00:00","ended":false,"distanceKm":12},{"id":"trk-13","threatClass":"drone","points":[{"lat":45.0741,"lon":33.8246,"time":"2026-07-22T20:19:34+00:00","location":"Скворцово","status":"unknown","count":null},{"lat":45.1191,"lon":35.4816,"time":"2026-07-22T20:21:01+00:00","location":"Приморский","status":"approaching","count":null}],"firstSeen":"2026-07-22T20:19:34+00:00","lastSeen":"2026-07-22T20:21:01+00:00","ended":false,"distanceKm":130},{"id":"trk-16","threatClass":"drone","points":[{"lat":52.6765,"lon":36.2816,"time":"2026-07-22T21:07:57+00:00","location":"Свердловский район","status":"approaching","count":null},{"lat":51.2136,"lon":39.0706,"time":"2026-07-22T21:08:41+00:00","location":"Острогожский район","status":"approaching","count":null},{"lat":50.4092,"lon":41.0154,"time":"2026-07-22T21:08:41+00:00","location":"Калачеевский район","status":"approaching","count":null}],"firstSeen":"2026-07-22T21:07:57+00:00","lastSeen":"2026-07-22T21:08:41+00:00","ended":false,"distanceKm":414},{"id":"trk-17","threatClass":"drone","points":[{"lat":52.9729,"lon":35.452,"time":"2026-07-22T21:09:12+00:00","location":"Хотынецкий район","status":"approaching","count":null},{"lat":52.858,"lon":35.1026,"time":"2026-07-22T21:44:35+00:00","location":"Шаблыкинский район","status":"approaching","count":2}],"firstSeen":"2026-07-22T21:09:12+00:00","lastSeen":"2026-07-22T21:44:35+00:00","ended":false,"distanceKm":27},{"id":"trk-18","threatClass":"drone","points":[{"lat":52.7427,"lon":35.3809,"time":"2026-07-22T21:09:12+00:00","location":"Сосковский район","status":"approaching","count":null},{"lat":52.9729,"lon":35.452,"time":"2026-07-22T21:43:57+00:00","location":"Хотынецкий район","status":"approaching","count":4},{"lat":53.7236,"lon":35.5324,"time":"2026-07-22T21:45:40+00:00","location":"Ульяновский район","status":"approaching","count":null}],"firstSeen":"2026-07-22T21:09:12+00:00","lastSeen":"2026-07-22T21:45:40+00:00","ended":false,"distanceKm":110},{"id":"trk-19","threatClass":"drone","points":[{"lat":51.5067,"lon":36.6574,"time":"2026-07-22T21:10:57+00:00","location":"Шумаково","status":"approaching","count":null},{"lat":51.2852,"lon":37.1665,"time":"2026-07-22T21:12:20+00:00","location":"Архангельское","status":"approaching","count":null},{"lat":50.3506,"lon":39.6208,"time":"2026-07-22T21:13:56+00:00","location":"Суд-Николаевка","status":"approaching","count":null}],"firstSeen":"2026-07-22T21:10:57+00:00","lastSeen":"2026-07-22T21:13:56+00:00","ended":false,"distanceKm":244},{"id":"trk-23","threatClass":"drone","points":[{"lat":50.6341,"lon":39.8513,"time":"2026-07-22T21:25:13+00:00","location":"Колодежное","status":"approaching","count":null},{"lat":50.9874,"lon":39.4778,"time":"2026-07-22T21:44:46+00:00","location":"Лиски","status":"approaching","count":null}],"firstSeen":"2026-07-22T21:25:13+00:00","lastSeen":"2026-07-22T21:44:46+00:00","ended":false,"distanceKm":47},{"id":"trk-30","threatClass":"drone","points":[{"lat":50.3476,"lon":39.4458,"time":"2026-07-22T21:39:44+00:00","location":"Россошанский район","status":"approaching","count":5},{"lat":49.8881,"lon":40.2257,"time":"2026-07-22T21:40:33+00:00","location":"Богучарский район","status":"approaching","count":null}],"firstSeen":"2026-07-22T21:39:44+00:00","lastSeen":"2026-07-22T21:40:33+00:00","ended":false,"distanceKm":76},{"id":"trk-31","threatClass":"drone","points":[{"lat":50.5089,"lon":39.6692,"time":"2026-07-22T21:40:33+00:00","location":"Подгоренский район","status":"approaching","count":null},{"lat":50.4605,"lon":39.3894,"time":"2026-07-22T21:40:51+00:00","location":"Ольховатский район","status":"approaching","count":3}],"firstSeen":"2026-07-22T21:40:33+00:00","lastSeen":"2026-07-22T21:40:51+00:00","ended":false,"distanceKm":21},{"id":"trk-33","threatClass":"drone","points":[{"lat":51.2136,"lon":39.0706,"time":"2026-07-22T21:42:51+00:00","location":"Острогожский район","status":"approaching","count":null},{"lat":51.6465,"lon":38.8104,"time":"2026-07-22T21:42:51+00:00","location":"Семилукский район","status":"approaching","count":null},{"lat":52.07,"lon":37.9598,"time":"2026-07-22T21:43:05+00:00","location":"Воловский район","status":"approaching","count":null},{"lat":52.5715,"lon":36.8974,"time":"2026-07-22T21:43:33+00:00","location":"Покровский район","status":"approaching","count":null},{"lat":52.6765,"lon":36.2816,"time":"2026-07-22T21:43:33+00:00","location":"Свердловский район","status":"approaching","count":null}],"firstSeen":"2026-07-22T21:42:51+00:00","lastSeen":"2026-07-22T21:43:33+00:00","ended":false,"distanceKm":261}],"updatedAt":"2026-07-22T21:54:02.056Z"}