{"tracks":[{"id":"trk-3","threatClass":"drone","points":[{"lat":54.6746,"lon":39.6721,"time":"2026-07-17T15:07:27+00:00","location":"Спасский район","status":"approaching","count":null},{"lat":53.2075,"lon":40.3696,"time":"2026-07-17T15:08:07+00:00","location":"Первомайский район","status":"approaching","count":null}],"firstSeen":"2026-07-17T15:07:27+00:00","lastSeen":"2026-07-17T15:08:07+00:00","ended":false,"distanceKm":169},{"id":"trk-4","threatClass":"drone","points":[{"lat":53.5068,"lon":41.7004,"time":"2026-07-17T15:08:07+00:00","location":"Моршанский район","status":"approaching","count":null},{"lat":53.1877,"lon":41.3576,"time":"2026-07-17T15:08:07+00:00","location":"Сосновский район","status":"approaching","count":null}],"firstSeen":"2026-07-17T15:08:07+00:00","lastSeen":"2026-07-17T15:08:07+00:00","ended":false,"distanceKm":42},{"id":"trk-6","threatClass":"drone","points":[{"lat":52.5401,"lon":39.766,"time":"2026-07-17T16:38:34+00:00","location":"Грязинский район","status":"approaching","count":null},{"lat":54.6746,"lon":39.6721,"time":"2026-07-17T16:38:58+00:00","location":"Спасский район","status":"approaching","count":null}],"firstSeen":"2026-07-17T16:38:34+00:00","lastSeen":"2026-07-17T16:38:58+00:00","ended":false,"distanceKm":237},{"id":"trk-8","threatClass":"drone","points":[{"lat":52.6031,"lon":39.5708,"time":"2026-07-17T16:50:08+00:00","location":"Липецк","status":"approaching","count":null},{"lat":52.3424,"lon":39.7006,"time":"2026-07-17T16:50:08+00:00","location":"Усманский район","status":"approaching","count":null}],"firstSeen":"2026-07-17T16:50:08+00:00","lastSeen":"2026-07-17T16:50:08+00:00","ended":false,"distanceKm":30},{"id":"trk-10","threatClass":"drone","points":[{"lat":52.7427,"lon":35.3809,"time":"2026-07-17T19:03:36+00:00","location":"Сосковский район","status":"approaching","count":2},{"lat":53.4361,"lon":35.988,"time":"2026-07-17T19:50:10+00:00","location":"Болховский район","status":"approaching","count":null},{"lat":53.8907,"lon":37.3865,"time":"2026-07-17T21:07:41+00:00","location":"Щекинский район","status":"overhead","count":null},{"lat":53.909,"lon":38.1445,"time":"2026-07-17T21:19:30+00:00","location":"Узловский район","status":"approaching","count":null},{"lat":52.946,"lon":40.2703,"time":"2026-07-17T22:11:44+00:00","location":"Мичуринский район","status":"approaching","count":null}],"firstSeen":"2026-07-17T19:03:36+00:00","lastSeen":"2026-07-17T22:11:44+00:00","ended":false,"distanceKm":419},{"id":"trk-11","threatClass":"drone","points":[{"lat":50.3476,"lon":39.4458,"time":"2026-07-17T19:05:57+00:00","location":"Россошанский район","status":"approaching","count":2},{"lat":50.4605,"lon":39.3894,"time":"2026-07-17T20:13:50+00:00","location":"Ольховатский район","status":"approaching","count":null},{"lat":51.2136,"lon":39.0706,"time":"2026-07-17T20:13:50+00:00","location":"Острогожский район","status":"approaching","count":null}],"firstSeen":"2026-07-17T19:05:57+00:00","lastSeen":"2026-07-17T20:13:50+00:00","ended":false,"distanceKm":100},{"id":"trk-12","threatClass":"drone","points":[{"lat":52.858,"lon":35.1026,"time":"2026-07-17T19:06:35+00:00","location":"Шаблыкинский район","status":"approaching","count":2},{"lat":52.5157,"lon":35.2526,"time":"2026-07-17T19:50:10+00:00","location":"Дмитровский район","status":"approaching","count":null},{"lat":52.4316,"lon":35.6043,"time":"2026-07-17T20:40:20+00:00","location":"Орловская область","status":"approaching","count":null},{"lat":52.6765,"lon":36.2816,"time":"2026-07-17T21:22:50+00:00","location":"Свердловский район","status":"approaching","count":null},{"lat":52.5401,"lon":39.766,"time":"2026-07-17T22:12:43+00:00","location":"Грязинский район","status":"approaching","count":null}],"firstSeen":"2026-07-17T19:06:35+00:00","lastSeen":"2026-07-17T22:12:43+00:00","ended":false,"distanceKm":354},{"id":"trk-13","threatClass":"drone","points":[{"lat":50.6688,"lon":38.8746,"time":"2026-07-17T19:17:55+00:00","location":"Мухоудеровка","status":"unknown","count":null},{"lat":50.1519,"lon":38.4453,"time":"2026-07-17T19:32:45+00:00","location":"Вейделевка","status":"approaching","count":null}],"firstSeen":"2026-07-17T19:17:55+00:00","lastSeen":"2026-07-17T19:32:45+00:00","ended":false,"distanceKm":65},{"id":"trk-14","threatClass":"drone","points":[{"lat":50.9874,"lon":39.4778,"time":"2026-07-17T19:22:40+00:00","location":"Лиски","status":"approaching","count":null},{"lat":51.6608,"lon":39.2003,"time":"2026-07-17T19:22:40+00:00","location":"Воронеж","status":"approaching","count":null},{"lat":51.847,"lon":38.4436,"time":"2026-07-17T19:44:43+00:00","location":"Каменка","status":"approaching","count":null}],"firstSeen":"2026-07-17T19:22:40+00:00","lastSeen":"2026-07-17T19:44:43+00:00","ended":false,"distanceKm":133},{"id":"trk-15","threatClass":"drone","points":[{"lat":51.0966,"lon":40.0423,"time":"2026-07-17T19:22:40+00:00","location":"Бобров","status":"approaching","count":null},{"lat":50.7893,"lon":38.9549,"time":"2026-07-17T19:51:57+00:00","location":"Новая Осиновка","status":"approaching","count":null},{"lat":50.9432,"lon":37.7316,"time":"2026-07-17T20:43:30+00:00","location":"Русская Халань","status":"unknown","count":null}],"firstSeen":"2026-07-17T19:22:40+00:00","lastSeen":"2026-07-17T20:43:30+00:00","ended":false,"distanceKm":171},{"id":"trk-16","threatClass":"drone","points":[{"lat":45.4324,"lon":37.8219,"time":"2026-07-17T19:37:11+00:00","location":"Славянский район","status":"approaching","count":null},{"lat":45.2643,"lon":37.2941,"time":"2026-07-17T19:37:11+00:00","location":"Темрюкский район","status":"approaching","count":null}],"firstSeen":"2026-07-17T19:37:11+00:00","lastSeen":"2026-07-17T19:37:11+00:00","ended":false,"distanceKm":45},{"id":"trk-17","threatClass":"drone","points":[{"lat":45.0703,"lon":37.7553,"time":"2026-07-17T19:37:11+00:00","location":"Анапский район","status":"approaching","count":null},{"lat":44.8857,"lon":38.0857,"time":"2026-07-17T19:37:11+00:00","location":"Крымский район","status":"approaching","count":null},{"lat":45.0858,"lon":39.8567,"time":"2026-07-17T20:19:50+00:00","location":"Республика Адыгея","status":"unknown","count":null}],"firstSeen":"2026-07-17T19:37:11+00:00","lastSeen":"2026-07-17T20:19:50+00:00","ended":false,"distanceKm":174},{"id":"trk-20","threatClass":"drone","points":[{"lat":51.2136,"lon":39.0706,"time":"2026-07-17T19:51:57+00:00","location":"Острогожский район","status":"approaching","count":null},{"lat":51.9063,"lon":35.3043,"time":"2026-07-17T19:52:51+00:00","location":"Конышевский район","status":"approaching","count":null}],"firstSeen":"2026-07-17T19:51:57+00:00","lastSeen":"2026-07-17T19:52:51+00:00","ended":false,"distanceKm":271},{"id":"trk-21","threatClass":"drone","points":[{"lat":52.1408,"lon":34.9845,"time":"2026-07-17T19:52:51+00:00","location":"Дмитриевский район","status":"approaching","count":null},{"lat":52.2326,"lon":35.4575,"time":"2026-07-17T19:52:51+00:00","location":"Железногорский район","status":"approaching","count":null}],"firstSeen":"2026-07-17T19:52:51+00:00","lastSeen":"2026-07-17T19:52:51+00:00","ended":false,"distanceKm":34},{"id":"trk-22","threatClass":"drone","points":[{"lat":50.7961,"lon":40.6019,"time":"2026-07-17T19:53:55+00:00","location":"Бутурлиновка","status":"unknown","count":null},{"lat":51.5379,"lon":40.492,"time":"2026-07-17T21:00:10+00:00","location":"Садовое Аннинский район","status":"approaching","count":10},{"lat":51.7462,"lon":40.2028,"time":"2026-07-17T21:25:41+00:00","location":"Красное","status":"approaching","count":5}],"firstSeen":"2026-07-17T19:53:55+00:00","lastSeen":"2026-07-17T21:25:41+00:00","ended":false,"distanceKm":113},{"id":"trk-23","threatClass":"drone","points":[{"lat":50.0802,"lon":38.5853,"time":"2026-07-17T19:56:11+00:00","location":"Олейники","status":"approaching","count":null},{"lat":50.15,"lon":38.8376,"time":"2026-07-17T20:07:51+00:00","location":"Ровны","status":"approaching","count":null},{"lat":50.7249,"lon":39.0293,"time":"2026-07-17T20:24:51+00:00","location":"Дальняя Полубянка","status":"unknown","count":null}],"firstSeen":"2026-07-17T19:56:11+00:00","lastSeen":"2026-07-17T20:24:51+00:00","ended":false,"distanceKm":85},{"id":"trk-24","threatClass":"drone","points":[{"lat":52.7501,"lon":32.8824,"time":"2026-07-17T19:56:25+00:00","location":"Рохманово","status":"unknown","count":null},{"lat":52.8314,"lon":32.8245,"time":"2026-07-17T19:56:25+00:00","location":"Унечский район","status":"unknown","count":null}],"firstSeen":"2026-07-17T19:56:25+00:00","lastSeen":"2026-07-17T19:56:25+00:00","ended":false,"distanceKm":10},{"id":"trk-25","threatClass":"drone","points":[{"lat":50.4666,"lon":38.9654,"time":"2026-07-17T19:58:15+00:00","location":"Бабичев","status":"approaching","count":null},{"lat":48.5235,"lon":39.2864,"time":"2026-07-17T20:00:14+00:00","location":"ЛНР","status":"approaching","count":null},{"lat":48.1146,"lon":39.1188,"time":"2026-07-17T20:10:29+00:00","location":"Ровеньский район","status":"approaching","count":null}],"firstSeen":"2026-07-17T19:58:15+00:00","lastSeen":"2026-07-17T20:10:29+00:00","ended":false,"distanceKm":264},{"id":"trk-27","threatClass":"drone","points":[{"lat":49.7972,"lon":39.7513,"time":"2026-07-17T20:00:36+00:00","location":"Кантемировский район","status":"approaching","count":null},{"lat":50.5089,"lon":39.6692,"time":"2026-07-17T20:00:36+00:00","location":"Подгоренский район","status":"approaching","count":null},{"lat":51.0588,"lon":40.1363,"time":"2026-07-17T20:14:53+00:00","location":"Бобровский район","status":"approaching","count":null}],"firstSeen":"2026-07-17T20:00:36+00:00","lastSeen":"2026-07-17T20:14:53+00:00","ended":false,"distanceKm":149},{"id":"trk-28","threatClass":"drone","points":[{"lat":49.5896,"lon":40.5547,"time":"2026-07-17T20:10:41+00:00","location":"Чертковский район","status":"approaching","count":null},{"lat":49.7972,"lon":39.7513,"time":"2026-07-17T20:11:33+00:00","location":"Кантемировский район","status":"approaching","count":5},{"lat":50.3476,"lon":39.4458,"time":"2026-07-17T20:48:27+00:00","location":"Россошанский район","status":"approaching","count":null},{"lat":51.0539,"lon":38.9461,"time":"2026-07-17T21:17:14+00:00","location":"Репьёвский район","status":"approaching","count":null}],"firstSeen":"2026-07-17T20:10:41+00:00","lastSeen":"2026-07-17T21:17:14+00:00","ended":false,"distanceKm":213},{"id":"trk-29","threatClass":"drone","points":[{"lat":49.7991,"lon":41.2631,"time":"2026-07-17T20:10:41+00:00","location":"Верхнедонской район","status":"approaching","count":null},{"lat":50.792,"lon":40.5643,"time":"2026-07-17T20:48:27+00:00","location":"Бутурлиновский район","status":"approaching","count":null},{"lat":51.6156,"lon":38.983,"time":"2026-07-17T21:17:14+00:00","location":"Хохольский район","status":"approaching","count":null}],"firstSeen":"2026-07-17T20:10:41+00:00","lastSeen":"2026-07-17T21:17:14+00:00","ended":false,"distanceKm":264},{"id":"trk-30","threatClass":"drone","points":[{"lat":50.3476,"lon":39.4458,"time":"2026-07-17T20:13:50+00:00","location":"Россошанский район","status":"approaching","count":null},{"lat":51.1725,"lon":39.7173,"time":"2026-07-17T20:14:53+00:00","location":"Лискинский район","status":"approaching","count":null}],"firstSeen":"2026-07-17T20:13:50+00:00","lastSeen":"2026-07-17T20:14:53+00:00","ended":false,"distanceKm":94},{"id":"trk-32","threatClass":"drone","points":[{"lat":53.5985,"lon":37.8191,"time":"2026-07-17T20:20:40+00:00","location":"Тепло-Огаревский район","status":"approaching","count":null},{"lat":53.4518,"lon":36.822,"time":"2026-07-17T20:20:40+00:00","location":"Чернский район","status":"approaching","count":null},{"lat":53.4361,"lon":35.988,"time":"2026-07-17T20:22:20+00:00","location":"Болховский район","status":"approaching","count":2}],"firstSeen":"2026-07-17T20:20:40+00:00","lastSeen":"2026-07-17T20:22:20+00:00","ended":false,"distanceKm":123},{"id":"trk-33","threatClass":"drone","points":[{"lat":52.1499,"lon":35.3562,"time":"2026-07-17T20:22:46+00:00","location":"Карманово","status":"approaching","count":null},{"lat":52.854,"lon":35.1952,"time":"2026-07-17T20:55:10+00:00","location":"Шаблыкино","status":"unknown","count":null},{"lat":53.1003,"lon":35.1787,"time":"2026-07-17T21:09:22+00:00","location":"Алымова","status":"approaching","count":null},{"lat":53.1777,"lon":34.6709,"time":"2026-07-17T21:09:22+00:00","location":"Карачевский район","status":"approaching","count":null}],"firstSeen":"2026-07-17T20:22:46+00:00","lastSeen":"2026-07-17T21:09:22+00:00","ended":false,"distanceKm":141},{"id":"trk-34","threatClass":"drone","points":[{"lat":50.9437,"lon":39.9984,"time":"2026-07-17T20:23:43+00:00","location":"Пчелиновка","status":"unknown","count":null},{"lat":52.0372,"lon":40.5532,"time":"2026-07-17T21:03:14+00:00","location":"Талицкий Чамлык","status":"approaching","count":null},{"lat":52.3738,"lon":41.2251,"time":"2026-07-17T21:57:33+00:00","location":"Дуплято-Маслово","status":"approaching","count":null}],"firstSeen":"2026-07-17T20:23:43+00:00","lastSeen":"2026-07-17T21:57:33+00:00","ended":false,"distanceKm":187},{"id":"trk-35","threatClass":"drone","points":[{"lat":50.4036,"lon":39.6388,"time":"2026-07-17T20:57:12+00:00","location":"Подгоренский","status":"approaching","count":3},{"lat":50.914,"lon":40.0942,"time":"2026-07-17T21:14:09+00:00","location":"Мечётка","status":"unknown","count":null},{"lat":51.0588,"lon":40.1363,"time":"2026-07-17T21:14:09+00:00","location":"Бобровский район","status":"unknown","count":null},{"lat":51.4892,"lon":41.463,"time":"2026-07-17T22:01:45+00:00","location":"Новогольское","status":"approaching","count":null},{"lat":51.9132,"lon":41.9415,"time":"2026-07-17T22:40:13+00:00","location":"Репное","status":"approaching","count":null},{"lat":51.9035,"lon":42.1404,"time":"2026-07-17T22:49:08+00:00","location":"Уваровский район","status":"approaching","count":null}],"firstSeen":"2026-07-17T20:57:12+00:00","lastSeen":"2026-07-17T22:49:08+00:00","ended":false,"distanceKm":257},{"id":"trk-37","threatClass":"drone","points":[{"lat":51.1594,"lon":39.4224,"time":"2026-07-17T20:31:16+00:00","location":"Давыдовка","status":"approaching","count":null},{"lat":51.4653,"lon":40.1314,"time":"2026-07-17T21:00:10+00:00","location":"Аннинский район","status":"approaching","count":null},{"lat":51.1008,"lon":41.6309,"time":"2026-07-17T21:00:44+00:00","location":"Новохоперск","status":"approaching","count":null},{"lat":51.3664,"lon":42.0867,"time":"2026-07-17T21:47:40+00:00","location":"Борисоглебск","status":"approaching","count":null}],"firstSeen":"2026-07-17T20:31:16+00:00","lastSeen":"2026-07-17T21:47:40+00:00","ended":false,"distanceKm":215},{"id":"trk-38","threatClass":"drone","points":[{"lat":50.2778,"lon":39.3029,"time":"2026-07-17T20:35:32+00:00","location":"Ольховатка","status":"approaching","count":null},{"lat":50.6688,"lon":38.8746,"time":"2026-07-17T21:12:36+00:00","location":"Мухоудеровка","status":"approaching","count":null},{"lat":50.6299,"lon":38.6867,"time":"2026-07-17T21:15:53+00:00","location":"Алексеевка","status":"approaching","count":null}],"firstSeen":"2026-07-17T20:35:32+00:00","lastSeen":"2026-07-17T21:15:53+00:00","ended":false,"distanceKm":67},{"id":"trk-39","threatClass":"drone","points":[{"lat":52.2208,"lon":39.9277,"time":"2026-07-17T20:45:40+00:00","location":"Бреславка","status":"approaching","count":null},{"lat":52.3424,"lon":39.7006,"time":"2026-07-17T20:49:43+00:00","location":"Усманский район","status":"approaching","count":null},{"lat":52.6031,"lon":39.5708,"time":"2026-07-17T21:06:12+00:00","location":"Липецк","status":"unknown","count":null}],"firstSeen":"2026-07-17T20:45:40+00:00","lastSeen":"2026-07-17T21:06:12+00:00","ended":false,"distanceKm":51},{"id":"trk-40","threatClass":"drone","points":[{"lat":50.2296,"lon":40.4459,"time":"2026-07-17T20:48:27+00:00","location":"Верхнемамонский район","status":"approaching","count":null},{"lat":50.0765,"lon":41.0384,"time":"2026-07-17T20:48:27+00:00","location":"Петропавловский район","status":"approaching","count":null},{"lat":49.856,"lon":42.447,"time":"2026-07-17T21:11:34+00:00","location":"Кумылженский район","status":"approaching","count":null},{"lat":49.4953,"lon":42.7518,"time":"2026-07-17T21:11:34+00:00","location":"Серафимовичский район","status":"approaching","count":null}],"firstSeen":"2026-07-17T20:48:27+00:00","lastSeen":"2026-07-17T21:11:34+00:00","ended":false,"distanceKm":195},{"id":"trk-41","threatClass":"drone","points":[{"lat":49.8881,"lon":40.2257,"time":"2026-07-17T20:48:27+00:00","location":"Богучарский район","status":"approaching","count":null},{"lat":50.4092,"lon":41.0154,"time":"2026-07-17T21:18:12+00:00","location":"Калачеевский район","status":"approaching","count":null},{"lat":51.0829,"lon":41.5756,"time":"2026-07-17T21:57:04+00:00","location":"Новохопёрский","status":"approaching","count":null},{"lat":51.4879,"lon":41.4836,"time":"2026-07-17T22:10:19+00:00","location":"Грибановский район","status":"approaching","count":null},{"lat":51.9035,"lon":42.1404,"time":"2026-07-17T22:11:44+00:00","location":"Уваровский район","status":"approaching","count":null}],"firstSeen":"2026-07-17T20:48:27+00:00","lastSeen":"2026-07-17T22:11:44+00:00","ended":false,"distanceKm":276},{"id":"trk-42","threatClass":"drone","points":[{"lat":52.1285,"lon":39.5368,"time":"2026-07-17T20:49:43+00:00","location":"Поддубровка","status":"approaching","count":null},{"lat":51.0824,"lon":39.2262,"time":"2026-07-17T21:41:32+00:00","location":"Троицкое","status":"approaching","count":3}],"firstSeen":"2026-07-17T20:49:43+00:00","lastSeen":"2026-07-17T21:41:32+00:00","ended":false,"distanceKm":118},{"id":"trk-43","threatClass":"drone","points":[{"lat":53.9435,"lon":36.7279,"time":"2026-07-17T20:52:00+00:00","location":"Одоевский район","status":"approaching","count":null},{"lat":53.1203,"lon":35.3921,"time":"2026-07-17T21:19:43+00:00","location":"Хотынец","status":"approaching","count":null},{"lat":52.3161,"lon":34.0759,"time":"2026-07-17T22:11:58+00:00","location":"Суземка","status":"unknown","count":null}],"firstSeen":"2026-07-17T20:52:00+00:00","lastSeen":"2026-07-17T22:11:58+00:00","ended":false,"distanceKm":253},{"id":"trk-45","threatClass":"drone","points":[{"lat":52.8917,"lon":40.5031,"time":"2026-07-17T21:06:12+00:00","location":"Мичуринск","status":"unknown","count":null},{"lat":52.8785,"lon":40.7929,"time":"2026-07-17T21:06:12+00:00","location":"Дмитриевка","status":"unknown","count":null}],"firstSeen":"2026-07-17T21:06:12+00:00","lastSeen":"2026-07-17T21:06:12+00:00","ended":false,"distanceKm":19},{"id":"trk-46","threatClass":"drone","points":[{"lat":52.3797,"lon":41.2862,"time":"2026-07-17T21:12:16+00:00","location":"Знаменский район","status":"approaching","count":null},{"lat":52.1698,"lon":40.8367,"time":"2026-07-17T21:13:01+00:00","location":"Мордовский район","status":"approaching","count":null},{"lat":52.5401,"lon":39.766,"time":"2026-07-17T21:13:56+00:00","location":"Грязинский район","status":"approaching","count":null}],"firstSeen":"2026-07-17T21:12:16+00:00","lastSeen":"2026-07-17T21:13:56+00:00","ended":false,"distanceKm":122},{"id":"trk-47","threatClass":"drone","points":[{"lat":52.5666,"lon":40.3535,"time":"2026-07-17T21:13:01+00:00","location":"Петровский район","status":"approaching","count":null},{"lat":52.3424,"lon":39.7006,"time":"2026-07-17T21:13:56+00:00","location":"Усманский район","status":"approaching","count":null}],"firstSeen":"2026-07-17T21:13:01+00:00","lastSeen":"2026-07-17T21:13:56+00:00","ended":false,"distanceKm":51},{"id":"trk-48","threatClass":"drone","points":[{"lat":51.1725,"lon":39.7173,"time":"2026-07-17T21:17:14+00:00","location":"Лискинский район","status":"approaching","count":null},{"lat":51.0588,"lon":40.1363,"time":"2026-07-17T21:57:04+00:00","location":"Бобровский район","status":"approaching","count":null}],"firstSeen":"2026-07-17T21:17:14+00:00","lastSeen":"2026-07-17T21:57:04+00:00","ended":false,"distanceKm":32},{"id":"trk-49","threatClass":"drone","points":[{"lat":54.0221,"lon":37.8625,"time":"2026-07-17T21:19:30+00:00","location":"Киреевский район","status":"approaching","count":null},{"lat":53.8907,"lon":37.3865,"time":"2026-07-17T21:19:30+00:00","location":"Щёкинский район","status":"approaching","count":null}],"firstSeen":"2026-07-17T21:19:30+00:00","lastSeen":"2026-07-17T21:19:30+00:00","ended":false,"distanceKm":34},{"id":"trk-50","threatClass":"drone","points":[{"lat":54.4727,"lon":37.091,"time":"2026-07-17T21:21:16+00:00","location":"Алексинский район","status":"approaching","count":null},{"lat":54.7586,"lon":38.8818,"time":"2026-07-17T22:14:50+00:00","location":"Зарайск","status":"approaching","count":null}],"firstSeen":"2026-07-17T21:21:16+00:00","lastSeen":"2026-07-17T22:14:50+00:00","ended":false,"distanceKm":120},{"id":"trk-51","threatClass":"drone","points":[{"lat":51.6608,"lon":39.2003,"time":"2026-07-17T21:21:46+00:00","location":"Воронеж","status":"overhead","count":null},{"lat":51.3664,"lon":42.0867,"time":"2026-07-17T21:22:14+00:00","location":"Борисоглебск","status":"overhead","count":null},{"lat":50.8866,"lon":42.1994,"time":"2026-07-17T22:13:48+00:00","location":"Урюпинский район","status":"approaching","count":null},{"lat":50.3693,"lon":44.8653,"time":"2026-07-17T22:15:42+00:00","location":"Котовский район","status":"approaching","count":null}],"firstSeen":"2026-07-17T21:21:46+00:00","lastSeen":"2026-07-17T22:15:42+00:00","ended":false,"distanceKm":453},{"id":"trk-52","threatClass":"drone","points":[{"lat":53.3413,"lon":35.6035,"time":"2026-07-17T21:23:29+00:00","location":"Знаменский район","status":"approaching","count":null},{"lat":53.4449,"lon":36.0051,"time":"2026-07-17T21:23:29+00:00","location":"Болховской район","status":"approaching","count":null}],"firstSeen":"2026-07-17T21:23:29+00:00","lastSeen":"2026-07-17T21:23:29+00:00","ended":false,"distanceKm":29},{"id":"trk-54","threatClass":"drone","points":[{"lat":54.7586,"lon":38.8818,"time":"2026-07-17T22:18:09+00:00","location":"Зарайск","status":"unknown","count":null},{"lat":53.279,"lon":36.5761,"time":"2026-07-17T23:05:20+00:00","location":"Мценск","status":"approaching","count":null}],"firstSeen":"2026-07-17T22:18:09+00:00","lastSeen":"2026-07-17T23:05:20+00:00","ended":false,"distanceKm":223},{"id":"trk-57","threatClass":"drone","points":[{"lat":52.5094,"lon":35.1457,"time":"2026-07-17T22:22:34+00:00","location":"Дмитровск","status":"unknown","count":null},{"lat":53.1203,"lon":35.3921,"time":"2026-07-17T22:57:37+00:00","location":"Хотынец","status":"unknown","count":null}],"firstSeen":"2026-07-17T22:22:34+00:00","lastSeen":"2026-07-17T22:57:37+00:00","ended":false,"distanceKm":70},{"id":"trk-59","threatClass":"drone","points":[{"lat":55.0939,"lon":38.767,"time":"2026-07-17T22:25:42+00:00","location":"Коломна","status":"approaching","count":null},{"lat":55.422,"lon":38.2591,"time":"2026-07-17T22:38:27+00:00","location":"Бронницы","status":"overhead","count":null},{"lat":55.3843,"lon":36.7235,"time":"2026-07-17T23:02:28+00:00","location":"Наро-Фоминск","status":"approaching","count":null}],"firstSeen":"2026-07-17T22:25:42+00:00","lastSeen":"2026-07-17T23:02:28+00:00","ended":false,"distanceKm":146},{"id":"trk-60","threatClass":"drone","points":[{"lat":54.0221,"lon":37.8625,"time":"2026-07-17T22:30:13+00:00","location":"Киреевский район","status":"approaching","count":null},{"lat":54.8374,"lon":38.1505,"time":"2026-07-17T23:02:28+00:00","location":"Кашира","status":"approaching","count":null}],"firstSeen":"2026-07-17T22:30:13+00:00","lastSeen":"2026-07-17T23:02:28+00:00","ended":false,"distanceKm":93},{"id":"trk-61","threatClass":"drone","points":[{"lat":53.6046,"lon":32.6902,"time":"2026-07-17T22:33:07+00:00","location":"Ершичский район","status":"approaching","count":null},{"lat":53.8994,"lon":32.2079,"time":"2026-07-17T23:10:34+00:00","location":"Шумячский район","status":"approaching","count":null}],"firstSeen":"2026-07-17T22:33:07+00:00","lastSeen":"2026-07-17T23:10:34+00:00","ended":false,"distanceKm":46},{"id":"trk-62","threatClass":"drone","points":[{"lat":47.1139,"lon":38.0831,"time":"2026-07-17T22:35:08+00:00","location":"Новоазовск","status":"approaching","count":null},{"lat":47.0971,"lon":37.5434,"time":"2026-07-17T22:35:08+00:00","location":"Мариуполь","status":"approaching","count":null}],"firstSeen":"2026-07-17T22:35:08+00:00","lastSeen":"2026-07-17T22:35:08+00:00","ended":false,"distanceKm":41},{"id":"trk-64","threatClass":"drone","points":[{"lat":52.9685,"lon":36.0692,"time":"2026-07-17T23:01:13+00:00","location":"Орёл","status":"overhead","count":null},{"lat":54.9155,"lon":37.4196,"time":"2026-07-17T23:02:28+00:00","location":"Серпухов","status":"approaching","count":null}],"firstSeen":"2026-07-17T23:01:13+00:00","lastSeen":"2026-07-17T23:02:28+00:00","ended":false,"distanceKm":234},{"id":"trk-66","threatClass":"drone","points":[{"lat":52.9857,"lon":35.9383,"time":"2026-07-17T23:09:02+00:00","location":"Орловский район","status":"approaching","count":null},{"lat":52.9042,"lon":36.6906,"time":"2026-07-17T23:09:02+00:00","location":"Залегощенский район","status":"approaching","count":null}],"firstSeen":"2026-07-17T23:09:02+00:00","lastSeen":"2026-07-17T23:09:02+00:00","ended":false,"distanceKm":51},{"id":"trk-67","threatClass":"drone","points":[{"lat":52.9729,"lon":35.452,"time":"2026-07-17T23:09:02+00:00","location":"Хотынецкий район","status":"approaching","count":null},{"lat":53.6046,"lon":32.6902,"time":"2026-07-17T23:10:34+00:00","location":"Ершичский район","status":"approaching","count":null}],"firstSeen":"2026-07-17T23:09:02+00:00","lastSeen":"2026-07-17T23:10:34+00:00","ended":false,"distanceKm":197}],"updatedAt":"2026-07-17T23:29:12.837Z"}