{"tracks":[{"id":"trk-4","threatClass":"drone","points":[{"lat":45.2207,"lon":42.18,"time":"2026-07-19T00:21:32+00:00","location":"Дубовка","status":"approaching","count":null},{"lat":45.0451,"lon":41.5668,"time":"2026-07-19T00:21:32+00:00","location":"Шпаковский район","status":"approaching","count":null}],"firstSeen":"2026-07-19T00:21:32+00:00","lastSeen":"2026-07-19T00:21:32+00:00","ended":false,"distanceKm":52},{"id":"trk-5","threatClass":"drone","points":[{"lat":46.7909,"lon":40.4949,"time":"2026-07-19T00:36:45+00:00","location":"Зерноградский район","status":"approaching","count":null},{"lat":47.1442,"lon":40.732,"time":"2026-07-19T00:36:45+00:00","location":"Веселовский район","status":"approaching","count":null}],"firstSeen":"2026-07-19T00:36:45+00:00","lastSeen":"2026-07-19T00:36:45+00:00","ended":false,"distanceKm":43},{"id":"trk-7","threatClass":"drone","points":[{"lat":51.6269,"lon":36.1275,"time":"2026-07-19T06:44:09+00:00","location":"Кукуевка","status":"unknown","count":null},{"lat":51.7209,"lon":36.3538,"time":"2026-07-19T06:44:09+00:00","location":"Долгое","status":"unknown","count":null}],"firstSeen":"2026-07-19T06:44:09+00:00","lastSeen":"2026-07-19T06:44:09+00:00","ended":false,"distanceKm":19},{"id":"trk-8","threatClass":"drone","points":[{"lat":50.211,"lon":38.0997,"time":"2026-07-19T06:44:09+00:00","location":"Валуйского района","status":"unknown","count":null},{"lat":50.9163,"lon":35.4272,"time":"2026-07-19T06:44:31+00:00","location":"Графовка","status":"approaching","count":null}],"firstSeen":"2026-07-19T06:44:09+00:00","lastSeen":"2026-07-19T06:44:31+00:00","ended":false,"distanceKm":204},{"id":"trk-13","threatClass":"drone","points":[{"lat":55.8781,"lon":36.8714,"time":"2026-07-19T09:56:15+00:00","location":"СНТ Садовод","status":"approaching","count":null},{"lat":55.7446,"lon":38.8489,"time":"2026-07-19T10:11:39+00:00","location":"Орехово-Зуевский район","status":"approaching","count":null}],"firstSeen":"2026-07-19T09:56:15+00:00","lastSeen":"2026-07-19T10:11:39+00:00","ended":false,"distanceKm":124},{"id":"trk-14","threatClass":"drone","points":[{"lat":55.8781,"lon":36.8714,"time":"2026-07-19T09:56:48+00:00","location":"СНТ Садовод","status":"approaching","count":null},{"lat":55.7446,"lon":38.8489,"time":"2026-07-19T10:13:54+00:00","location":"Орехово-Зуевский район","status":"approaching","count":null}],"firstSeen":"2026-07-19T09:56:48+00:00","lastSeen":"2026-07-19T10:13:54+00:00","ended":false,"distanceKm":124}],"updatedAt":"2026-07-19T10:53:10.209Z"}