{"tracks":[{"id":"trk-3","threatClass":"drone","points":[{"lat":52.7494,"lon":32.2356,"time":"2026-07-10T16:50:29+00:00","location":"Клинцы","status":"approaching","count":null},{"lat":52.5543,"lon":33.2637,"time":"2026-07-10T16:50:29+00:00","location":"Погар","status":"approaching","count":null}],"firstSeen":"2026-07-10T16:50:29+00:00","lastSeen":"2026-07-10T16:50:29+00:00","ended":false,"distanceKm":73},{"id":"trk-9","threatClass":"drone","points":[{"lat":53.1022,"lon":32.4189,"time":"2026-07-10T19:48:34+00:00","location":"Суражский район","status":"approaching","count":null},{"lat":52.8314,"lon":32.8245,"time":"2026-07-10T19:48:34+00:00","location":"Унечский район","status":"approaching","count":null},{"lat":52.7501,"lon":32.8824,"time":"2026-07-10T19:53:37+00:00","location":"Рохманово","status":"unknown","count":null}],"firstSeen":"2026-07-10T19:48:34+00:00","lastSeen":"2026-07-10T19:53:37+00:00","ended":false,"distanceKm":50},{"id":"trk-13","threatClass":"drone","points":[{"lat":52.7061,"lon":32.031,"time":"2026-07-10T20:00:19+00:00","location":"Клинцовский район","status":"approaching","count":null},{"lat":53.0057,"lon":31.6028,"time":"2026-07-10T20:22:49+00:00","location":"Красная Гора","status":"approaching","count":16}],"firstSeen":"2026-07-10T20:00:19+00:00","lastSeen":"2026-07-10T20:22:49+00:00","ended":false,"distanceKm":44},{"id":"trk-15","threatClass":"drone","points":[{"lat":59.653,"lon":32.1164,"time":"2026-07-10T20:50:49+00:00","location":"Глажево","status":"approaching","count":null},{"lat":59.4412,"lon":32.1751,"time":"2026-07-10T20:50:49+00:00","location":"Киришский район","status":"approaching","count":null}],"firstSeen":"2026-07-10T20:50:49+00:00","lastSeen":"2026-07-10T20:50:49+00:00","ended":false,"distanceKm":24}],"updatedAt":"2026-07-10T21:35:54.033Z"}