{"tracks":[{"id":"trk-1","threatClass":"drone","points":[{"lat":54.5293,"lon":36.2754,"time":"2026-07-08T22:52:21+00:00","location":"Калуга","status":"approaching","count":null},{"lat":54.9148,"lon":35.7127,"time":"2026-07-08T23:15:31+00:00","location":"Износковский район","status":"approaching","count":null}],"firstSeen":"2026-07-08T22:52:21+00:00","lastSeen":"2026-07-08T23:15:31+00:00","ended":false,"distanceKm":56},{"id":"trk-2","threatClass":"drone","points":[{"lat":53.1203,"lon":35.3921,"time":"2026-07-08T22:36:17+00:00","location":"Хотынец","status":"unknown","count":null},{"lat":55.0901,"lon":33.4674,"time":"2026-07-08T22:37:21+00:00","location":"Монастырщина","status":"unknown","count":null}],"firstSeen":"2026-07-08T22:36:17+00:00","lastSeen":"2026-07-08T22:37:21+00:00","ended":false,"distanceKm":252},{"id":"trk-5","threatClass":"drone","points":[{"lat":50.4092,"lon":41.0154,"time":"2026-07-08T22:26:58+00:00","location":"Калачеевский район","status":"approaching","count":null},{"lat":51.0539,"lon":38.9461,"time":"2026-07-08T22:26:58+00:00","location":"Репьевский район","status":"approaching","count":null},{"lat":52.0929,"lon":37.4888,"time":"2026-07-08T22:28:00+00:00","location":"Должанский район","status":"approaching","count":null},{"lat":52.9729,"lon":35.452,"time":"2026-07-08T22:28:00+00:00","location":"Хотынецкий район","status":"approaching","count":null}],"firstSeen":"2026-07-08T22:26:58+00:00","lastSeen":"2026-07-08T22:28:00+00:00","ended":false,"distanceKm":485},{"id":"trk-7","threatClass":"drone","points":[{"lat":45.2643,"lon":37.2941,"time":"2026-07-08T23:02:31+00:00","location":"Темрюкский район","status":"overhead","count":null},{"lat":47.3415,"lon":38.7288,"time":"2026-07-08T23:04:30+00:00","location":"Неклиновский район","status":"overhead","count":null}],"firstSeen":"2026-07-08T23:02:31+00:00","lastSeen":"2026-07-08T23:04:30+00:00","ended":false,"distanceKm":256},{"id":"trk-9","threatClass":"drone","points":[{"lat":56.0315,"lon":35.5102,"time":"2026-07-08T23:12:09+00:00","location":"Шаховская","status":"approaching","count":4},{"lat":55.8489,"lon":33.0483,"time":"2026-07-08T23:13:37+00:00","location":"Бельский район","status":"approaching","count":null},{"lat":56.1007,"lon":31.8429,"time":"2026-07-08T23:13:37+00:00","location":"Западнодвинский район","status":"approaching","count":null}],"firstSeen":"2026-07-08T23:12:09+00:00","lastSeen":"2026-07-08T23:13:37+00:00","ended":false,"distanceKm":235},{"id":"trk-10","threatClass":"drone","points":[{"lat":54.5576,"lon":31.4654,"time":"2026-07-08T23:15:09+00:00","location":"Краснинский район","status":"approaching","count":null},{"lat":54.3597,"lon":32.1169,"time":"2026-07-08T23:15:09+00:00","location":"Починковский район","status":"approaching","count":null}],"firstSeen":"2026-07-08T23:15:09+00:00","lastSeen":"2026-07-08T23:15:09+00:00","ended":false,"distanceKm":48},{"id":"trk-11","threatClass":"drone","points":[{"lat":55.5665,"lon":31.2872,"time":"2026-07-08T23:15:09+00:00","location":"Велижский район","status":"approaching","count":null},{"lat":55.3848,"lon":32.3545,"time":"2026-07-08T23:33:51+00:00","location":"Духовщинский район","status":"approaching","count":2}],"firstSeen":"2026-07-08T23:15:09+00:00","lastSeen":"2026-07-08T23:33:51+00:00","ended":false,"distanceKm":70},{"id":"trk-13","threatClass":"drone","points":[{"lat":56.5744,"lon":34.8805,"time":"2026-07-08T23:31:52+00:00","location":"Старицкий район","status":"approaching","count":null},{"lat":56.1264,"lon":34.8164,"time":"2026-07-08T23:33:30+00:00","location":"Зубцовский район","status":"approaching","count":3}],"firstSeen":"2026-07-08T23:31:52+00:00","lastSeen":"2026-07-08T23:33:30+00:00","ended":false,"distanceKm":50},{"id":"trk-19","threatClass":"drone","points":[{"lat":53.4518,"lon":36.822,"time":"2026-07-09T09:44:09+00:00","location":"Чернский район","status":"approaching","count":null},{"lat":53.7064,"lon":37.293,"time":"2026-07-09T09:44:57+00:00","location":"Плавский район","status":"approaching","count":2}],"firstSeen":"2026-07-09T09:44:09+00:00","lastSeen":"2026-07-09T09:44:57+00:00","ended":false,"distanceKm":42}],"updatedAt":"2026-07-09T10:08:00.000Z"}