{"tracks":[{"id":"trk-4","threatClass":"drone","points":[{"lat":45.1903,"lon":33.3669,"time":"2026-07-16T16:41:47+00:00","location":"Евпатория","status":"unknown","count":null},{"lat":45.1356,"lon":33.5994,"time":"2026-07-16T16:41:47+00:00","location":"Саки","status":"unknown","count":null}],"firstSeen":"2026-07-16T16:41:47+00:00","lastSeen":"2026-07-16T16:41:47+00:00","ended":false,"distanceKm":19},{"id":"trk-5","threatClass":"drone","points":[{"lat":44.7235,"lon":37.7686,"time":"2026-07-16T16:42:33+00:00","location":"Новороссийск","status":"approaching","count":null},{"lat":45.2643,"lon":37.2941,"time":"2026-07-16T16:42:33+00:00","location":"Темрюкский район","status":"approaching","count":null}],"firstSeen":"2026-07-16T16:42:33+00:00","lastSeen":"2026-07-16T16:42:33+00:00","ended":false,"distanceKm":71},{"id":"trk-8","threatClass":"drone","points":[{"lat":50.5977,"lon":36.5858,"time":"2026-07-16T17:50:34+00:00","location":"Белгород","status":"approaching","count":null},{"lat":50.5228,"lon":36.3825,"time":"2026-07-16T18:28:47+00:00","location":"Белгородский район","status":"approaching","count":null}],"firstSeen":"2026-07-16T17:50:34+00:00","lastSeen":"2026-07-16T18:28:47+00:00","ended":false,"distanceKm":17},{"id":"trk-10","threatClass":"drone","points":[{"lat":52.7427,"lon":35.3809,"time":"2026-07-16T18:11:02+00:00","location":"Сосковский район","status":"approaching","count":null},{"lat":52.3967,"lon":35.8058,"time":"2026-07-16T18:11:02+00:00","location":"Троснянский район","status":"approaching","count":null}],"firstSeen":"2026-07-16T18:11:02+00:00","lastSeen":"2026-07-16T18:11:02+00:00","ended":false,"distanceKm":48},{"id":"trk-11","threatClass":"drone","points":[{"lat":47.2362,"lon":38.8969,"time":"2026-07-16T18:20:08+00:00","location":"Таганрог","status":"unknown","count":null},{"lat":47.1056,"lon":39.4231,"time":"2026-07-16T18:20:08+00:00","location":"Азов","status":"unknown","count":null}],"firstSeen":"2026-07-16T18:20:08+00:00","lastSeen":"2026-07-16T18:20:08+00:00","ended":false,"distanceKm":42},{"id":"trk-13","threatClass":"drone","points":[{"lat":48.0159,"lon":37.8013,"time":"2026-07-16T19:27:43+00:00","location":"Донецк","status":"unknown","count":null},{"lat":48.0448,"lon":37.9635,"time":"2026-07-16T19:27:43+00:00","location":"Макеевка","status":"unknown","count":null}],"firstSeen":"2026-07-16T19:27:43+00:00","lastSeen":"2026-07-16T19:27:43+00:00","ended":false,"distanceKm":12},{"id":"trk-14","threatClass":"drone","points":[{"lat":47.7499,"lon":37.6716,"time":"2026-07-16T19:27:43+00:00","location":"Докучаевск","status":"unknown","count":null},{"lat":47.6017,"lon":37.4901,"time":"2026-07-16T19:27:43+00:00","location":"Волноваха","status":"unknown","count":null}],"firstSeen":"2026-07-16T19:27:43+00:00","lastSeen":"2026-07-16T19:27:43+00:00","ended":false,"distanceKm":21},{"id":"trk-16","threatClass":"drone","points":[{"lat":45.3636,"lon":36.6115,"time":"2026-07-16T19:35:32+00:00","location":"Республика Крым","status":"approaching","count":null},{"lat":45.3848,"lon":36.4352,"time":"2026-07-16T20:27:07+00:00","location":"Войково","status":"approaching","count":null}],"firstSeen":"2026-07-16T19:35:32+00:00","lastSeen":"2026-07-16T20:27:07+00:00","ended":false,"distanceKm":14},{"id":"trk-20","threatClass":"drone","points":[{"lat":52.3882,"lon":33.0015,"time":"2026-07-16T20:36:50+00:00","location":"Андрейковичи","status":"approaching","count":null},{"lat":52.4238,"lon":33.1357,"time":"2026-07-16T20:36:50+00:00","location":"Затростянье","status":"approaching","count":null},{"lat":52.5207,"lon":33.2053,"time":"2026-07-16T20:36:50+00:00","location":"Погарский район","status":"approaching","count":null}],"firstSeen":"2026-07-16T20:36:50+00:00","lastSeen":"2026-07-16T20:36:50+00:00","ended":false,"distanceKm":22},{"id":"trk-21","threatClass":"drone","points":[{"lat":45.3636,"lon":36.6115,"time":"2026-07-16T21:13:00+00:00","location":"Республика Крым","status":"approaching","count":null},{"lat":45.3805,"lon":36.222,"time":"2026-07-16T21:46:48+00:00","location":"Ленинский район","status":"approaching","count":null}],"firstSeen":"2026-07-16T21:13:00+00:00","lastSeen":"2026-07-16T21:46:48+00:00","ended":false,"distanceKm":30},{"id":"trk-24","threatClass":"drone","points":[{"lat":52.3161,"lon":34.0759,"time":"2026-07-16T21:14:33+00:00","location":"Суземка","status":"unknown","count":null},{"lat":52.4162,"lon":34.7885,"time":"2026-07-16T21:43:34+00:00","location":"Комаричи","status":"unknown","count":null}],"firstSeen":"2026-07-16T21:14:33+00:00","lastSeen":"2026-07-16T21:43:34+00:00","ended":false,"distanceKm":50},{"id":"trk-26","threatClass":"drone","points":[{"lat":55.2677,"lon":36.6925,"time":"2026-07-16T21:37:19+00:00","location":"Московская область","status":"approaching","count":null},{"lat":56.0752,"lon":35.3221,"time":"2026-07-16T22:27:46+00:00","location":"Тверская область","status":"unknown","count":null}],"firstSeen":"2026-07-16T21:37:19+00:00","lastSeen":"2026-07-16T22:27:46+00:00","ended":false,"distanceKm":124},{"id":"trk-28","threatClass":"drone","points":[{"lat":44.8908,"lon":37.3164,"time":"2026-07-16T21:57:37+00:00","location":"Анапа","status":"approaching","count":null},{"lat":45.4324,"lon":37.8219,"time":"2026-07-16T22:36:27+00:00","location":"Славянский район","status":"approaching","count":null}],"firstSeen":"2026-07-16T21:57:37+00:00","lastSeen":"2026-07-16T22:36:27+00:00","ended":false,"distanceKm":72},{"id":"trk-30","threatClass":"drone","points":[{"lat":45.2643,"lon":37.2941,"time":"2026-07-16T22:15:40+00:00","location":"Темрюкский район","status":"approaching","count":null},{"lat":45.3478,"lon":37.1336,"time":"2026-07-16T22:15:40+00:00","location":"Пересыпь","status":"approaching","count":null}],"firstSeen":"2026-07-16T22:15:40+00:00","lastSeen":"2026-07-16T22:15:40+00:00","ended":false,"distanceKm":16},{"id":"trk-33","threatClass":"drone","points":[{"lat":52.4635,"lon":32.358,"time":"2026-07-16T23:29:57+00:00","location":"Каменка","status":"approaching","count":null},{"lat":53.5775,"lon":34.2779,"time":"2026-07-16T23:31:36+00:00","location":"Чернятичи","status":"approaching","count":null},{"lat":53.6655,"lon":35.363,"time":"2026-07-16T23:32:28+00:00","location":"Дудоровский","status":"approaching","count":null}],"firstSeen":"2026-07-16T23:29:57+00:00","lastSeen":"2026-07-16T23:32:28+00:00","ended":false,"distanceKm":251},{"id":"trk-34","threatClass":"drone","points":[{"lat":50.9402,"lon":36.6252,"time":"2026-07-16T23:35:03+00:00","location":"Беленихино","status":"unknown","count":null},{"lat":51.6111,"lon":36.5007,"time":"2026-07-16T23:35:46+00:00","location":"Полевая","status":"approaching","count":null}],"firstSeen":"2026-07-16T23:35:03+00:00","lastSeen":"2026-07-16T23:35:46+00:00","ended":false,"distanceKm":75},{"id":"trk-37","threatClass":"drone","points":[{"lat":52.5715,"lon":36.8974,"time":"2026-07-17T00:58:18+00:00","location":"Покровский район","status":"approaching","count":null},{"lat":52.7427,"lon":35.3809,"time":"2026-07-17T00:58:18+00:00","location":"Сосковский район","status":"approaching","count":null}],"firstSeen":"2026-07-17T00:58:18+00:00","lastSeen":"2026-07-17T00:58:18+00:00","ended":false,"distanceKm":104},{"id":"trk-38","threatClass":"drone","points":[{"lat":53.761,"lon":36.1634,"time":"2026-07-17T01:00:13+00:00","location":"Белёвский район","status":"approaching","count":null},{"lat":54.5207,"lon":35.9735,"time":"2026-07-17T01:00:36+00:00","location":"Бабынинский район","status":"approaching","count":null}],"firstSeen":"2026-07-17T01:00:13+00:00","lastSeen":"2026-07-17T01:00:36+00:00","ended":false,"distanceKm":85},{"id":"trk-39","threatClass":"drone","points":[{"lat":54.1226,"lon":36.3581,"time":"2026-07-17T01:01:00+00:00","location":"Суворовский район","status":"approaching","count":null},{"lat":53.7064,"lon":37.293,"time":"2026-07-17T01:01:21+00:00","location":"Плавский район","status":"approaching","count":null}],"firstSeen":"2026-07-17T01:01:00+00:00","lastSeen":"2026-07-17T01:01:21+00:00","ended":false,"distanceKm":77}],"updatedAt":"2026-07-17T01:16:49.340Z"}