{"tracks":[{"id":"trk-2","threatClass":"drone","points":[{"lat":52.3967,"lon":35.8058,"time":"2026-07-07T08:33:38+00:00","location":"Троснянский район","status":"approaching","count":null},{"lat":52.2425,"lon":37.0479,"time":"2026-07-07T08:34:18+00:00","location":"Колпнянский район","status":"approaching","count":null},{"lat":51.2136,"lon":39.0706,"time":"2026-07-07T08:34:53+00:00","location":"Острогожский район","status":"approaching","count":null}],"firstSeen":"2026-07-07T08:33:38+00:00","lastSeen":"2026-07-07T08:34:53+00:00","ended":false,"distanceKm":266},{"id":"trk-3","threatClass":"drone","points":[{"lat":44.8857,"lon":38.0857,"time":"2026-07-07T08:47:11+00:00","location":"Крымский район","status":"approaching","count":null},{"lat":43.5855,"lon":39.7231,"time":"2026-07-07T09:29:25+00:00","location":"Сочи","status":"overhead","count":null}],"firstSeen":"2026-07-07T08:47:11+00:00","lastSeen":"2026-07-07T09:29:25+00:00","ended":false,"distanceKm":195},{"id":"trk-13","threatClass":"drone","points":[{"lat":55.5598,"lon":33.2145,"time":"2026-07-07T15:07:58+00:00","location":"Холм-Жирковский район","status":"approaching","count":null},{"lat":55.8657,"lon":34.1218,"time":"2026-07-07T15:07:58+00:00","location":"Сычевский район","status":"approaching","count":null}],"firstSeen":"2026-07-07T15:07:58+00:00","lastSeen":"2026-07-07T15:07:58+00:00","ended":false,"distanceKm":66},{"id":"trk-15","threatClass":"drone","points":[{"lat":48.312,"lon":38.2609,"time":"2026-07-07T15:19:31+00:00","location":"Углегорск","status":"unknown","count":null},{"lat":48.3397,"lon":38.3999,"time":"2026-07-07T15:19:31+00:00","location":"Дебальцево","status":"unknown","count":null}],"firstSeen":"2026-07-07T15:19:31+00:00","lastSeen":"2026-07-07T15:19:31+00:00","ended":false,"distanceKm":11},{"id":"trk-16","threatClass":"drone","points":[{"lat":51.9638,"lon":35.9644,"time":"2026-07-07T16:43:45+00:00","location":"Большое Жирово","status":"approaching","count":null},{"lat":52.2926,"lon":35.821,"time":"2026-07-07T16:43:45+00:00","location":"Фатежский район","status":"approaching","count":null}],"firstSeen":"2026-07-07T16:43:45+00:00","lastSeen":"2026-07-07T16:43:45+00:00","ended":false,"distanceKm":38},{"id":"trk-19","threatClass":"drone","points":[{"lat":51.236,"lon":36.6941,"time":"2026-07-07T17:26:57+00:00","location":"Пристень","status":"approaching","count":null},{"lat":51.4196,"lon":36.7499,"time":"2026-07-07T17:26:57+00:00","location":"Солнцево","status":"approaching","count":null}],"firstSeen":"2026-07-07T17:26:57+00:00","lastSeen":"2026-07-07T17:26:57+00:00","ended":false,"distanceKm":21},{"id":"trk-26","threatClass":"drone","points":[{"lat":45.1145,"lon":39.3805,"time":"2026-07-07T19:09:50+00:00","location":"Васюринская","status":"approaching","count":null},{"lat":45.3318,"lon":39.2596,"time":"2026-07-07T19:09:50+00:00","location":"Динской район","status":"approaching","count":null}],"firstSeen":"2026-07-07T19:09:50+00:00","lastSeen":"2026-07-07T19:09:50+00:00","ended":false,"distanceKm":26},{"id":"trk-27","threatClass":"drone","points":[{"lat":49.7972,"lon":39.7513,"time":"2026-07-07T19:14:25+00:00","location":"Кантемировский район","status":"approaching","count":null},{"lat":49.8881,"lon":40.2257,"time":"2026-07-07T19:14:25+00:00","location":"Богучарский район","status":"approaching","count":null},{"lat":50.6859,"lon":41.0743,"time":"2026-07-07T19:14:25+00:00","location":"Воробьёвский район","status":"approaching","count":null}],"firstSeen":"2026-07-07T19:14:25+00:00","lastSeen":"2026-07-07T19:14:25+00:00","ended":false,"distanceKm":143}],"updatedAt":"2026-07-07T19:25:45.676Z"}