{"tracks":[{"id":"trk-3","threatClass":"missile","points":[{"lat":48.7453,"lon":39.1711,"time":"2026-07-18T22:10:09+00:00","location":"Счастье","status":"unknown","count":null},{"lat":48.5235,"lon":39.2864,"time":"2026-07-18T22:10:09+00:00","location":"ЛНР","status":"unknown","count":null}],"firstSeen":"2026-07-18T22:10:09+00:00","lastSeen":"2026-07-18T22:10:09+00:00","ended":false,"distanceKm":26},{"id":"trk-4","threatClass":"drone","points":[{"lat":47.3304,"lon":41.2738,"time":"2026-07-18T22:11:04+00:00","location":"Большая Орловка","status":"approaching","count":null},{"lat":47.282,"lon":41.6676,"time":"2026-07-18T22:11:04+00:00","location":"Мартыновский район","status":"approaching","count":null}],"firstSeen":"2026-07-18T22:11:04+00:00","lastSeen":"2026-07-18T22:11:04+00:00","ended":false,"distanceKm":30},{"id":"trk-11","threatClass":"drone","points":[{"lat":45.2207,"lon":42.18,"time":"2026-07-19T00:21:32+00:00","location":"Дубовка","status":"approaching","count":null},{"lat":45.0451,"lon":41.5668,"time":"2026-07-19T00:21:32+00:00","location":"Шпаковский район","status":"approaching","count":null}],"firstSeen":"2026-07-19T00:21:32+00:00","lastSeen":"2026-07-19T00:21:32+00:00","ended":false,"distanceKm":52},{"id":"trk-12","threatClass":"drone","points":[{"lat":46.7909,"lon":40.4949,"time":"2026-07-19T00:36:45+00:00","location":"Зерноградский район","status":"approaching","count":null},{"lat":47.1442,"lon":40.732,"time":"2026-07-19T00:36:45+00:00","location":"Веселовский район","status":"approaching","count":null}],"firstSeen":"2026-07-19T00:36:45+00:00","lastSeen":"2026-07-19T00:36:45+00:00","ended":false,"distanceKm":43},{"id":"trk-14","threatClass":"drone","points":[{"lat":51.6269,"lon":36.1275,"time":"2026-07-19T06:44:09+00:00","location":"Кукуевка","status":"unknown","count":null},{"lat":51.7209,"lon":36.3538,"time":"2026-07-19T06:44:09+00:00","location":"Долгое","status":"unknown","count":null}],"firstSeen":"2026-07-19T06:44:09+00:00","lastSeen":"2026-07-19T06:44:09+00:00","ended":false,"distanceKm":19},{"id":"trk-15","threatClass":"drone","points":[{"lat":50.211,"lon":38.0997,"time":"2026-07-19T06:44:09+00:00","location":"Валуйского района","status":"unknown","count":null},{"lat":50.9163,"lon":35.4272,"time":"2026-07-19T06:44:31+00:00","location":"Графовка","status":"approaching","count":null}],"firstSeen":"2026-07-19T06:44:09+00:00","lastSeen":"2026-07-19T06:44:31+00:00","ended":false,"distanceKm":204}],"updatedAt":"2026-07-19T09:22:48.609Z"}