{"tracks":[{"id":"trk-1","threatClass":"drone","points":[{"lat":56.2588,"lon":38.4519,"time":"2026-07-07T05:33:03+00:00","location":"Площево","status":"approaching","count":null},{"lat":56.4274,"lon":40.4408,"time":"2026-07-07T05:33:03+00:00","location":"Александровский район","status":"approaching","count":null},{"lat":57.4064,"lon":41.2043,"time":"2026-07-07T06:23:56+00:00","location":"Красносельский район","status":"approaching","count":null}],"firstSeen":"2026-07-07T05:33:03+00:00","lastSeen":"2026-07-07T06:23:56+00:00","ended":false,"distanceKm":242},{"id":"trk-9","threatClass":"drone","points":[{"lat":58.4691,"lon":41.8648,"time":"2026-07-07T05:42:43+00:00","location":"Калинино","status":"approaching","count":null},{"lat":57.6973,"lon":40.663,"time":"2026-07-07T05:42:43+00:00","location":"Костромской район","status":"approaching","count":null}],"firstSeen":"2026-07-07T05:42:43+00:00","lastSeen":"2026-07-07T05:42:43+00:00","ended":false,"distanceKm":111},{"id":"trk-10","threatClass":"drone","points":[{"lat":55.2842,"lon":40.799,"time":"2026-07-07T06:18:36+00:00","location":"Гусь-Хрустальный район","status":"approaching","count":null},{"lat":56.2868,"lon":38.7918,"time":"2026-07-07T06:19:41+00:00","location":"Киржачский район","status":"approaching","count":null}],"firstSeen":"2026-07-07T06:18:36+00:00","lastSeen":"2026-07-07T06:19:41+00:00","ended":false,"distanceKm":168},{"id":"trk-11","threatClass":"drone","points":[{"lat":55.5784,"lon":39.5438,"time":"2026-07-07T06:20:32+00:00","location":"Шатура","status":"approaching","count":3},{"lat":56.3153,"lon":38.136,"time":"2026-07-07T06:21:58+00:00","location":"Сергиев Посад","status":"approaching","count":null}],"firstSeen":"2026-07-07T06:20:32+00:00","lastSeen":"2026-07-07T06:21:58+00:00","ended":false,"distanceKm":120},{"id":"trk-12","threatClass":"drone","points":[{"lat":52.2425,"lon":37.0479,"time":"2026-07-07T06:25:47+00:00","location":"Колпнянский район","status":"approaching","count":null},{"lat":52.3932,"lon":36.5399,"time":"2026-07-07T06:26:44+00:00","location":"Малоархангельский район","status":"approaching","count":2},{"lat":52.3967,"lon":35.8058,"time":"2026-07-07T06:27:51+00:00","location":"Троснянский район","status":"approaching","count":null},{"lat":52.858,"lon":35.1026,"time":"2026-07-07T06:28:36+00:00","location":"Шаблыкинский район","status":"approaching","count":null}],"firstSeen":"2026-07-07T06:25:47+00:00","lastSeen":"2026-07-07T06:28:36+00:00","ended":false,"distanceKm":158},{"id":"trk-13","threatClass":"drone","points":[{"lat":52.5715,"lon":36.8974,"time":"2026-07-07T06:27:34+00:00","location":"Покровский район","status":"approaching","count":null},{"lat":52.9857,"lon":35.9383,"time":"2026-07-07T06:46:16+00:00","location":"Орловский район","status":"approaching","count":2}],"firstSeen":"2026-07-07T06:27:34+00:00","lastSeen":"2026-07-07T06:46:16+00:00","ended":false,"distanceKm":79},{"id":"trk-16","threatClass":"drone","points":[{"lat":57.6964,"lon":40.6575,"time":"2026-07-07T06:44:30+00:00","location":"Ярославская область","status":"unknown","count":null},{"lat":57.7367,"lon":40.5455,"time":"2026-07-07T07:01:10+00:00","location":"Черная Заводь","status":"unknown","count":null}],"firstSeen":"2026-07-07T06:44:30+00:00","lastSeen":"2026-07-07T07:01:10+00:00","ended":false,"distanceKm":8},{"id":"trk-18","threatClass":"drone","points":[{"lat":52.9685,"lon":36.0692,"time":"2026-07-07T06:45:56+00:00","location":"Орел","status":"approaching","count":null},{"lat":53.5983,"lon":37.8195,"time":"2026-07-07T06:46:55+00:00","location":"Воловский район","status":"approaching","count":null},{"lat":53.7136,"lon":38.1682,"time":"2026-07-07T06:46:55+00:00","location":"Богородицкий район","status":"approaching","count":null}],"firstSeen":"2026-07-07T06:45:56+00:00","lastSeen":"2026-07-07T06:46:55+00:00","ended":false,"distanceKm":162},{"id":"trk-19","threatClass":"drone","points":[{"lat":53.9435,"lon":36.7279,"time":"2026-07-07T06:47:27+00:00","location":"Одоевский район","status":"approaching","count":2},{"lat":53.7236,"lon":35.5324,"time":"2026-07-07T06:49:01+00:00","location":"Ульяновский район","status":"approaching","count":3}],"firstSeen":"2026-07-07T06:47:27+00:00","lastSeen":"2026-07-07T06:49:01+00:00","ended":false,"distanceKm":82},{"id":"trk-21","threatClass":"drone","points":[{"lat":52.3967,"lon":35.8058,"time":"2026-07-07T08:33:38+00:00","location":"Троснянский район","status":"approaching","count":null},{"lat":52.2425,"lon":37.0479,"time":"2026-07-07T08:34:18+00:00","location":"Колпнянский район","status":"approaching","count":null},{"lat":51.2136,"lon":39.0706,"time":"2026-07-07T08:34:53+00:00","location":"Острогожский район","status":"approaching","count":null}],"firstSeen":"2026-07-07T08:33:38+00:00","lastSeen":"2026-07-07T08:34:53+00:00","ended":false,"distanceKm":266},{"id":"trk-22","threatClass":"drone","points":[{"lat":44.8857,"lon":38.0857,"time":"2026-07-07T08:47:11+00:00","location":"Крымский район","status":"approaching","count":null},{"lat":43.5855,"lon":39.7231,"time":"2026-07-07T09:29:25+00:00","location":"Сочи","status":"overhead","count":null}],"firstSeen":"2026-07-07T08:47:11+00:00","lastSeen":"2026-07-07T09:29:25+00:00","ended":false,"distanceKm":195},{"id":"trk-32","threatClass":"drone","points":[{"lat":55.5598,"lon":33.2145,"time":"2026-07-07T15:07:58+00:00","location":"Холм-Жирковский район","status":"approaching","count":null},{"lat":55.8657,"lon":34.1218,"time":"2026-07-07T15:07:58+00:00","location":"Сычевский район","status":"approaching","count":null}],"firstSeen":"2026-07-07T15:07:58+00:00","lastSeen":"2026-07-07T15:07:58+00:00","ended":false,"distanceKm":66},{"id":"trk-34","threatClass":"drone","points":[{"lat":48.312,"lon":38.2609,"time":"2026-07-07T15:19:31+00:00","location":"Углегорск","status":"unknown","count":null},{"lat":48.3397,"lon":38.3999,"time":"2026-07-07T15:19:31+00:00","location":"Дебальцево","status":"unknown","count":null}],"firstSeen":"2026-07-07T15:19:31+00:00","lastSeen":"2026-07-07T15:19:31+00:00","ended":false,"distanceKm":11},{"id":"trk-35","threatClass":"drone","points":[{"lat":51.9638,"lon":35.9644,"time":"2026-07-07T16:43:45+00:00","location":"Большое Жирово","status":"approaching","count":null},{"lat":52.2926,"lon":35.821,"time":"2026-07-07T16:43:45+00:00","location":"Фатежский район","status":"approaching","count":null}],"firstSeen":"2026-07-07T16:43:45+00:00","lastSeen":"2026-07-07T16:43:45+00:00","ended":false,"distanceKm":38},{"id":"trk-38","threatClass":"drone","points":[{"lat":51.236,"lon":36.6941,"time":"2026-07-07T17:26:57+00:00","location":"Пристень","status":"approaching","count":null},{"lat":51.4196,"lon":36.7499,"time":"2026-07-07T17:26:57+00:00","location":"Солнцево","status":"approaching","count":null}],"firstSeen":"2026-07-07T17:26:57+00:00","lastSeen":"2026-07-07T17:26:57+00:00","ended":false,"distanceKm":21}],"updatedAt":"2026-07-07T17:32:19.169Z"}