{"tracks":[{"id":"trk-1","threatClass":"drone","points":[{"lat":45.9064,"lon":40.2782,"time":"2026-07-22T00:07:28+00:00","location":"Степной","status":"unknown","count":null},{"lat":44.9586,"lon":40.6332,"time":"2026-07-22T00:07:28+00:00","location":"Курганинский район","status":"unknown","count":null},{"lat":44.8202,"lon":40.9275,"time":"2026-07-22T00:14:46+00:00","location":"Новоалексеевская","status":"approaching","count":null}],"firstSeen":"2026-07-22T00:07:28+00:00","lastSeen":"2026-07-22T00:14:46+00:00","ended":false,"distanceKm":137},{"id":"trk-4","threatClass":"drone","points":[{"lat":44.7576,"lon":41.6041,"time":"2026-07-22T00:11:33+00:00","location":"Заветное","status":"approaching","count":null},{"lat":44.6454,"lon":41.3128,"time":"2026-07-22T00:12:13+00:00","location":"Бесскорбная","status":"approaching","count":null}],"firstSeen":"2026-07-22T00:11:33+00:00","lastSeen":"2026-07-22T00:12:13+00:00","ended":false,"distanceKm":26},{"id":"trk-5","threatClass":"drone","points":[{"lat":45.2169,"lon":39.225,"time":"2026-07-22T00:17:08+00:00","location":"Динская.","status":"approaching","count":null},{"lat":45.1392,"lon":39.1918,"time":"2026-07-22T00:21:23+00:00","location":"Агроном","status":"approaching","count":null}],"firstSeen":"2026-07-22T00:17:08+00:00","lastSeen":"2026-07-22T00:21:23+00:00","ended":false,"distanceKm":9},{"id":"trk-8","threatClass":"drone","points":[{"lat":58.0438,"lon":31.1808,"time":"2026-07-22T00:32:15+00:00","location":"Нагово","status":"unknown","count":null},{"lat":57.6806,"lon":31.2685,"time":"2026-07-22T00:32:15+00:00","location":"Старорусский район","status":"unknown","count":null}],"firstSeen":"2026-07-22T00:32:15+00:00","lastSeen":"2026-07-22T00:32:15+00:00","ended":false,"distanceKm":41}],"updatedAt":"2026-07-22T11:32:48.479Z"}