{"tracks":[{"id":"trk-1","threatClass":"drone","points":[{"lat":54.2336,"lon":39.0308,"time":"2026-07-18T08:01:56+00:00","location":"Пронский район","status":"approaching","count":null},{"lat":55.238,"lon":40.0556,"time":"2026-07-18T08:02:42+00:00","location":"Клепиковский район","status":"approaching","count":null}],"firstSeen":"2026-07-18T08:01:56+00:00","lastSeen":"2026-07-18T08:02:42+00:00","ended":false,"distanceKm":130},{"id":"trk-13","threatClass":"drone","points":[{"lat":52.5353,"lon":31.9342,"time":"2026-07-18T15:13:19+00:00","location":"Новозыбков","status":"unknown","count":null},{"lat":52.37,"lon":32.1912,"time":"2026-07-18T15:13:19+00:00","location":"Климов","status":"unknown","count":null},{"lat":52.3161,"lon":34.0759,"time":"2026-07-18T15:13:19+00:00","location":"Суземка","status":"unknown","count":null}],"firstSeen":"2026-07-18T15:13:19+00:00","lastSeen":"2026-07-18T15:13:19+00:00","ended":false,"distanceKm":153},{"id":"trk-14","threatClass":"drone","points":[{"lat":52.7494,"lon":32.2356,"time":"2026-07-18T15:13:19+00:00","location":"Клинцы","status":"unknown","count":null},{"lat":52.5543,"lon":33.2637,"time":"2026-07-18T15:13:19+00:00","location":"Погар","status":"unknown","count":null}],"firstSeen":"2026-07-18T15:13:19+00:00","lastSeen":"2026-07-18T15:13:19+00:00","ended":false,"distanceKm":73},{"id":"trk-17","threatClass":"drone","points":[{"lat":52.5353,"lon":31.9342,"time":"2026-07-18T16:43:50+00:00","location":"Новозыбков","status":"unknown","count":null},{"lat":52.7494,"lon":32.2356,"time":"2026-07-18T16:43:50+00:00","location":"Клинцы","status":"unknown","count":null}],"firstSeen":"2026-07-18T16:43:50+00:00","lastSeen":"2026-07-18T16:43:50+00:00","ended":false,"distanceKm":31},{"id":"trk-20","threatClass":"drone","points":[{"lat":44.9613,"lon":34.1043,"time":"2026-07-18T17:37:55+00:00","location":"Фиолент","status":"approaching","count":null},{"lat":44.5121,"lon":33.599,"time":"2026-07-18T17:37:55+00:00","location":"Балаклава","status":"approaching","count":null}],"firstSeen":"2026-07-18T17:37:55+00:00","lastSeen":"2026-07-18T17:37:55+00:00","ended":false,"distanceKm":64},{"id":"trk-24","threatClass":"drone","points":[{"lat":45.4982,"lon":34.7703,"time":"2026-07-18T19:14:50+00:00","location":"Нижнегорский район","status":"unknown","count":null},{"lat":45.2381,"lon":35.2859,"time":"2026-07-18T19:14:50+00:00","location":"Кировский район","status":"unknown","count":null},{"lat":45.2411,"lon":35.9763,"time":"2026-07-18T19:14:50+00:00","location":"Керченский полуостров","status":"unknown","count":null}],"firstSeen":"2026-07-18T19:14:50+00:00","lastSeen":"2026-07-18T19:14:50+00:00","ended":false,"distanceKm":104},{"id":"trk-26","threatClass":"drone","points":[{"lat":45.2079,"lon":33.1531,"time":"2026-07-18T19:27:12+00:00","location":"Витино","status":"unknown","count":null},{"lat":45.5194,"lon":34.5932,"time":"2026-07-18T19:27:12+00:00","location":"Уютное","status":"unknown","count":null}],"firstSeen":"2026-07-18T19:27:12+00:00","lastSeen":"2026-07-18T19:27:12+00:00","ended":false,"distanceKm":118},{"id":"trk-27","threatClass":"drone","points":[{"lat":48.2305,"lon":38.185,"time":"2026-07-18T19:35:00+00:00","location":"Енакиево","status":"approaching","count":null},{"lat":48.312,"lon":38.2609,"time":"2026-07-18T19:35:00+00:00","location":"Углегорск","status":"approaching","count":null}],"firstSeen":"2026-07-18T19:35:00+00:00","lastSeen":"2026-07-18T19:35:00+00:00","ended":false,"distanceKm":11}],"updatedAt":"2026-07-18T19:52:52.980Z"}