{"tracks":[{"id":"trk-4","threatClass":"drone","points":[{"lat":57.6685,"lon":39.6866,"time":"2026-07-16T08:11:09+00:00","location":"Зяблицы","status":"unknown","count":null},{"lat":57.87,"lon":39.5308,"time":"2026-07-16T08:16:43+00:00","location":"Тутаев","status":"approaching","count":null}],"firstSeen":"2026-07-16T08:11:09+00:00","lastSeen":"2026-07-16T08:16:43+00:00","ended":false,"distanceKm":24},{"id":"trk-8","threatClass":"drone","points":[{"lat":45.1903,"lon":33.3669,"time":"2026-07-16T16:41:47+00:00","location":"Евпатория","status":"unknown","count":null},{"lat":45.1356,"lon":33.5994,"time":"2026-07-16T16:41:47+00:00","location":"Саки","status":"unknown","count":null}],"firstSeen":"2026-07-16T16:41:47+00:00","lastSeen":"2026-07-16T16:41:47+00:00","ended":false,"distanceKm":19},{"id":"trk-9","threatClass":"drone","points":[{"lat":44.7235,"lon":37.7686,"time":"2026-07-16T16:42:33+00:00","location":"Новороссийск","status":"approaching","count":null},{"lat":45.2643,"lon":37.2941,"time":"2026-07-16T16:42:33+00:00","location":"Темрюкский район","status":"approaching","count":null}],"firstSeen":"2026-07-16T16:42:33+00:00","lastSeen":"2026-07-16T16:42:33+00:00","ended":false,"distanceKm":71}],"updatedAt":"2026-07-16T17:24:52.145Z"}