{"tracks":[{"id":"trk-5","threatClass":"missile","points":[{"lat":50.0323,"lon":36.2188,"time":"2026-07-08T00:26:58+00:00","location":"Kharkiv Region","status":"approaching","count":null},{"lat":48.0157,"lon":37.8103,"time":"2026-07-08T00:26:58+00:00","location":"Donetsk Region","status":"approaching","count":null}],"firstSeen":"2026-07-08T00:26:58+00:00","lastSeen":"2026-07-08T00:26:58+00:00","ended":false,"distanceKm":252},{"id":"trk-11","threatClass":"drone","points":[{"lat":55.0456,"lon":58.9746,"time":"2026-07-08T06:45:06+00:00","location":"Сатка","status":"unknown","count":null},{"lat":56.0881,"lon":55.3487,"time":"2026-07-08T06:46:33+00:00","location":"Месягутово","status":"unknown","count":null}],"firstSeen":"2026-07-08T06:45:06+00:00","lastSeen":"2026-07-08T06:46:33+00:00","ended":false,"distanceKm":256},{"id":"trk-14","threatClass":"drone","points":[{"lat":56.0881,"lon":55.3487,"time":"2026-07-08T06:49:12+00:00","location":"Месягутово","status":"unknown","count":null},{"lat":56.4256,"lon":58.5327,"time":"2026-07-08T06:49:45+00:00","location":"Арти","status":"approaching","count":2}],"firstSeen":"2026-07-08T06:49:12+00:00","lastSeen":"2026-07-08T06:49:45+00:00","ended":false,"distanceKm":200},{"id":"trk-27","threatClass":"drone","points":[{"lat":45.5743,"lon":38.0942,"time":"2026-07-08T09:00:58+00:00","location":"Забойский","status":"approaching","count":null},{"lat":45.4324,"lon":37.8219,"time":"2026-07-08T09:00:58+00:00","location":"Славянский район","status":"approaching","count":null}],"firstSeen":"2026-07-08T09:00:58+00:00","lastSeen":"2026-07-08T09:00:58+00:00","ended":false,"distanceKm":26}],"updatedAt":"2026-07-08T11:32:01.701Z"}