{"tracks":[{"id":"trk-4","threatClass":"drone","points":[{"lat":53.3507,"lon":36.7147,"time":"2026-07-15T15:10:16+00:00","location":"Мценский район","status":"approaching","count":null},{"lat":52.5401,"lon":39.766,"time":"2026-07-15T15:10:50+00:00","location":"Грязинский район","status":"approaching","count":null},{"lat":51.997,"lon":41.1766,"time":"2026-07-15T15:11:21+00:00","location":"Токаревский район","status":"approaching","count":null},{"lat":52.3137,"lon":42.5798,"time":"2026-07-15T15:11:21+00:00","location":"Инжавинский район","status":"approaching","count":null},{"lat":53.9409,"lon":43.1321,"time":"2026-07-15T15:54:53+00:00","location":"Пензенская область","status":"unknown","count":null}],"firstSeen":"2026-07-15T15:10:16+00:00","lastSeen":"2026-07-15T15:54:53+00:00","ended":false,"distanceKm":623},{"id":"trk-9","threatClass":"drone","points":[{"lat":53.3413,"lon":35.6035,"time":"2026-07-15T16:46:01+00:00","location":"Знаменский район","status":"approaching","count":null},{"lat":54.1014,"lon":35.3397,"time":"2026-07-15T17:16:05+00:00","location":"Сухиничский район","status":"approaching","count":null}],"firstSeen":"2026-07-15T16:46:01+00:00","lastSeen":"2026-07-15T17:16:05+00:00","ended":false,"distanceKm":86},{"id":"trk-11","threatClass":"drone","points":[{"lat":51.5333,"lon":46.0344,"time":"2026-07-15T17:17:39+00:00","location":"Саратов","status":"approaching","count":null},{"lat":53.4678,"lon":48.3377,"time":"2026-07-15T17:19:31+00:00","location":"Ульяновская область","status":"unknown","count":null}],"firstSeen":"2026-07-15T17:17:39+00:00","lastSeen":"2026-07-15T17:19:31+00:00","ended":false,"distanceKm":266},{"id":"trk-12","threatClass":"drone","points":[{"lat":51.6608,"lon":39.2003,"time":"2026-07-15T17:18:28+00:00","location":"Воронеж","status":"approaching","count":null},{"lat":51.7502,"lon":40.6662,"time":"2026-07-15T18:04:46+00:00","location":"Эртильский район","status":"approaching","count":null},{"lat":51.997,"lon":41.1766,"time":"2026-07-15T18:05:15+00:00","location":"Токаревский район","status":"approaching","count":null},{"lat":52.1663,"lon":42.0216,"time":"2026-07-15T18:05:15+00:00","location":"Ржаксинский район","status":"approaching","count":null}],"firstSeen":"2026-07-15T17:18:28+00:00","lastSeen":"2026-07-15T18:05:15+00:00","ended":false,"distanceKm":207},{"id":"trk-13","threatClass":"drone","points":[{"lat":52.9745,"lon":44.8696,"time":"2026-07-15T17:20:35+00:00","location":"Пензенский район","status":"approaching","count":null},{"lat":51.1894,"lon":45.6478,"time":"2026-07-15T18:13:43+00:00","location":"Красноармейский район","status":"approaching","count":null}],"firstSeen":"2026-07-15T17:20:35+00:00","lastSeen":"2026-07-15T18:13:43+00:00","ended":false,"distanceKm":205},{"id":"trk-14","threatClass":"drone","points":[{"lat":51.5333,"lon":46.0344,"time":"2026-07-15T17:29:02+00:00","location":"Саратов","status":"unknown","count":null},{"lat":51.4839,"lon":46.1247,"time":"2026-07-15T17:29:02+00:00","location":"Энгельс","status":"unknown","count":null}],"firstSeen":"2026-07-15T17:29:02+00:00","lastSeen":"2026-07-15T17:29:02+00:00","ended":false,"distanceKm":8},{"id":"trk-17","threatClass":"drone","points":[{"lat":47.781,"lon":37.2461,"time":"2026-07-15T18:21:24+00:00","location":"Угледар","status":"unknown","count":null},{"lat":48.0162,"lon":37.8095,"time":"2026-07-15T18:21:24+00:00","location":"ДНР","status":"unknown","count":null}],"firstSeen":"2026-07-15T18:21:24+00:00","lastSeen":"2026-07-15T18:21:24+00:00","ended":false,"distanceKm":49},{"id":"trk-18","threatClass":"drone","points":[{"lat":45.4324,"lon":37.8219,"time":"2026-07-15T18:26:17+00:00","location":"Славянский район","status":"approaching","count":null},{"lat":45.2614,"lon":38.1281,"time":"2026-07-15T18:57:12+00:00","location":"Славянск-На-Кубани","status":"approaching","count":null},{"lat":44.8857,"lon":38.0857,"time":"2026-07-15T18:57:38+00:00","location":"Крымский район","status":"approaching","count":null}],"firstSeen":"2026-07-15T18:26:17+00:00","lastSeen":"2026-07-15T18:57:38+00:00","ended":false,"distanceKm":72},{"id":"trk-19","threatClass":"drone","points":[{"lat":51.862,"lon":41.5913,"time":"2026-07-15T18:40:42+00:00","location":"Жердевский район","status":"approaching","count":null},{"lat":52.1663,"lon":42.0216,"time":"2026-07-15T19:22:58+00:00","location":"Ржаксинский район","status":"approaching","count":null}],"firstSeen":"2026-07-15T18:40:42+00:00","lastSeen":"2026-07-15T19:22:58+00:00","ended":false,"distanceKm":45},{"id":"trk-21","threatClass":"drone","points":[{"lat":48.0162,"lon":37.8095,"time":"2026-07-15T19:23:09+00:00","location":"ДНР","status":"approaching","count":null},{"lat":47.9514,"lon":37.617,"time":"2026-07-15T19:35:00+00:00","location":"Петровский район Донецк","status":"unknown","count":null}],"firstSeen":"2026-07-15T19:23:09+00:00","lastSeen":"2026-07-15T19:35:00+00:00","ended":false,"distanceKm":16},{"id":"trk-23","threatClass":"drone","points":[{"lat":46.0954,"lon":34.827,"time":"2026-07-15T19:44:45+00:00","location":"Геническая горка","status":"approaching","count":null},{"lat":45.957,"lon":33.8169,"time":"2026-07-15T20:21:14+00:00","location":"Красноперекопск","status":"approaching","count":null}],"firstSeen":"2026-07-15T19:44:45+00:00","lastSeen":"2026-07-15T20:21:14+00:00","ended":false,"distanceKm":79},{"id":"trk-24","threatClass":"drone","points":[{"lat":50.3476,"lon":39.4458,"time":"2026-07-15T19:54:44+00:00","location":"Россошанский район","status":"approaching","count":2},{"lat":51.6465,"lon":38.8104,"time":"2026-07-15T20:36:40+00:00","location":"Семилукский район","status":"approaching","count":null}],"firstSeen":"2026-07-15T19:54:44+00:00","lastSeen":"2026-07-15T20:36:40+00:00","ended":false,"distanceKm":151},{"id":"trk-27","threatClass":"drone","points":[{"lat":49.8881,"lon":40.2257,"time":"2026-07-15T20:36:40+00:00","location":"Богучарский район","status":"approaching","count":null},{"lat":51.0539,"lon":38.9461,"time":"2026-07-15T20:36:40+00:00","location":"Репьевский район","status":"approaching","count":null}],"firstSeen":"2026-07-15T20:36:40+00:00","lastSeen":"2026-07-15T20:36:40+00:00","ended":false,"distanceKm":158},{"id":"trk-28","threatClass":"drone","points":[{"lat":49.7972,"lon":39.7513,"time":"2026-07-15T20:36:40+00:00","location":"Кантемировский район","status":"approaching","count":null},{"lat":49.7991,"lon":41.2631,"time":"2026-07-15T20:37:27+00:00","location":"Верхнедонской район","status":"approaching","count":null},{"lat":49.4953,"lon":42.7518,"time":"2026-07-15T22:02:34+00:00","location":"Серафимовичский район","status":"approaching","count":null},{"lat":49.8794,"lon":43.4464,"time":"2026-07-15T22:04:11+00:00","location":"Фроловский район","status":"approaching","count":null}],"firstSeen":"2026-07-15T20:36:40+00:00","lastSeen":"2026-07-15T22:04:11+00:00","ended":false,"distanceKm":287},{"id":"trk-29","threatClass":"drone","points":[{"lat":50.4605,"lon":39.3894,"time":"2026-07-15T20:38:27+00:00","location":"Ольховатский район","status":"approaching","count":null},{"lat":50.5089,"lon":39.6692,"time":"2026-07-15T20:38:27+00:00","location":"Подгоренский район","status":"approaching","count":null},{"lat":50.728,"lon":40.0393,"time":"2026-07-15T20:38:27+00:00","location":"Павловский район","status":"approaching","count":null},{"lat":51.1725,"lon":39.7173,"time":"2026-07-15T20:56:45+00:00","location":"Лискинский район","status":"approaching","count":null},{"lat":52.3424,"lon":39.7006,"time":"2026-07-15T21:48:20+00:00","location":"Усманский район","status":"approaching","count":null}],"firstSeen":"2026-07-15T20:38:27+00:00","lastSeen":"2026-07-15T21:48:20+00:00","ended":false,"distanceKm":241},{"id":"trk-30","threatClass":"drone","points":[{"lat":52.07,"lon":37.9598,"time":"2026-07-15T20:38:51+00:00","location":"Воловский район","status":"approaching","count":null},{"lat":52.6644,"lon":35.7776,"time":"2026-07-15T20:39:17+00:00","location":"Кромской район","status":"approaching","count":4}],"firstSeen":"2026-07-15T20:38:51+00:00","lastSeen":"2026-07-15T20:39:17+00:00","ended":false,"distanceKm":162},{"id":"trk-31","threatClass":"drone","points":[{"lat":49.7972,"lon":39.7513,"time":"2026-07-15T20:52:58+00:00","location":"Кантемировский район","status":"approaching","count":null},{"lat":50.3476,"lon":39.4458,"time":"2026-07-15T20:52:58+00:00","location":"Россошанский район","status":"approaching","count":null},{"lat":50.4605,"lon":39.3894,"time":"2026-07-15T21:16:32+00:00","location":"Ольховатский район","status":"approaching","count":6},{"lat":51.0588,"lon":40.1363,"time":"2026-07-15T21:34:28+00:00","location":"Бобровский район","status":"approaching","count":null}],"firstSeen":"2026-07-15T20:52:58+00:00","lastSeen":"2026-07-15T21:34:28+00:00","ended":false,"distanceKm":163},{"id":"trk-32","threatClass":"drone","points":[{"lat":50.4092,"lon":41.0154,"time":"2026-07-15T20:56:45+00:00","location":"Калачеевский район","status":"approaching","count":null},{"lat":49.856,"lon":42.447,"time":"2026-07-15T22:02:34+00:00","location":"Кумылженский район","status":"approaching","count":null}],"firstSeen":"2026-07-15T20:56:45+00:00","lastSeen":"2026-07-15T22:02:34+00:00","ended":false,"distanceKm":119},{"id":"trk-33","threatClass":"drone","points":[{"lat":49.2817,"lon":41.7308,"time":"2026-07-15T21:32:07+00:00","location":"Боковский район","status":"approaching","count":null},{"lat":48.6824,"lon":40.4969,"time":"2026-07-15T21:32:07+00:00","location":"Тарасовский район","status":"approaching","count":null}],"firstSeen":"2026-07-15T21:32:07+00:00","lastSeen":"2026-07-15T21:32:07+00:00","ended":false,"distanceKm":112},{"id":"trk-34","threatClass":"drone","points":[{"lat":49.025,"lon":40.2652,"time":"2026-07-15T21:54:25+00:00","location":"Миллеровский район","status":"approaching","count":null},{"lat":49.2817,"lon":41.7308,"time":"2026-07-15T21:54:25+00:00","location":"Боковский район","status":"approaching","count":null},{"lat":50.8187,"lon":43.7258,"time":"2026-07-15T21:55:54+00:00","location":"Еланский район","status":"approaching","count":null}],"firstSeen":"2026-07-15T21:54:25+00:00","lastSeen":"2026-07-15T21:55:54+00:00","ended":false,"distanceKm":333},{"id":"trk-35","threatClass":"drone","points":[{"lat":49.8881,"lon":40.2257,"time":"2026-07-15T21:53:25+00:00","location":"Богучарский район","status":"approaching","count":null},{"lat":49.7972,"lon":39.7513,"time":"2026-07-15T21:53:25+00:00","location":"Кантемировский район","status":"approaching","count":null}],"firstSeen":"2026-07-15T21:53:25+00:00","lastSeen":"2026-07-15T21:53:25+00:00","ended":false,"distanceKm":35},{"id":"trk-36","threatClass":"drone","points":[{"lat":52.8493,"lon":33.966,"time":"2026-07-15T22:24:15+00:00","location":"Трубчевский район","status":"unknown","count":null},{"lat":52.5207,"lon":33.2053,"time":"2026-07-15T22:24:15+00:00","location":"Погарский район","status":"unknown","count":null}],"firstSeen":"2026-07-15T22:24:15+00:00","lastSeen":"2026-07-15T22:24:15+00:00","ended":false,"distanceKm":63},{"id":"trk-37","threatClass":"drone","points":[{"lat":52.5207,"lon":33.2053,"time":"2026-07-15T21:47:55+00:00","location":"Погарский район","status":"approaching","count":null},{"lat":52.9263,"lon":33.4934,"time":"2026-07-15T21:47:55+00:00","location":"Почепский район","status":"approaching","count":null},{"lat":53.4143,"lon":34.8553,"time":"2026-07-15T22:38:54+00:00","location":"Бояновичи","status":"approaching","count":null},{"lat":52.9685,"lon":36.0692,"time":"2026-07-15T23:05:23+00:00","location":"Орёл","status":"approaching","count":null}],"firstSeen":"2026-07-15T21:47:55+00:00","lastSeen":"2026-07-15T23:05:23+00:00","ended":false,"distanceKm":250},{"id":"trk-38","threatClass":"drone","points":[{"lat":50.728,"lon":40.0393,"time":"2026-07-15T21:50:55+00:00","location":"Павловский район","status":"approaching","count":null},{"lat":50.792,"lon":40.5643,"time":"2026-07-15T21:50:55+00:00","location":"Бутурлиновский район","status":"approaching","count":null},{"lat":51.1625,"lon":40.7757,"time":"2026-07-15T22:01:48+00:00","location":"Таловский район","status":"approaching","count":null}],"firstSeen":"2026-07-15T21:50:55+00:00","lastSeen":"2026-07-15T22:01:48+00:00","ended":false,"distanceKm":81},{"id":"trk-39","threatClass":"drone","points":[{"lat":46.0461,"lon":38.1719,"time":"2026-07-15T21:50:56+00:00","location":"Приморск","status":"approaching","count":null},{"lat":45.3636,"lon":36.6115,"time":"2026-07-15T22:23:23+00:00","location":"Республика Крым","status":"unknown","count":null}],"firstSeen":"2026-07-15T21:50:56+00:00","lastSeen":"2026-07-15T22:23:23+00:00","ended":false,"distanceKm":143},{"id":"trk-40","threatClass":"drone","points":[{"lat":48.5883,"lon":44.3931,"time":"2026-07-15T22:18:11+00:00","location":"Михайловский район","status":"approaching","count":null},{"lat":49.5,"lon":44,"time":"2026-07-15T22:56:51+00:00","location":"Волгоградская область","status":"approaching","count":null}],"firstSeen":"2026-07-15T22:18:11+00:00","lastSeen":"2026-07-15T22:56:51+00:00","ended":false,"distanceKm":105},{"id":"trk-43","threatClass":"drone","points":[{"lat":51.5388,"lon":41.4544,"time":"2026-07-15T21:59:38+00:00","location":"Костино-Отделец","status":"unknown","count":null},{"lat":51.6017,"lon":42.001,"time":"2026-07-15T22:17:41+00:00","location":"Алексеевка","status":"unknown","count":null}],"firstSeen":"2026-07-15T21:59:38+00:00","lastSeen":"2026-07-15T22:17:41+00:00","ended":false,"distanceKm":38},{"id":"trk-45","threatClass":"drone","points":[{"lat":50.5415,"lon":42.5508,"time":"2026-07-15T22:03:13+00:00","location":"Новоаннинский район","status":"approaching","count":null},{"lat":50.2226,"lon":42.3203,"time":"2026-07-15T22:03:13+00:00","location":"Алексеевский район","status":"approaching","count":null}],"firstSeen":"2026-07-15T22:03:13+00:00","lastSeen":"2026-07-15T22:03:13+00:00","ended":false,"distanceKm":39},{"id":"trk-46","threatClass":"drone","points":[{"lat":50.1049,"lon":43.7829,"time":"2026-07-15T22:41:57+00:00","location":"Большой Лычак","status":"unknown","count":5},{"lat":49.7646,"lon":43.654,"time":"2026-07-15T23:15:23+00:00","location":"Фролово","status":"approaching","count":null}],"firstSeen":"2026-07-15T22:41:57+00:00","lastSeen":"2026-07-15T23:15:23+00:00","ended":false,"distanceKm":39},{"id":"trk-48","threatClass":"drone","points":[{"lat":51.6608,"lon":39.2003,"time":"2026-07-15T22:12:42+00:00","location":"Воронеж","status":"overhead","count":null},{"lat":51,"lon":40,"time":"2026-07-15T22:45:44+00:00","location":"Воронежская область","status":"approaching","count":null}],"firstSeen":"2026-07-15T22:12:42+00:00","lastSeen":"2026-07-15T22:45:44+00:00","ended":false,"distanceKm":92},{"id":"trk-50","threatClass":"drone","points":[{"lat":51.5333,"lon":46.0344,"time":"2026-07-15T22:27:48+00:00","location":"Саратов","status":"unknown","count":null},{"lat":51.4839,"lon":46.1247,"time":"2026-07-15T22:27:48+00:00","location":"Энгельс","status":"unknown","count":null}],"firstSeen":"2026-07-15T22:27:48+00:00","lastSeen":"2026-07-15T22:27:48+00:00","ended":false,"distanceKm":8},{"id":"trk-51","threatClass":"drone","points":[{"lat":50.7406,"lon":40.7484,"time":"2026-07-15T22:29:25+00:00","location":"Филиппенково","status":"approaching","count":null},{"lat":51.5388,"lon":41.4544,"time":"2026-07-15T23:28:29+00:00","location":"Костино-Отделец","status":"unknown","count":2}],"firstSeen":"2026-07-15T22:29:25+00:00","lastSeen":"2026-07-15T23:28:29+00:00","ended":false,"distanceKm":102},{"id":"trk-52","threatClass":"drone","points":[{"lat":52.7427,"lon":35.3809,"time":"2026-07-15T22:34:52+00:00","location":"Сосковский район","status":"approaching","count":null},{"lat":53.1203,"lon":35.3921,"time":"2026-07-15T23:05:05+00:00","location":"Хотынец","status":"approaching","count":null}],"firstSeen":"2026-07-15T22:34:52+00:00","lastSeen":"2026-07-15T23:05:05+00:00","ended":false,"distanceKm":42},{"id":"trk-53","threatClass":"drone","points":[{"lat":51.8975,"lon":39.7521,"time":"2026-07-15T22:40:55+00:00","location":"Большая Приваловка","status":"approaching","count":null},{"lat":50.1329,"lon":39.8395,"time":"2026-07-15T23:36:58+00:00","location":"Терновка","status":"unknown","count":2}],"firstSeen":"2026-07-15T22:40:55+00:00","lastSeen":"2026-07-15T23:36:58+00:00","ended":false,"distanceKm":196},{"id":"trk-54","threatClass":"drone","points":[{"lat":45.4548,"lon":41.9756,"time":"2026-07-15T23:02:18+00:00","location":"Донское","status":"unknown","count":null},{"lat":45.1325,"lon":42.0263,"time":"2026-07-15T23:02:18+00:00","location":"Михайловск","status":"unknown","count":null},{"lat":45.0445,"lon":41.969,"time":"2026-07-15T23:02:18+00:00","location":"Ставрополь","status":"unknown","count":null}],"firstSeen":"2026-07-15T23:02:18+00:00","lastSeen":"2026-07-15T23:02:18+00:00","ended":false,"distanceKm":47},{"id":"trk-59","threatClass":"drone","points":[{"lat":51.1894,"lon":45.6478,"time":"2026-07-15T23:08:49+00:00","location":"Красноармейский район","status":"approaching","count":null},{"lat":51.3975,"lon":45.0756,"time":"2026-07-15T23:08:49+00:00","location":"Лысогорский район","status":"approaching","count":null}],"firstSeen":"2026-07-15T23:08:49+00:00","lastSeen":"2026-07-15T23:08:49+00:00","ended":false,"distanceKm":46},{"id":"trk-61","threatClass":"drone","points":[{"lat":52.9685,"lon":36.0692,"time":"2026-07-15T23:10:27+00:00","location":"Орел","status":"approaching","count":null},{"lat":53.5985,"lon":37.8191,"time":"2026-07-15T23:11:02+00:00","location":"Тепло-Огаревский район","status":"approaching","count":null}],"firstSeen":"2026-07-15T23:10:27+00:00","lastSeen":"2026-07-15T23:11:02+00:00","ended":false,"distanceKm":136},{"id":"trk-64","threatClass":"drone","points":[{"lat":51.5333,"lon":46.0344,"time":"2026-07-15T23:23:14+00:00","location":"Саратов","status":"overhead","count":null},{"lat":51.4839,"lon":46.1247,"time":"2026-07-16T00:00:04+00:00","location":"Энгельс","status":"shot_down","count":null}],"firstSeen":"2026-07-15T23:23:14+00:00","lastSeen":"2026-07-16T00:00:04+00:00","ended":true,"distanceKm":8},{"id":"trk-66","threatClass":"drone","points":[{"lat":44.9897,"lon":37.2607,"time":"2026-07-15T23:28:23+00:00","location":"Витязево","status":"unknown","count":null},{"lat":45.7814,"lon":39.4902,"time":"2026-07-15T23:28:23+00:00","location":"Анапский район","status":"unknown","count":null}],"firstSeen":"2026-07-15T23:28:23+00:00","lastSeen":"2026-07-15T23:28:23+00:00","ended":false,"distanceKm":195}],"updatedAt":"2026-07-16T00:15:41.012Z"}