{"tracks":[{"id":"trk-1","threatClass":"drone","points":[{"lat":55.7978,"lon":38.8832,"time":"2026-07-19T10:11:39+00:00","location":"Демихово","status":"approaching","count":null},{"lat":55.2677,"lon":36.6925,"time":"2026-07-19T11:01:55+00:00","location":"Московская область","status":"unknown","count":null}],"firstSeen":"2026-07-19T10:11:39+00:00","lastSeen":"2026-07-19T11:01:55+00:00","ended":false,"distanceKm":150},{"id":"trk-2","threatClass":"drone","points":[{"lat":55.7978,"lon":38.8832,"time":"2026-07-19T11:05:24+00:00","location":"Демихово","status":"approaching","count":null},{"lat":57.0591,"lon":37.9645,"time":"2026-07-19T11:06:41+00:00","location":"Калязинский район","status":"approaching","count":null}],"firstSeen":"2026-07-19T11:05:24+00:00","lastSeen":"2026-07-19T11:06:41+00:00","ended":false,"distanceKm":151},{"id":"trk-8","threatClass":"drone","points":[{"lat":53.3413,"lon":35.6035,"time":"2026-07-19T11:04:02+00:00","location":"Знаменский район","status":"approaching","count":null},{"lat":53.8089,"lon":34.8495,"time":"2026-07-19T11:04:34+00:00","location":"Жиздринский район","status":"approaching","count":null}],"firstSeen":"2026-07-19T11:04:02+00:00","lastSeen":"2026-07-19T11:04:34+00:00","ended":false,"distanceKm":72},{"id":"trk-15","threatClass":"drone","points":[{"lat":44.8605,"lon":38.6093,"time":"2026-07-19T13:40:05+00:00","location":"НПЗ Ильский","status":"unknown","count":null},{"lat":44.8828,"lon":38.8255,"time":"2026-07-19T13:40:05+00:00","location":"НПЗ Афипский","status":"unknown","count":null}],"firstSeen":"2026-07-19T13:40:05+00:00","lastSeen":"2026-07-19T13:40:05+00:00","ended":false,"distanceKm":17},{"id":"trk-18","threatClass":"drone","points":[{"lat":55.3843,"lon":36.7235,"time":"2026-07-19T13:58:17+00:00","location":"Наро-Фоминск","status":"approaching","count":null},{"lat":55.6974,"lon":36.2834,"time":"2026-07-19T13:58:17+00:00","location":"Рузский","status":"approaching","count":null}],"firstSeen":"2026-07-19T13:58:17+00:00","lastSeen":"2026-07-19T13:58:17+00:00","ended":false,"distanceKm":44},{"id":"trk-24","threatClass":"drone","points":[{"lat":50.9786,"lon":36.1538,"time":"2026-07-19T17:50:17+00:00","location":"Новенькое","status":"approaching","count":null},{"lat":51.654,"lon":36.0497,"time":"2026-07-19T18:12:37+00:00","location":"Ворошнево","status":"approaching","count":null},{"lat":51.884,"lon":36.3168,"time":"2026-07-19T18:12:37+00:00","location":"Курский район","status":"approaching","count":null}],"firstSeen":"2026-07-19T17:50:17+00:00","lastSeen":"2026-07-19T18:12:37+00:00","ended":false,"distanceKm":107},{"id":"trk-26","threatClass":"drone","points":[{"lat":45.3805,"lon":36.222,"time":"2026-07-19T18:57:40+00:00","location":"Ленинский район","status":"approaching","count":null},{"lat":45.2411,"lon":35.9763,"time":"2026-07-19T18:57:40+00:00","location":"Керченский полуостров","status":"approaching","count":null}],"firstSeen":"2026-07-19T18:57:40+00:00","lastSeen":"2026-07-19T18:57:40+00:00","ended":false,"distanceKm":25},{"id":"trk-28","threatClass":"drone","points":[{"lat":52.5207,"lon":33.2053,"time":"2026-07-19T19:01:59+00:00","location":"Погарский район","status":"unknown","count":null},{"lat":53.3891,"lon":33.0938,"time":"2026-07-19T19:55:30+00:00","location":"Клетнянский район","status":"unknown","count":null}],"firstSeen":"2026-07-19T19:01:59+00:00","lastSeen":"2026-07-19T19:55:30+00:00","ended":false,"distanceKm":97},{"id":"trk-29","threatClass":"drone","points":[{"lat":51.9638,"lon":35.9644,"time":"2026-07-19T19:05:27+00:00","location":"Большое Жирово","status":"approaching","count":null},{"lat":52.2926,"lon":35.821,"time":"2026-07-19T19:05:27+00:00","location":"Фатежский район","status":"approaching","count":null},{"lat":53.1022,"lon":32.4189,"time":"2026-07-19T19:55:30+00:00","location":"Суражский район","status":"unknown","count":null}],"firstSeen":"2026-07-19T19:05:27+00:00","lastSeen":"2026-07-19T19:55:30+00:00","ended":false,"distanceKm":284},{"id":"trk-30","threatClass":"drone","points":[{"lat":49.5008,"lon":40.3006,"time":"2026-07-19T19:11:44+00:00","location":"Щедровка","status":"approaching","count":null},{"lat":49.5896,"lon":40.5547,"time":"2026-07-19T19:11:44+00:00","location":"Чертковский район","status":"approaching","count":null},{"lat":50.0625,"lon":41.2185,"time":"2026-07-19T20:03:39+00:00","location":"Краснофлотское","status":"unknown","count":3}],"firstSeen":"2026-07-19T19:11:44+00:00","lastSeen":"2026-07-19T20:03:39+00:00","ended":false,"distanceKm":92},{"id":"trk-31","threatClass":"drone","points":[{"lat":49.5896,"lon":40.5547,"time":"2026-07-19T19:29:28+00:00","location":"Чертковский район","status":"approaching","count":null},{"lat":50.4605,"lon":39.3894,"time":"2026-07-19T20:09:54+00:00","location":"Ольховатский район","status":"approaching","count":4},{"lat":52.2425,"lon":37.0479,"time":"2026-07-19T20:11:18+00:00","location":"Колпнянский район","status":"approaching","count":null}],"firstSeen":"2026-07-19T19:29:28+00:00","lastSeen":"2026-07-19T20:11:18+00:00","ended":false,"distanceKm":384},{"id":"trk-33","threatClass":"drone","points":[{"lat":50.9786,"lon":36.1538,"time":"2026-07-19T19:39:45+00:00","location":"Новенькое","status":"approaching","count":null},{"lat":51.676,"lon":36.2102,"time":"2026-07-19T20:07:18+00:00","location":"Зорино","status":"approaching","count":null},{"lat":52.4906,"lon":37.0758,"time":"2026-07-19T20:09:10+00:00","location":"Дросково","status":"approaching","count":5}],"firstSeen":"2026-07-19T19:39:45+00:00","lastSeen":"2026-07-19T20:09:10+00:00","ended":false,"distanceKm":186},{"id":"trk-34","threatClass":"drone","points":[{"lat":52.858,"lon":35.1026,"time":"2026-07-19T19:40:21+00:00","location":"Шаблыкинский район","status":"approaching","count":null},{"lat":52.9857,"lon":35.9383,"time":"2026-07-19T20:10:26+00:00","location":"Орловский район","status":"approaching","count":2},{"lat":52.7165,"lon":37.2543,"time":"2026-07-19T20:10:57+00:00","location":"Верховский район","status":"approaching","count":2}],"firstSeen":"2026-07-19T19:40:21+00:00","lastSeen":"2026-07-19T20:10:57+00:00","ended":false,"distanceKm":151},{"id":"trk-35","threatClass":"drone","points":[{"lat":53.1169,"lon":32.871,"time":"2026-07-19T19:55:30+00:00","location":"Мглинский район","status":"unknown","count":null},{"lat":52.5543,"lon":33.2637,"time":"2026-07-19T20:45:37+00:00","location":"Погар","status":"unknown","count":null}],"firstSeen":"2026-07-19T19:55:30+00:00","lastSeen":"2026-07-19T20:45:37+00:00","ended":false,"distanceKm":68},{"id":"trk-37","threatClass":"drone","points":[{"lat":53.6046,"lon":32.6902,"time":"2026-07-19T20:08:31+00:00","location":"Ершичский район","status":"approaching","count":null},{"lat":54.2094,"lon":33.6126,"time":"2026-07-19T21:00:55+00:00","location":"Рославльский район","status":"approaching","count":null},{"lat":54.7905,"lon":34.3736,"time":"2026-07-19T21:00:55+00:00","location":"Угранский район","status":"approaching","count":null}],"firstSeen":"2026-07-19T20:08:31+00:00","lastSeen":"2026-07-19T21:00:55+00:00","ended":false,"distanceKm":172},{"id":"trk-38","threatClass":"drone","points":[{"lat":50.3224,"lon":41.7408,"time":"2026-07-19T20:12:38+00:00","location":"Нехаевский район","status":"approaching","count":null},{"lat":50.2226,"lon":42.3203,"time":"2026-07-19T20:12:38+00:00","location":"Алексеевский район","status":"approaching","count":null}],"firstSeen":"2026-07-19T20:12:38+00:00","lastSeen":"2026-07-19T20:12:38+00:00","ended":false,"distanceKm":43},{"id":"trk-40","threatClass":"drone","points":[{"lat":51.7,"lon":36.2,"time":"2026-07-19T20:16:25+00:00","location":"Курская область","status":"approaching","count":null},{"lat":51.2111,"lon":36.2762,"time":"2026-07-19T20:51:19+00:00","location":"Обоянь","status":"approaching","count":null}],"firstSeen":"2026-07-19T20:16:25+00:00","lastSeen":"2026-07-19T20:51:19+00:00","ended":false,"distanceKm":55},{"id":"trk-41","threatClass":"drone","points":[{"lat":51.9638,"lon":35.9644,"time":"2026-07-19T20:20:28+00:00","location":"Большое Жирово","status":"approaching","count":null},{"lat":52.2926,"lon":35.821,"time":"2026-07-19T20:20:28+00:00","location":"Фатежский район","status":"approaching","count":null},{"lat":52.854,"lon":35.1952,"time":"2026-07-19T20:56:41+00:00","location":"Шаблыкино","status":"unknown","count":null}],"firstSeen":"2026-07-19T20:20:28+00:00","lastSeen":"2026-07-19T20:56:41+00:00","ended":false,"distanceKm":113},{"id":"trk-43","threatClass":"drone","points":[{"lat":50.9786,"lon":36.1538,"time":"2026-07-19T20:38:12+00:00","location":"Новенькое","status":"approaching","count":null},{"lat":51.0108,"lon":37.1089,"time":"2026-07-19T20:39:26+00:00","location":"Холодное","status":"approaching","count":null},{"lat":51.5877,"lon":37.6113,"time":"2026-07-19T21:07:30+00:00","location":"Верхние Апочки","status":"approaching","count":null}],"firstSeen":"2026-07-19T20:38:12+00:00","lastSeen":"2026-07-19T21:07:30+00:00","ended":false,"distanceKm":140},{"id":"trk-44","threatClass":"drone","points":[{"lat":50.7,"lon":37.6,"time":"2026-07-19T20:43:49+00:00","location":"Белгородской области.","status":"approaching","count":null},{"lat":51.6465,"lon":38.8104,"time":"2026-07-19T21:22:15+00:00","location":"Семилукский район","status":"approaching","count":null}],"firstSeen":"2026-07-19T20:43:49+00:00","lastSeen":"2026-07-19T21:22:15+00:00","ended":false,"distanceKm":135},{"id":"trk-45","threatClass":"drone","points":[{"lat":50.7,"lon":37.6,"time":"2026-07-19T20:54:48+00:00","location":"Белгородская область","status":"unknown","count":null},{"lat":51.7304,"lon":36.1926,"time":"2026-07-19T21:27:46+00:00","location":"Курск","status":"approaching","count":null}],"firstSeen":"2026-07-19T20:54:48+00:00","lastSeen":"2026-07-19T21:27:46+00:00","ended":false,"distanceKm":151},{"id":"trk-47","threatClass":"drone","points":[{"lat":52.4208,"lon":42.4608,"time":"2026-07-19T21:12:36+00:00","location":"Васильевка","status":"approaching","count":null},{"lat":51.997,"lon":41.1766,"time":"2026-07-19T21:12:36+00:00","location":"Токаревский район","status":"approaching","count":null}],"firstSeen":"2026-07-19T21:12:36+00:00","lastSeen":"2026-07-19T21:12:36+00:00","ended":false,"distanceKm":99},{"id":"trk-48","threatClass":"drone","points":[{"lat":52.7427,"lon":35.3809,"time":"2026-07-19T21:22:58+00:00","location":"Сосковский район","status":"approaching","count":null},{"lat":52.5094,"lon":35.1457,"time":"2026-07-19T21:24:48+00:00","location":"Дмитровск","status":"unknown","count":3},{"lat":52.3392,"lon":35.3631,"time":"2026-07-19T21:33:20+00:00","location":"Железногорск","status":"approaching","count":null},{"lat":52.2326,"lon":35.4575,"time":"2026-07-19T21:40:54+00:00","location":"Железногорский район","status":"approaching","count":null}],"firstSeen":"2026-07-19T21:22:58+00:00","lastSeen":"2026-07-19T21:40:54+00:00","ended":false,"distanceKm":68},{"id":"trk-51","threatClass":"drone","points":[{"lat":52.3137,"lon":42.5798,"time":"2026-07-19T21:30:45+00:00","location":"Инжавинский район","status":"approaching","count":null},{"lat":51.862,"lon":41.5913,"time":"2026-07-19T21:31:33+00:00","location":"Жердевский район","status":"approaching","count":null},{"lat":51.7502,"lon":40.6662,"time":"2026-07-19T21:32:42+00:00","location":"Эртильский район","status":"approaching","count":null},{"lat":51.4653,"lon":40.1314,"time":"2026-07-19T21:32:42+00:00","location":"Аннинский район","status":"approaching","count":null}],"firstSeen":"2026-07-19T21:30:45+00:00","lastSeen":"2026-07-19T21:32:42+00:00","ended":false,"distanceKm":198},{"id":"trk-52","threatClass":"drone","points":[{"lat":53.1649,"lon":38.2545,"time":"2026-07-19T21:33:34+00:00","location":"Ефремовский район","status":"approaching","count":null},{"lat":54.0221,"lon":37.8625,"time":"2026-07-19T21:33:34+00:00","location":"Киреевский район","status":"approaching","count":null}],"firstSeen":"2026-07-19T21:33:34+00:00","lastSeen":"2026-07-19T21:33:34+00:00","ended":false,"distanceKm":99},{"id":"trk-53","threatClass":"drone","points":[{"lat":54.0576,"lon":38.3597,"time":"2026-07-19T21:33:34+00:00","location":"Новомосковский район","status":"approaching","count":null},{"lat":53.7236,"lon":35.5324,"time":"2026-07-19T21:34:11+00:00","location":"Ульяновский район","status":"approaching","count":null}],"firstSeen":"2026-07-19T21:33:34+00:00","lastSeen":"2026-07-19T21:34:11+00:00","ended":false,"distanceKm":189},{"id":"trk-54","threatClass":"drone","points":[{"lat":54.1731,"lon":39.0747,"time":"2026-07-19T21:34:43+00:00","location":"Михайловский район","status":"approaching","count":null},{"lat":53.3507,"lon":36.7147,"time":"2026-07-19T21:35:22+00:00","location":"Мценский район","status":"approaching","count":null},{"lat":52.6644,"lon":35.7776,"time":"2026-07-19T21:58:28+00:00","location":"Кромской район","status":"approaching","count":null}],"firstSeen":"2026-07-19T21:34:43+00:00","lastSeen":"2026-07-19T21:58:28+00:00","ended":false,"distanceKm":279},{"id":"trk-55","threatClass":"drone","points":[{"lat":52.9685,"lon":36.0692,"time":"2026-07-19T21:36:16+00:00","location":"Орел","status":"approaching","count":null},{"lat":52.4485,"lon":36.2419,"time":"2026-07-19T21:36:16+00:00","location":"Глазуновский район","status":"approaching","count":null},{"lat":52.3932,"lon":36.5399,"time":"2026-07-19T21:36:16+00:00","location":"Малоархангельский район","status":"approaching","count":null},{"lat":52.4109,"lon":37.3745,"time":"2026-07-19T22:04:52+00:00","location":"Ливенский район","status":"approaching","count":null}],"firstSeen":"2026-07-19T21:36:16+00:00","lastSeen":"2026-07-19T22:04:52+00:00","ended":false,"distanceKm":137},{"id":"trk-56","threatClass":"drone","points":[{"lat":52.6765,"lon":36.2816,"time":"2026-07-19T21:36:16+00:00","location":"Свердловский район","status":"approaching","count":null},{"lat":52.9857,"lon":35.9383,"time":"2026-07-19T21:52:41+00:00","location":"Орловский район","status":"overhead","count":null}],"firstSeen":"2026-07-19T21:36:16+00:00","lastSeen":"2026-07-19T21:52:41+00:00","ended":false,"distanceKm":41},{"id":"trk-60","threatClass":"drone","points":[{"lat":52.5094,"lon":35.1457,"time":"2026-07-19T21:50:13+00:00","location":"Дмитровск","status":"unknown","count":5},{"lat":52.8493,"lon":33.966,"time":"2026-07-19T21:51:53+00:00","location":"Трубчевский район","status":"unknown","count":null}],"firstSeen":"2026-07-19T21:50:13+00:00","lastSeen":"2026-07-19T21:51:53+00:00","ended":false,"distanceKm":88},{"id":"trk-61","threatClass":"drone","points":[{"lat":53.1222,"lon":34.9826,"time":"2026-07-19T21:52:08+00:00","location":"Карачев","status":"unknown","count":null},{"lat":51.7304,"lon":36.1926,"time":"2026-07-19T21:52:32+00:00","location":"Курск","status":"approaching","count":null}],"firstSeen":"2026-07-19T21:52:08+00:00","lastSeen":"2026-07-19T21:52:32+00:00","ended":false,"distanceKm":175}],"updatedAt":"2026-07-19T22:06:41.195Z"}