{"tracks":[{"id":"trk-2","threatClass":"drone","points":[{"lat":45.1903,"lon":33.3669,"time":"2026-07-15T08:17:56+00:00","location":"Евпатория","status":"approaching","count":null},{"lat":45.1552,"lon":33.2744,"time":"2026-07-15T08:17:56+00:00","location":"Заозёрное","status":"approaching","count":null},{"lat":45.2079,"lon":33.1531,"time":"2026-07-15T08:17:56+00:00","location":"Витино","status":"approaching","count":null}],"firstSeen":"2026-07-15T08:17:56+00:00","lastSeen":"2026-07-15T08:17:56+00:00","ended":false,"distanceKm":19},{"id":"trk-3","threatClass":"drone","points":[{"lat":45.2614,"lon":38.1281,"time":"2026-07-15T08:19:42+00:00","location":"Славянск-На-Кубани","status":"approaching","count":null},{"lat":45.4324,"lon":37.8219,"time":"2026-07-15T08:36:01+00:00","location":"Славянский район","status":"overhead","count":null}],"firstSeen":"2026-07-15T08:19:42+00:00","lastSeen":"2026-07-15T08:36:01+00:00","ended":false,"distanceKm":31},{"id":"trk-10","threatClass":"drone","points":[{"lat":53.3507,"lon":36.7147,"time":"2026-07-15T15:10:16+00:00","location":"Мценский район","status":"approaching","count":null},{"lat":52.5401,"lon":39.766,"time":"2026-07-15T15:10:50+00:00","location":"Грязинский район","status":"approaching","count":null},{"lat":51.997,"lon":41.1766,"time":"2026-07-15T15:11:21+00:00","location":"Токаревский район","status":"approaching","count":null},{"lat":52.3137,"lon":42.5798,"time":"2026-07-15T15:11:21+00:00","location":"Инжавинский район","status":"approaching","count":null},{"lat":53.9409,"lon":43.1321,"time":"2026-07-15T15:54:53+00:00","location":"Пензенская область","status":"unknown","count":null}],"firstSeen":"2026-07-15T15:10:16+00:00","lastSeen":"2026-07-15T15:54:53+00:00","ended":false,"distanceKm":623},{"id":"trk-15","threatClass":"drone","points":[{"lat":53.3413,"lon":35.6035,"time":"2026-07-15T16:46:01+00:00","location":"Знаменский район","status":"approaching","count":null},{"lat":54.1014,"lon":35.3397,"time":"2026-07-15T17:16:05+00:00","location":"Сухиничский район","status":"approaching","count":null}],"firstSeen":"2026-07-15T16:46:01+00:00","lastSeen":"2026-07-15T17:16:05+00:00","ended":false,"distanceKm":86},{"id":"trk-17","threatClass":"drone","points":[{"lat":51.5333,"lon":46.0344,"time":"2026-07-15T17:17:39+00:00","location":"Саратов","status":"approaching","count":null},{"lat":53.4678,"lon":48.3377,"time":"2026-07-15T17:19:31+00:00","location":"Ульяновская область","status":"unknown","count":null}],"firstSeen":"2026-07-15T17:17:39+00:00","lastSeen":"2026-07-15T17:19:31+00:00","ended":false,"distanceKm":266},{"id":"trk-18","threatClass":"drone","points":[{"lat":51.6608,"lon":39.2003,"time":"2026-07-15T17:18:28+00:00","location":"Воронеж","status":"approaching","count":null},{"lat":51.7502,"lon":40.6662,"time":"2026-07-15T18:04:46+00:00","location":"Эртильский район","status":"approaching","count":null},{"lat":51.997,"lon":41.1766,"time":"2026-07-15T18:05:15+00:00","location":"Токаревский район","status":"approaching","count":null},{"lat":52.1663,"lon":42.0216,"time":"2026-07-15T18:05:15+00:00","location":"Ржаксинский район","status":"approaching","count":null}],"firstSeen":"2026-07-15T17:18:28+00:00","lastSeen":"2026-07-15T18:05:15+00:00","ended":false,"distanceKm":207},{"id":"trk-19","threatClass":"drone","points":[{"lat":52.9745,"lon":44.8696,"time":"2026-07-15T17:20:35+00:00","location":"Пензенский район","status":"approaching","count":null},{"lat":51.1894,"lon":45.6478,"time":"2026-07-15T18:13:43+00:00","location":"Красноармейский район","status":"approaching","count":null}],"firstSeen":"2026-07-15T17:20:35+00:00","lastSeen":"2026-07-15T18:13:43+00:00","ended":false,"distanceKm":205},{"id":"trk-20","threatClass":"drone","points":[{"lat":51.5333,"lon":46.0344,"time":"2026-07-15T17:29:02+00:00","location":"Саратов","status":"unknown","count":null},{"lat":51.4839,"lon":46.1247,"time":"2026-07-15T17:29:02+00:00","location":"Энгельс","status":"unknown","count":null}],"firstSeen":"2026-07-15T17:29:02+00:00","lastSeen":"2026-07-15T17:29:02+00:00","ended":false,"distanceKm":8},{"id":"trk-23","threatClass":"drone","points":[{"lat":47.781,"lon":37.2461,"time":"2026-07-15T18:21:24+00:00","location":"Угледар","status":"unknown","count":null},{"lat":48.0162,"lon":37.8095,"time":"2026-07-15T18:21:24+00:00","location":"ДНР","status":"unknown","count":null}],"firstSeen":"2026-07-15T18:21:24+00:00","lastSeen":"2026-07-15T18:21:24+00:00","ended":false,"distanceKm":49}],"updatedAt":"2026-07-15T18:43:32.236Z"}