{"tracks":[{"id":"trk-4","threatClass":"drone","points":[{"lat":45.0741,"lon":33.8246,"time":"2026-07-22T20:19:34+00:00","location":"Скворцово","status":"unknown","count":null},{"lat":45.1191,"lon":35.4816,"time":"2026-07-22T20:21:01+00:00","location":"Приморский","status":"approaching","count":null}],"firstSeen":"2026-07-22T20:19:34+00:00","lastSeen":"2026-07-22T20:21:01+00:00","ended":false,"distanceKm":130},{"id":"trk-7","threatClass":"drone","points":[{"lat":52.6765,"lon":36.2816,"time":"2026-07-22T21:07:57+00:00","location":"Свердловский район","status":"approaching","count":null},{"lat":51.2136,"lon":39.0706,"time":"2026-07-22T21:08:41+00:00","location":"Острогожский район","status":"approaching","count":null},{"lat":50.4092,"lon":41.0154,"time":"2026-07-22T21:08:41+00:00","location":"Калачеевский район","status":"approaching","count":null}],"firstSeen":"2026-07-22T21:07:57+00:00","lastSeen":"2026-07-22T21:08:41+00:00","ended":false,"distanceKm":414},{"id":"trk-8","threatClass":"drone","points":[{"lat":52.9729,"lon":35.452,"time":"2026-07-22T21:09:12+00:00","location":"Хотынецкий район","status":"approaching","count":null},{"lat":52.858,"lon":35.1026,"time":"2026-07-22T21:44:35+00:00","location":"Шаблыкинский район","status":"approaching","count":2}],"firstSeen":"2026-07-22T21:09:12+00:00","lastSeen":"2026-07-22T21:44:35+00:00","ended":false,"distanceKm":27},{"id":"trk-9","threatClass":"drone","points":[{"lat":52.7427,"lon":35.3809,"time":"2026-07-22T21:09:12+00:00","location":"Сосковский район","status":"approaching","count":null},{"lat":52.9729,"lon":35.452,"time":"2026-07-22T21:43:57+00:00","location":"Хотынецкий район","status":"approaching","count":4},{"lat":53.7236,"lon":35.5324,"time":"2026-07-22T21:45:40+00:00","location":"Ульяновский район","status":"approaching","count":null}],"firstSeen":"2026-07-22T21:09:12+00:00","lastSeen":"2026-07-22T21:45:40+00:00","ended":false,"distanceKm":110},{"id":"trk-10","threatClass":"drone","points":[{"lat":51.5067,"lon":36.6574,"time":"2026-07-22T21:10:57+00:00","location":"Шумаково","status":"approaching","count":null},{"lat":51.2852,"lon":37.1665,"time":"2026-07-22T21:12:20+00:00","location":"Архангельское","status":"approaching","count":null},{"lat":50.3506,"lon":39.6208,"time":"2026-07-22T21:13:56+00:00","location":"Суд-Николаевка","status":"approaching","count":null}],"firstSeen":"2026-07-22T21:10:57+00:00","lastSeen":"2026-07-22T21:13:56+00:00","ended":false,"distanceKm":244},{"id":"trk-14","threatClass":"drone","points":[{"lat":50.6341,"lon":39.8513,"time":"2026-07-22T21:25:13+00:00","location":"Колодежное","status":"approaching","count":null},{"lat":50.9874,"lon":39.4778,"time":"2026-07-22T21:44:46+00:00","location":"Лиски","status":"approaching","count":null},{"lat":51.1116,"lon":39.1591,"time":"2026-07-22T22:27:46+00:00","location":"Урыв-Покровка","status":"approaching","count":null},{"lat":50.7,"lon":37.6,"time":"2026-07-22T22:59:20+00:00","location":"Белгородской области","status":"approaching","count":null}],"firstSeen":"2026-07-22T21:25:13+00:00","lastSeen":"2026-07-22T22:59:20+00:00","ended":false,"distanceKm":192},{"id":"trk-21","threatClass":"drone","points":[{"lat":50.3476,"lon":39.4458,"time":"2026-07-22T21:39:44+00:00","location":"Россошанский район","status":"approaching","count":5},{"lat":49.8881,"lon":40.2257,"time":"2026-07-22T22:14:29+00:00","location":"Богучарский район","status":"approaching","count":null},{"lat":49.856,"lon":42.447,"time":"2026-07-22T22:50:06+00:00","location":"Кумылженский район","status":"approaching","count":null},{"lat":48.5883,"lon":44.3931,"time":"2026-07-22T22:50:06+00:00","location":"Михайловский район","status":"approaching","count":null}],"firstSeen":"2026-07-22T21:39:44+00:00","lastSeen":"2026-07-22T22:50:06+00:00","ended":false,"distanceKm":434},{"id":"trk-22","threatClass":"drone","points":[{"lat":50.5089,"lon":39.6692,"time":"2026-07-22T21:40:33+00:00","location":"Подгоренский район","status":"approaching","count":null},{"lat":50.4605,"lon":39.3894,"time":"2026-07-22T21:40:51+00:00","location":"Ольховатский район","status":"approaching","count":3}],"firstSeen":"2026-07-22T21:40:33+00:00","lastSeen":"2026-07-22T21:40:51+00:00","ended":false,"distanceKm":21},{"id":"trk-24","threatClass":"drone","points":[{"lat":51.2136,"lon":39.0706,"time":"2026-07-22T21:42:51+00:00","location":"Острогожский район","status":"approaching","count":null},{"lat":51.6465,"lon":38.8104,"time":"2026-07-22T21:42:51+00:00","location":"Семилукский район","status":"approaching","count":null},{"lat":52.07,"lon":37.9598,"time":"2026-07-22T21:43:05+00:00","location":"Воловский район","status":"approaching","count":null},{"lat":52.5715,"lon":36.8974,"time":"2026-07-22T21:43:33+00:00","location":"Покровский район","status":"approaching","count":null},{"lat":52.6765,"lon":36.2816,"time":"2026-07-22T21:43:33+00:00","location":"Свердловский район","status":"approaching","count":null},{"lat":52.9857,"lon":35.9383,"time":"2026-07-22T22:09:31+00:00","location":"Орловский район","status":"approaching","count":null},{"lat":54.5207,"lon":35.9735,"time":"2026-07-22T22:50:37+00:00","location":"Бабынинский район","status":"approaching","count":null},{"lat":55.5065,"lon":36.0213,"time":"2026-07-22T22:50:55+00:00","location":"Можайск","status":"approaching","count":2}],"firstSeen":"2026-07-22T21:42:51+00:00","lastSeen":"2026-07-22T22:50:55+00:00","ended":false,"distanceKm":583},{"id":"trk-25","threatClass":"drone","points":[{"lat":50.4092,"lon":41.0154,"time":"2026-07-22T22:41:58+00:00","location":"Калачеевский район","status":"approaching","count":null},{"lat":51.1725,"lon":39.7173,"time":"2026-07-22T22:41:58+00:00","location":"Лискинский район","status":"approaching","count":null}],"firstSeen":"2026-07-22T22:41:58+00:00","lastSeen":"2026-07-22T22:41:58+00:00","ended":false,"distanceKm":125},{"id":"trk-27","threatClass":"drone","points":[{"lat":52.4208,"lon":42.4608,"time":"2026-07-22T22:17:16+00:00","location":"Васильевка","status":"approaching","count":null},{"lat":51.997,"lon":41.1766,"time":"2026-07-22T22:17:16+00:00","location":"Токаревский район","status":"approaching","count":null}],"firstSeen":"2026-07-22T22:17:16+00:00","lastSeen":"2026-07-22T22:17:16+00:00","ended":false,"distanceKm":99},{"id":"trk-29","threatClass":"drone","points":[{"lat":51.6608,"lon":39.2003,"time":"2026-07-22T22:25:46+00:00","location":"Воронеж","status":"overhead","count":null},{"lat":51.6473,"lon":39.6165,"time":"2026-07-22T22:41:58+00:00","location":"Новоусманский район","status":"approaching","count":null},{"lat":51.4653,"lon":40.1314,"time":"2026-07-22T22:41:58+00:00","location":"Аннинский район","status":"approaching","count":null},{"lat":51.0588,"lon":40.1363,"time":"2026-07-22T22:41:58+00:00","location":"Бобровский район","status":"approaching","count":null}],"firstSeen":"2026-07-22T22:25:46+00:00","lastSeen":"2026-07-22T22:41:58+00:00","ended":false,"distanceKm":115},{"id":"trk-32","threatClass":"drone","points":[{"lat":51.644,"lon":39.4107,"time":"2026-07-22T22:34:20+00:00","location":"Новая Усмань","status":"unknown","count":null},{"lat":51.2181,"lon":40.678,"time":"2026-07-22T22:34:20+00:00","location":"Александровка","status":"unknown","count":null},{"lat":49.8088,"lon":41.12,"time":"2026-07-22T23:22:27+00:00","location":"Кукуевский","status":"unknown","count":null}],"firstSeen":"2026-07-22T22:34:20+00:00","lastSeen":"2026-07-22T23:22:27+00:00","ended":false,"distanceKm":260},{"id":"trk-33","threatClass":"drone","points":[{"lat":51.644,"lon":39.4107,"time":"2026-07-22T22:37:00+00:00","location":"Новая Усмань.","status":"unknown","count":null},{"lat":51.1116,"lon":39.1591,"time":"2026-07-22T23:01:34+00:00","location":"Урыв-Покровка","status":"unknown","count":null}],"firstSeen":"2026-07-22T22:37:00+00:00","lastSeen":"2026-07-22T23:01:34+00:00","ended":false,"distanceKm":62},{"id":"trk-34","threatClass":"drone","points":[{"lat":51.3449,"lon":39.5662,"time":"2026-07-22T22:41:58+00:00","location":"Каширский район","status":"approaching","count":null},{"lat":51.2136,"lon":39.0706,"time":"2026-07-22T22:41:58+00:00","location":"Острогожский район","status":"approaching","count":null}],"firstSeen":"2026-07-22T22:41:58+00:00","lastSeen":"2026-07-22T22:41:58+00:00","ended":false,"distanceKm":37},{"id":"trk-35","threatClass":"drone","points":[{"lat":50.2226,"lon":42.3203,"time":"2026-07-22T22:50:06+00:00","location":"Алексеевский район","status":"approaching","count":null},{"lat":50.5415,"lon":42.5508,"time":"2026-07-22T22:50:06+00:00","location":"Новоаннинский район","status":"approaching","count":null}],"firstSeen":"2026-07-22T22:50:06+00:00","lastSeen":"2026-07-22T22:50:06+00:00","ended":false,"distanceKm":39},{"id":"trk-41","threatClass":"drone","points":[{"lat":53.1585,"lon":48.4742,"time":"2026-07-22T23:37:37+00:00","location":"Сызрань","status":"unknown","count":null},{"lat":53.1959,"lon":50.1002,"time":"2026-07-22T23:37:37+00:00","location":"Самара","status":"unknown","count":null}],"firstSeen":"2026-07-22T23:37:37+00:00","lastSeen":"2026-07-22T23:37:37+00:00","ended":false,"distanceKm":108},{"id":"trk-42","threatClass":"drone","points":[{"lat":53.0996,"lon":49.9457,"time":"2026-07-22T23:37:37+00:00","location":"Новокуйбышевск","status":"unknown","count":null},{"lat":53.5099,"lon":49.4189,"time":"2026-07-22T23:37:37+00:00","location":"Тольятти","status":"unknown","count":null}],"firstSeen":"2026-07-22T23:37:37+00:00","lastSeen":"2026-07-22T23:37:37+00:00","ended":false,"distanceKm":58},{"id":"trk-45","threatClass":"drone","points":[{"lat":58.2117,"lon":30.7248,"time":"2026-07-22T23:54:04+00:00","location":"Шимск","status":"unknown","count":null},{"lat":57.9791,"lon":33.2538,"time":"2026-07-22T23:54:04+00:00","location":"Валдай","status":"unknown","count":null}],"firstSeen":"2026-07-22T23:54:04+00:00","lastSeen":"2026-07-22T23:54:04+00:00","ended":false,"distanceKm":151},{"id":"trk-46","threatClass":"drone","points":[{"lat":57.9899,"lon":31.3635,"time":"2026-07-22T23:54:04+00:00","location":"Старая Русса","status":"unknown","count":null},{"lat":58.5215,"lon":31.2755,"time":"2026-07-22T23:54:04+00:00","location":"Великий Новгород","status":"unknown","count":null}],"firstSeen":"2026-07-22T23:54:04+00:00","lastSeen":"2026-07-22T23:54:04+00:00","ended":false,"distanceKm":59},{"id":"trk-47","threatClass":"drone","points":[{"lat":58.2117,"lon":30.7248,"time":"2026-07-22T23:54:34+00:00","location":"Шимск","status":"unknown","count":null},{"lat":57.9791,"lon":33.2538,"time":"2026-07-22T23:54:34+00:00","location":"Валдай","status":"unknown","count":null}],"firstSeen":"2026-07-22T23:54:34+00:00","lastSeen":"2026-07-22T23:54:34+00:00","ended":false,"distanceKm":151},{"id":"trk-48","threatClass":"drone","points":[{"lat":57.9899,"lon":31.3635,"time":"2026-07-22T23:54:34+00:00","location":"Старая Русса","status":"unknown","count":null},{"lat":58.5215,"lon":31.2755,"time":"2026-07-22T23:54:34+00:00","location":"Великий Новгород","status":"unknown","count":null}],"firstSeen":"2026-07-22T23:54:34+00:00","lastSeen":"2026-07-22T23:54:34+00:00","ended":false,"distanceKm":59}],"updatedAt":"2026-07-23T06:23:08.140Z"}