{"tracks":[{"id":"trk-2","threatClass":"drone","points":[{"lat":58.5215,"lon":31.2755,"time":"2026-07-23T23:04:35+00:00","location":"Великий Новгород","status":"overhead","count":null},{"lat":59.3687,"lon":31.0562,"time":"2026-07-23T23:52:00+00:00","location":"Тосненский район","status":"overhead","count":null}],"firstSeen":"2026-07-23T23:04:35+00:00","lastSeen":"2026-07-23T23:52:00+00:00","ended":false,"distanceKm":95},{"id":"trk-3","threatClass":"drone","points":[{"lat":56.5744,"lon":34.8805,"time":"2026-07-23T23:05:29+00:00","location":"Старицкий район","status":"approaching","count":8},{"lat":56.8587,"lon":35.9176,"time":"2026-07-23T23:20:30+00:00","location":"Тверь","status":"shot_down","count":null}],"firstSeen":"2026-07-23T23:05:29+00:00","lastSeen":"2026-07-23T23:20:30+00:00","ended":true,"distanceKm":71},{"id":"trk-5","threatClass":"drone","points":[{"lat":55.6582,"lon":34.7213,"time":"2026-07-23T23:07:38+00:00","location":"Гагаринский район","status":"approaching","count":3},{"lat":56.1264,"lon":34.8164,"time":"2026-07-23T23:43:07+00:00","location":"Зубцовский район","status":"approaching","count":null},{"lat":56.7434,"lon":35.841,"time":"2026-07-23T23:43:44+00:00","location":"Калининский район","status":"approaching","count":null},{"lat":56.8587,"lon":35.9176,"time":"2026-07-23T23:44:43+00:00","location":"Тверь","status":"approaching","count":null}],"firstSeen":"2026-07-23T23:07:38+00:00","lastSeen":"2026-07-23T23:44:43+00:00","ended":false,"distanceKm":159},{"id":"trk-7","threatClass":"drone","points":[{"lat":55.4087,"lon":37.9095,"time":"2026-07-23T23:17:22+00:00","location":"Домодедово","status":"approaching","count":null},{"lat":55.4309,"lon":37.5453,"time":"2026-07-23T23:42:42+00:00","location":"Подольск","status":"approaching","count":null},{"lat":56.6269,"lon":36.6019,"time":"2026-07-23T23:43:07+00:00","location":"Конаковский район","status":"approaching","count":null},{"lat":57.257,"lon":36.2597,"time":"2026-07-23T23:43:07+00:00","location":"Рамешковский район","status":"approaching","count":null}],"firstSeen":"2026-07-23T23:17:22+00:00","lastSeen":"2026-07-23T23:43:07+00:00","ended":false,"distanceKm":242},{"id":"trk-8","threatClass":"drone","points":[{"lat":53.1003,"lon":35.1787,"time":"2026-07-23T23:22:34+00:00","location":"Алымова","status":"approaching","count":null},{"lat":53.1777,"lon":34.6709,"time":"2026-07-23T23:22:34+00:00","location":"Карачевский район","status":"approaching","count":null},{"lat":53,"lon":33.5,"time":"2026-07-23T23:42:37+00:00","location":"Брянская область","status":"approaching","count":null}],"firstSeen":"2026-07-23T23:22:34+00:00","lastSeen":"2026-07-23T23:42:37+00:00","ended":false,"distanceKm":116},{"id":"trk-10","threatClass":"drone","points":[{"lat":56.0104,"lon":37.8462,"time":"2026-07-23T23:40:15+00:00","location":"Пушкино","status":"unknown","count":null},{"lat":55.919,"lon":37.815,"time":"2026-07-23T23:40:15+00:00","location":"Королёв","status":"unknown","count":null},{"lat":55.7774,"lon":37.6542,"time":"2026-07-23T23:59:37+00:00","location":"Красносельский район","status":"unknown","count":null}],"firstSeen":"2026-07-23T23:40:15+00:00","lastSeen":"2026-07-23T23:59:37+00:00","ended":false,"distanceKm":29},{"id":"trk-11","threatClass":"drone","points":[{"lat":55.9206,"lon":37.9916,"time":"2026-07-23T23:40:15+00:00","location":"Щёлково","status":"unknown","count":null},{"lat":56.0061,"lon":38.3835,"time":"2026-07-23T23:40:15+00:00","location":"Черноголовка","status":"unknown","count":null}],"firstSeen":"2026-07-23T23:40:15+00:00","lastSeen":"2026-07-23T23:40:15+00:00","ended":false,"distanceKm":26},{"id":"trk-12","threatClass":"drone","points":[{"lat":55.6582,"lon":34.7213,"time":"2026-07-23T23:43:28+00:00","location":"Гагаринский район","status":"approaching","count":null},{"lat":56.9526,"lon":33.2515,"time":"2026-07-23T23:44:21+00:00","location":"Осташковский район","status":"approaching","count":2}],"firstSeen":"2026-07-23T23:43:28+00:00","lastSeen":"2026-07-23T23:44:21+00:00","ended":false,"distanceKm":170},{"id":"trk-14","threatClass":"drone","points":[{"lat":59.7318,"lon":30.4245,"time":"2026-07-23T23:59:12+00:00","location":"Пушкинский район","status":"unknown","count":null},{"lat":60.0151,"lon":29.7078,"time":"2026-07-23T23:59:37+00:00","location":"Кронштадт","status":"unknown","count":null}],"firstSeen":"2026-07-23T23:59:12+00:00","lastSeen":"2026-07-23T23:59:37+00:00","ended":false,"distanceKm":51},{"id":"trk-15","threatClass":"drone","points":[{"lat":59.9017,"lon":29.7794,"time":"2026-07-23T23:59:37+00:00","location":"Ломоносов","status":"unknown","count":null},{"lat":60.0234,"lon":30.1948,"time":"2026-07-23T23:59:37+00:00","location":"Приморский район","status":"unknown","count":null}],"firstSeen":"2026-07-23T23:59:37+00:00","lastSeen":"2026-07-23T23:59:37+00:00","ended":false,"distanceKm":27},{"id":"trk-17","threatClass":"drone","points":[{"lat":59.9393,"lon":30.2439,"time":"2026-07-23T23:59:37+00:00","location":"Василеостровский район","status":"unknown","count":null},{"lat":59.9546,"lon":31.0384,"time":"2026-07-23T23:59:37+00:00","location":"Морские ворота","status":"unknown","count":null}],"firstSeen":"2026-07-23T23:59:37+00:00","lastSeen":"2026-07-23T23:59:37+00:00","ended":false,"distanceKm":44},{"id":"trk-19","threatClass":"drone","points":[{"lat":53.5985,"lon":37.8191,"time":"2026-07-24T02:53:44+00:00","location":"Тёпло-Огарёвский район","status":"approaching","count":null},{"lat":53.909,"lon":38.1445,"time":"2026-07-24T02:54:14+00:00","location":"Узловский район","status":"approaching","count":null},{"lat":54.0576,"lon":38.3597,"time":"2026-07-24T02:55:00+00:00","location":"Новомосковский район","status":"approaching","count":2}],"firstSeen":"2026-07-24T02:53:44+00:00","lastSeen":"2026-07-24T02:55:00+00:00","ended":false,"distanceKm":62},{"id":"trk-20","threatClass":"drone","points":[{"lat":54.4727,"lon":37.091,"time":"2026-07-24T02:55:43+00:00","location":"Алексинский район","status":"approaching","count":2},{"lat":53.7236,"lon":35.5324,"time":"2026-07-24T02:59:20+00:00","location":"Ульяновский район","status":"approaching","count":null},{"lat":53.8089,"lon":34.8495,"time":"2026-07-24T02:59:20+00:00","location":"Жиздринский район","status":"approaching","count":null},{"lat":53.8631,"lon":34.4489,"time":"2026-07-24T02:59:20+00:00","location":"Людиновский район","status":"approaching","count":null}],"firstSeen":"2026-07-24T02:55:43+00:00","lastSeen":"2026-07-24T02:59:20+00:00","ended":false,"distanceKm":204},{"id":"trk-21","threatClass":"drone","points":[{"lat":54.1014,"lon":35.3397,"time":"2026-07-24T02:59:20+00:00","location":"Сухиничский район","status":"approaching","count":null},{"lat":54.5207,"lon":35.9735,"time":"2026-07-24T02:59:49+00:00","location":"Бабынинский район","status":"approaching","count":3},{"lat":54.9715,"lon":36.0575,"time":"2026-07-24T03:01:05+00:00","location":"Медынский район","status":"approaching","count":null}],"firstSeen":"2026-07-24T02:59:20+00:00","lastSeen":"2026-07-24T03:01:05+00:00","ended":false,"distanceKm":113},{"id":"trk-23","threatClass":"drone","points":[{"lat":55.1964,"lon":34.3311,"time":"2026-07-24T03:02:30+00:00","location":"Вяземский район","status":"approaching","count":null},{"lat":56.9424,"lon":32.452,"time":"2026-07-24T03:02:48+00:00","location":"Пеновский район","status":"approaching","count":null}],"firstSeen":"2026-07-24T03:02:30+00:00","lastSeen":"2026-07-24T03:02:48+00:00","ended":false,"distanceKm":226},{"id":"trk-31","threatClass":"drone","points":[{"lat":44.7971,"lon":33.8119,"time":"2026-07-24T10:01:54+00:00","location":"Маловидное","status":"approaching","count":null},{"lat":44.9613,"lon":34.1043,"time":"2026-07-24T10:24:39+00:00","location":"Фиолент","status":"approaching","count":null}],"firstSeen":"2026-07-24T10:01:54+00:00","lastSeen":"2026-07-24T10:24:39+00:00","ended":false,"distanceKm":29}],"updatedAt":"2026-07-24T10:51:43.219Z"}