{"tracks":[{"id":"trk-1","threatClass":"drone","points":[{"lat":55.9937,"lon":35.9362,"time":"2026-07-18T00:07:08+00:00","location":"Волоколамск","status":"approaching","count":null},{"lat":55.4309,"lon":37.5453,"time":"2026-07-18T00:07:08+00:00","location":"Подольск","status":"approaching","count":null},{"lat":55.5497,"lon":38.1548,"time":"2026-07-18T00:17:31+00:00","location":"Раменское","status":"overhead","count":null},{"lat":54.9656,"lon":39.0277,"time":"2026-07-18T00:50:20+00:00","location":"Луховицы","status":"approaching","count":null}],"firstSeen":"2026-07-18T00:07:08+00:00","lastSeen":"2026-07-18T00:50:20+00:00","ended":false,"distanceKm":245},{"id":"trk-2","threatClass":"drone","points":[{"lat":55.5065,"lon":36.0213,"time":"2026-07-18T00:07:08+00:00","location":"Можайск","status":"approaching","count":null},{"lat":55.9146,"lon":36.8595,"time":"2026-07-18T00:22:14+00:00","location":"Воскресенск","status":"approaching","count":null}],"firstSeen":"2026-07-18T00:07:08+00:00","lastSeen":"2026-07-18T00:22:14+00:00","ended":false,"distanceKm":69},{"id":"trk-3","threatClass":"drone","points":[{"lat":53.9239,"lon":38.6229,"time":"2026-07-18T00:08:23+00:00","location":"Кропотово","status":"unknown","count":null},{"lat":53.8405,"lon":38.6778,"time":"2026-07-18T00:37:42+00:00","location":"Кимовский район","status":"approaching","count":null}],"firstSeen":"2026-07-18T00:08:23+00:00","lastSeen":"2026-07-18T00:37:42+00:00","ended":false,"distanceKm":10},{"id":"trk-5","threatClass":"drone","points":[{"lat":54.5028,"lon":37.0667,"time":"2026-07-18T00:17:05+00:00","location":"Алексин","status":"overhead","count":null},{"lat":54.6938,"lon":38.1602,"time":"2026-07-18T00:53:14+00:00","location":"Венёвский район","status":"approaching","count":null}],"firstSeen":"2026-07-18T00:17:05+00:00","lastSeen":"2026-07-18T00:53:14+00:00","ended":false,"distanceKm":74},{"id":"trk-6","threatClass":"drone","points":[{"lat":55.91,"lon":32.2116,"time":"2026-07-18T00:21:25+00:00","location":"Жарковский район","status":"approaching","count":null},{"lat":56.1264,"lon":34.8164,"time":"2026-07-18T00:21:25+00:00","location":"Зубцовский район","status":"approaching","count":null}],"firstSeen":"2026-07-18T00:21:25+00:00","lastSeen":"2026-07-18T00:21:25+00:00","ended":false,"distanceKm":164},{"id":"trk-7","threatClass":"drone","points":[{"lat":54.0576,"lon":38.3597,"time":"2026-07-18T00:22:41+00:00","location":"Новомосковский район","status":"approaching","count":null},{"lat":55.0939,"lon":38.767,"time":"2026-07-18T00:50:20+00:00","location":"Коломна","status":"approaching","count":null}],"firstSeen":"2026-07-18T00:22:41+00:00","lastSeen":"2026-07-18T00:50:20+00:00","ended":false,"distanceKm":118},{"id":"trk-8","threatClass":"drone","points":[{"lat":55.0542,"lon":40.0815,"time":"2026-07-18T00:32:42+00:00","location":"Болонь","status":"approaching","count":null},{"lat":55.238,"lon":40.0556,"time":"2026-07-18T00:32:42+00:00","location":"Клепиковский район","status":"approaching","count":null},{"lat":55.3815,"lon":39.0529,"time":"2026-07-18T00:32:42+00:00","location":"Егорьевск","status":"approaching","count":null}],"firstSeen":"2026-07-18T00:32:42+00:00","lastSeen":"2026-07-18T00:32:42+00:00","ended":false,"distanceKm":86},{"id":"trk-10","threatClass":"drone","points":[{"lat":55.2463,"lon":40.6698,"time":"2026-07-18T00:46:39+00:00","location":"Великодворский","status":"approaching","count":null},{"lat":55.2842,"lon":40.799,"time":"2026-07-18T00:46:39+00:00","location":"Гусь-Хрустальный район","status":"approaching","count":null},{"lat":57.6964,"lon":40.6575,"time":"2026-07-18T00:47:38+00:00","location":"Ярославская область","status":"unknown","count":null}],"firstSeen":"2026-07-18T00:46:39+00:00","lastSeen":"2026-07-18T00:47:38+00:00","ended":false,"distanceKm":278},{"id":"trk-11","threatClass":"drone","points":[{"lat":54.9397,"lon":41.3952,"time":"2026-07-18T00:49:07+00:00","location":"Касимов","status":"approaching","count":null},{"lat":55.2842,"lon":40.799,"time":"2026-07-18T00:49:07+00:00","location":"Гусь-Хрустальный район","status":"approaching","count":null},{"lat":55.2463,"lon":40.6698,"time":"2026-07-18T00:55:15+00:00","location":"Великодворский","status":"approaching","count":null}],"firstSeen":"2026-07-18T00:49:07+00:00","lastSeen":"2026-07-18T00:55:15+00:00","ended":false,"distanceKm":63},{"id":"trk-22","threatClass":"drone","points":[{"lat":54.2336,"lon":39.0308,"time":"2026-07-18T08:01:56+00:00","location":"Пронский район","status":"approaching","count":null},{"lat":55.238,"lon":40.0556,"time":"2026-07-18T08:02:42+00:00","location":"Клепиковский район","status":"approaching","count":null}],"firstSeen":"2026-07-18T08:01:56+00:00","lastSeen":"2026-07-18T08:02:42+00:00","ended":false,"distanceKm":130}],"updatedAt":"2026-07-18T12:00:47.408Z"}