{"tracks":[{"id":"trk-1","threatClass":"drone","points":[{"lat":55.8781,"lon":36.8714,"time":"2026-07-19T09:56:15+00:00","location":"СНТ Садовод","status":"approaching","count":null},{"lat":55.7446,"lon":38.8489,"time":"2026-07-19T10:11:39+00:00","location":"Орехово-Зуевский район","status":"approaching","count":null}],"firstSeen":"2026-07-19T09:56:15+00:00","lastSeen":"2026-07-19T10:11:39+00:00","ended":false,"distanceKm":124},{"id":"trk-2","threatClass":"drone","points":[{"lat":55.8781,"lon":36.8714,"time":"2026-07-19T09:56:48+00:00","location":"СНТ Садовод","status":"approaching","count":null},{"lat":55.7446,"lon":38.8489,"time":"2026-07-19T10:13:54+00:00","location":"Орехово-Зуевский район","status":"approaching","count":null},{"lat":55.8062,"lon":38.981,"time":"2026-07-19T11:05:24+00:00","location":"Орехово-Зуево","status":"approaching","count":null},{"lat":57.0591,"lon":37.9645,"time":"2026-07-19T11:06:41+00:00","location":"Калязинский район","status":"approaching","count":null}],"firstSeen":"2026-07-19T09:56:48+00:00","lastSeen":"2026-07-19T11:06:41+00:00","ended":false,"distanceKm":288},{"id":"trk-12","threatClass":"drone","points":[{"lat":53.3413,"lon":35.6035,"time":"2026-07-19T11:04:02+00:00","location":"Знаменский район","status":"approaching","count":null},{"lat":53.8089,"lon":34.8495,"time":"2026-07-19T11:04:34+00:00","location":"Жиздринский район","status":"approaching","count":null}],"firstSeen":"2026-07-19T11:04:02+00:00","lastSeen":"2026-07-19T11:04:34+00:00","ended":false,"distanceKm":72},{"id":"trk-19","threatClass":"drone","points":[{"lat":44.8605,"lon":38.6093,"time":"2026-07-19T13:40:05+00:00","location":"НПЗ Ильский","status":"unknown","count":null},{"lat":44.8828,"lon":38.8255,"time":"2026-07-19T13:40:05+00:00","location":"НПЗ Афипский","status":"unknown","count":null}],"firstSeen":"2026-07-19T13:40:05+00:00","lastSeen":"2026-07-19T13:40:05+00:00","ended":false,"distanceKm":17},{"id":"trk-22","threatClass":"drone","points":[{"lat":55.3843,"lon":36.7235,"time":"2026-07-19T13:58:17+00:00","location":"Наро-Фоминск","status":"approaching","count":null},{"lat":55.6974,"lon":36.2834,"time":"2026-07-19T13:58:17+00:00","location":"Рузский","status":"approaching","count":null}],"firstSeen":"2026-07-19T13:58:17+00:00","lastSeen":"2026-07-19T13:58:17+00:00","ended":false,"distanceKm":44},{"id":"trk-28","threatClass":"drone","points":[{"lat":50.9786,"lon":36.1538,"time":"2026-07-19T17:50:17+00:00","location":"Новенькое","status":"approaching","count":null},{"lat":51.654,"lon":36.0497,"time":"2026-07-19T18:12:37+00:00","location":"Ворошнево","status":"approaching","count":null},{"lat":51.884,"lon":36.3168,"time":"2026-07-19T18:12:37+00:00","location":"Курский район","status":"approaching","count":null}],"firstSeen":"2026-07-19T17:50:17+00:00","lastSeen":"2026-07-19T18:12:37+00:00","ended":false,"distanceKm":107},{"id":"trk-30","threatClass":"drone","points":[{"lat":45.3805,"lon":36.222,"time":"2026-07-19T18:57:40+00:00","location":"Ленинский район","status":"approaching","count":null},{"lat":45.2411,"lon":35.9763,"time":"2026-07-19T18:57:40+00:00","location":"Керченский полуостров","status":"approaching","count":null}],"firstSeen":"2026-07-19T18:57:40+00:00","lastSeen":"2026-07-19T18:57:40+00:00","ended":false,"distanceKm":25},{"id":"trk-32","threatClass":"drone","points":[{"lat":52.5207,"lon":33.2053,"time":"2026-07-19T19:01:59+00:00","location":"Погарский район","status":"unknown","count":null},{"lat":53.3891,"lon":33.0938,"time":"2026-07-19T19:55:30+00:00","location":"Клетнянский район","status":"unknown","count":null}],"firstSeen":"2026-07-19T19:01:59+00:00","lastSeen":"2026-07-19T19:55:30+00:00","ended":false,"distanceKm":97},{"id":"trk-33","threatClass":"drone","points":[{"lat":51.9638,"lon":35.9644,"time":"2026-07-19T19:05:27+00:00","location":"Большое Жирово","status":"approaching","count":null},{"lat":52.2926,"lon":35.821,"time":"2026-07-19T19:05:27+00:00","location":"Фатежский район","status":"approaching","count":null},{"lat":53.1022,"lon":32.4189,"time":"2026-07-19T19:55:30+00:00","location":"Суражский район","status":"unknown","count":null}],"firstSeen":"2026-07-19T19:05:27+00:00","lastSeen":"2026-07-19T19:55:30+00:00","ended":false,"distanceKm":284},{"id":"trk-34","threatClass":"drone","points":[{"lat":49.5008,"lon":40.3006,"time":"2026-07-19T19:11:44+00:00","location":"Щедровка","status":"approaching","count":null},{"lat":49.5896,"lon":40.5547,"time":"2026-07-19T19:11:44+00:00","location":"Чертковский район","status":"approaching","count":null},{"lat":50.0625,"lon":41.2185,"time":"2026-07-19T20:03:39+00:00","location":"Краснофлотское","status":"unknown","count":3}],"firstSeen":"2026-07-19T19:11:44+00:00","lastSeen":"2026-07-19T20:03:39+00:00","ended":false,"distanceKm":92},{"id":"trk-35","threatClass":"drone","points":[{"lat":49.5896,"lon":40.5547,"time":"2026-07-19T19:29:28+00:00","location":"Чертковский район","status":"approaching","count":null},{"lat":50.4605,"lon":39.3894,"time":"2026-07-19T20:09:54+00:00","location":"Ольховатский район","status":"approaching","count":4},{"lat":52.2425,"lon":37.0479,"time":"2026-07-19T20:11:18+00:00","location":"Колпнянский район","status":"approaching","count":null}],"firstSeen":"2026-07-19T19:29:28+00:00","lastSeen":"2026-07-19T20:11:18+00:00","ended":false,"distanceKm":384},{"id":"trk-37","threatClass":"drone","points":[{"lat":50.9786,"lon":36.1538,"time":"2026-07-19T19:39:45+00:00","location":"Новенькое","status":"approaching","count":null},{"lat":51.676,"lon":36.2102,"time":"2026-07-19T20:07:18+00:00","location":"Зорино","status":"approaching","count":null},{"lat":52.4906,"lon":37.0758,"time":"2026-07-19T20:09:10+00:00","location":"Дросково","status":"approaching","count":5}],"firstSeen":"2026-07-19T19:39:45+00:00","lastSeen":"2026-07-19T20:09:10+00:00","ended":false,"distanceKm":186},{"id":"trk-38","threatClass":"drone","points":[{"lat":52.858,"lon":35.1026,"time":"2026-07-19T19:40:21+00:00","location":"Шаблыкинский район","status":"approaching","count":null},{"lat":52.9857,"lon":35.9383,"time":"2026-07-19T20:10:26+00:00","location":"Орловский район","status":"approaching","count":2},{"lat":52.7165,"lon":37.2543,"time":"2026-07-19T20:10:57+00:00","location":"Верховский район","status":"approaching","count":2}],"firstSeen":"2026-07-19T19:40:21+00:00","lastSeen":"2026-07-19T20:10:57+00:00","ended":false,"distanceKm":151},{"id":"trk-39","threatClass":"drone","points":[{"lat":53.1169,"lon":32.871,"time":"2026-07-19T19:55:30+00:00","location":"Мглинский район","status":"unknown","count":null},{"lat":52.5543,"lon":33.2637,"time":"2026-07-19T20:45:37+00:00","location":"Погар","status":"unknown","count":null}],"firstSeen":"2026-07-19T19:55:30+00:00","lastSeen":"2026-07-19T20:45:37+00:00","ended":false,"distanceKm":68},{"id":"trk-41","threatClass":"drone","points":[{"lat":53.6046,"lon":32.6902,"time":"2026-07-19T20:08:31+00:00","location":"Ершичский район","status":"approaching","count":null},{"lat":54.2094,"lon":33.6126,"time":"2026-07-19T21:00:55+00:00","location":"Рославльский район","status":"approaching","count":null},{"lat":54.7905,"lon":34.3736,"time":"2026-07-19T21:00:55+00:00","location":"Угранский район","status":"approaching","count":null}],"firstSeen":"2026-07-19T20:08:31+00:00","lastSeen":"2026-07-19T21:00:55+00:00","ended":false,"distanceKm":172},{"id":"trk-42","threatClass":"drone","points":[{"lat":50.3224,"lon":41.7408,"time":"2026-07-19T20:12:38+00:00","location":"Нехаевский район","status":"approaching","count":null},{"lat":50.2226,"lon":42.3203,"time":"2026-07-19T20:12:38+00:00","location":"Алексеевский район","status":"approaching","count":null}],"firstSeen":"2026-07-19T20:12:38+00:00","lastSeen":"2026-07-19T20:12:38+00:00","ended":false,"distanceKm":43},{"id":"trk-44","threatClass":"drone","points":[{"lat":51.7,"lon":36.2,"time":"2026-07-19T20:16:25+00:00","location":"Курская область","status":"approaching","count":null},{"lat":51.2111,"lon":36.2762,"time":"2026-07-19T20:51:19+00:00","location":"Обоянь","status":"approaching","count":null}],"firstSeen":"2026-07-19T20:16:25+00:00","lastSeen":"2026-07-19T20:51:19+00:00","ended":false,"distanceKm":55},{"id":"trk-45","threatClass":"drone","points":[{"lat":51.9638,"lon":35.9644,"time":"2026-07-19T20:20:28+00:00","location":"Большое Жирово","status":"approaching","count":null},{"lat":52.2926,"lon":35.821,"time":"2026-07-19T20:20:28+00:00","location":"Фатежский район","status":"approaching","count":null},{"lat":52.854,"lon":35.1952,"time":"2026-07-19T20:56:41+00:00","location":"Шаблыкино","status":"unknown","count":null}],"firstSeen":"2026-07-19T20:20:28+00:00","lastSeen":"2026-07-19T20:56:41+00:00","ended":false,"distanceKm":113},{"id":"trk-47","threatClass":"drone","points":[{"lat":50.9786,"lon":36.1538,"time":"2026-07-19T20:38:12+00:00","location":"Новенькое","status":"approaching","count":null},{"lat":51.0108,"lon":37.1089,"time":"2026-07-19T20:39:26+00:00","location":"Холодное","status":"approaching","count":null}],"firstSeen":"2026-07-19T20:38:12+00:00","lastSeen":"2026-07-19T20:39:26+00:00","ended":false,"distanceKm":67}],"updatedAt":"2026-07-19T21:03:23.041Z"}