{"tracks":[{"id":"trk-1","threatClass":"drone","points":[{"lat":54.1631,"lon":33.2335,"time":"2026-07-23T20:55:33+00:00","location":"Смоленская АЭС","status":"approaching","count":null},{"lat":54.8057,"lon":36.9462,"time":"2026-07-23T20:56:55+00:00","location":"Баранцево","status":"approaching","count":2}],"firstSeen":"2026-07-23T20:55:33+00:00","lastSeen":"2026-07-23T20:56:55+00:00","ended":false,"distanceKm":250},{"id":"trk-2","threatClass":"drone","points":[{"lat":52.8874,"lon":33.3211,"time":"2026-07-23T20:54:13+00:00","location":"Вяльки","status":"approaching","count":null},{"lat":53,"lon":33.5,"time":"2026-07-23T20:56:07+00:00","location":"Брянская область.","status":"approaching","count":2},{"lat":52.8613,"lon":36.5742,"time":"2026-07-23T20:58:06+00:00","location":"Ломовое","status":"approaching","count":null}],"firstSeen":"2026-07-23T20:54:13+00:00","lastSeen":"2026-07-23T20:58:06+00:00","ended":false,"distanceKm":224},{"id":"trk-3","threatClass":"drone","points":[{"lat":55.3848,"lon":32.3545,"time":"2026-07-23T20:58:32+00:00","location":"Духовщинский район","status":"unknown","count":null},{"lat":55.5805,"lon":32.4096,"time":"2026-07-23T21:33:17+00:00","location":"Озёрный","status":"approaching","count":null},{"lat":55.8132,"lon":32.282,"time":"2026-07-23T21:47:52+00:00","location":"Кривая","status":"unknown","count":null},{"lat":55.91,"lon":32.2116,"time":"2026-07-23T22:27:44+00:00","location":"Жарковский район","status":"approaching","count":null}],"firstSeen":"2026-07-23T20:58:32+00:00","lastSeen":"2026-07-23T22:27:44+00:00","ended":false,"distanceKm":61},{"id":"trk-4","threatClass":"drone","points":[{"lat":53,"lon":33.5,"time":"2026-07-23T20:58:43+00:00","location":"Брянская область","status":"approaching","count":null},{"lat":52.3161,"lon":34.0759,"time":"2026-07-23T21:50:35+00:00","location":"Суземка","status":"unknown","count":null}],"firstSeen":"2026-07-23T20:58:43+00:00","lastSeen":"2026-07-23T21:50:35+00:00","ended":false,"distanceKm":85},{"id":"trk-5","threatClass":"drone","points":[{"lat":54.1121,"lon":33.293,"time":"2026-07-23T21:06:35+00:00","location":"Екимовичи","status":"approaching","count":null},{"lat":55.3848,"lon":32.3545,"time":"2026-07-23T21:33:17+00:00","location":"Духовщинский район","status":"approaching","count":null},{"lat":55.8132,"lon":32.282,"time":"2026-07-23T22:27:44+00:00","location":"Кривая","status":"approaching","count":null}],"firstSeen":"2026-07-23T21:06:35+00:00","lastSeen":"2026-07-23T22:27:44+00:00","ended":false,"distanceKm":202},{"id":"trk-6","threatClass":"drone","points":[{"lat":53.9675,"lon":34.8171,"time":"2026-07-23T21:04:56+00:00","location":"Новослободск","status":"approaching","count":null},{"lat":55.2351,"lon":33.4911,"time":"2026-07-23T21:38:00+00:00","location":"Николо-Погорелое","status":"approaching","count":10}],"firstSeen":"2026-07-23T21:04:56+00:00","lastSeen":"2026-07-23T21:38:00+00:00","ended":false,"distanceKm":165},{"id":"trk-7","threatClass":"drone","points":[{"lat":55.9937,"lon":35.9362,"time":"2026-07-23T21:07:19+00:00","location":"Волоколамск","status":"approaching","count":null},{"lat":55.3843,"lon":36.7235,"time":"2026-07-23T21:07:19+00:00","location":"Наро-Фоминск","status":"approaching","count":null},{"lat":54.5293,"lon":36.2754,"time":"2026-07-23T22:18:03+00:00","location":"Калуга","status":"approaching","count":null}],"firstSeen":"2026-07-23T21:07:19+00:00","lastSeen":"2026-07-23T22:18:03+00:00","ended":false,"distanceKm":183},{"id":"trk-8","threatClass":"drone","points":[{"lat":54.5983,"lon":33.1042,"time":"2026-07-23T21:09:59+00:00","location":"Демщино","status":"approaching","count":null},{"lat":54.5275,"lon":33.3509,"time":"2026-07-23T21:09:59+00:00","location":"Ельнинский район","status":"approaching","count":null},{"lat":54.1517,"lon":33.2881,"time":"2026-07-23T21:19:42+00:00","location":"Десногорск","status":"unknown","count":null}],"firstSeen":"2026-07-23T21:09:59+00:00","lastSeen":"2026-07-23T21:19:42+00:00","ended":false,"distanceKm":60},{"id":"trk-9","threatClass":"drone","points":[{"lat":45.2079,"lon":33.1531,"time":"2026-07-23T21:12:12+00:00","location":"Витино","status":"approaching","count":null},{"lat":45.1552,"lon":33.2744,"time":"2026-07-23T21:12:12+00:00","location":"Заозёрное","status":"approaching","count":null},{"lat":45.5194,"lon":34.5932,"time":"2026-07-23T21:12:12+00:00","location":"Уютное","status":"approaching","count":null}],"firstSeen":"2026-07-23T21:12:12+00:00","lastSeen":"2026-07-23T21:12:12+00:00","ended":false,"distanceKm":122},{"id":"trk-10","threatClass":"drone","points":[{"lat":55.8489,"lon":33.0483,"time":"2026-07-23T21:15:28+00:00","location":"Бельский район","status":"approaching","count":null},{"lat":56.2026,"lon":33.4782,"time":"2026-07-23T21:15:28+00:00","location":"Оленинский район","status":"approaching","count":null},{"lat":57.462,"lon":33.6489,"time":"2026-07-23T21:44:15+00:00","location":"Фировский район","status":"approaching","count":null}],"firstSeen":"2026-07-23T21:15:28+00:00","lastSeen":"2026-07-23T21:44:15+00:00","ended":false,"distanceKm":188},{"id":"trk-11","threatClass":"drone","points":[{"lat":52.6605,"lon":37.9922,"time":"2026-07-23T21:15:55+00:00","location":"Измалковский район","status":"approaching","count":null},{"lat":52.7165,"lon":37.2543,"time":"2026-07-23T21:16:21+00:00","location":"Верховский район","status":"approaching","count":null},{"lat":53.3507,"lon":36.7147,"time":"2026-07-23T21:16:21+00:00","location":"Мценский район","status":"approaching","count":null},{"lat":53.7236,"lon":35.5324,"time":"2026-07-23T21:16:58+00:00","location":"Ульяновский район","status":"approaching","count":null},{"lat":54.1014,"lon":35.3397,"time":"2026-07-23T21:16:58+00:00","location":"Сухиничский район","status":"approaching","count":null},{"lat":55.2222,"lon":32.8025,"time":"2026-07-23T21:17:18+00:00","location":"Ярцевский район","status":"approaching","count":null},{"lat":55.91,"lon":32.2116,"time":"2026-07-23T21:45:50+00:00","location":"Жарковский район","status":"approaching","count":6},{"lat":56.7712,"lon":33.4753,"time":"2026-07-23T22:39:40+00:00","location":"Селижаровский район","status":"approaching","count":null},{"lat":56.5744,"lon":34.8805,"time":"2026-07-23T23:05:29+00:00","location":"Старицкий район","status":"approaching","count":8},{"lat":56.8587,"lon":35.9176,"time":"2026-07-23T23:20:30+00:00","location":"Тверь","status":"shot_down","count":null}],"firstSeen":"2026-07-23T21:15:55+00:00","lastSeen":"2026-07-23T23:20:30+00:00","ended":true,"distanceKm":835},{"id":"trk-12","threatClass":"drone","points":[{"lat":55.2008,"lon":33.4303,"time":"2026-07-23T21:17:18+00:00","location":"Сафоновский район","status":"approaching","count":null},{"lat":54.5275,"lon":33.3509,"time":"2026-07-23T21:17:34+00:00","location":"Ельнинский район","status":"approaching","count":null},{"lat":54.2094,"lon":33.6126,"time":"2026-07-23T21:17:47+00:00","location":"Рославльский район","status":"overhead","count":null},{"lat":53.6046,"lon":32.6902,"time":"2026-07-23T21:49:16+00:00","location":"Ершичский район","status":"approaching","count":null}],"firstSeen":"2026-07-23T21:17:18+00:00","lastSeen":"2026-07-23T21:49:16+00:00","ended":false,"distanceKm":205},{"id":"trk-13","threatClass":"drone","points":[{"lat":54.7905,"lon":34.3736,"time":"2026-07-23T21:17:34+00:00","location":"Угранский район","status":"approaching","count":null},{"lat":54.8479,"lon":33.3234,"time":"2026-07-23T21:46:35+00:00","location":"Дорогобужский район","status":"approaching","count":null},{"lat":54.6517,"lon":32.7538,"time":"2026-07-23T21:47:27+00:00","location":"Глинковский район","status":"approaching","count":5},{"lat":54.5576,"lon":31.4654,"time":"2026-07-23T21:47:44+00:00","location":"Краснинский район","status":"approaching","count":4}],"firstSeen":"2026-07-23T21:17:34+00:00","lastSeen":"2026-07-23T21:47:44+00:00","ended":false,"distanceKm":194},{"id":"trk-18","threatClass":"drone","points":[{"lat":56.7434,"lon":35.841,"time":"2026-07-23T21:37:34+00:00","location":"Калининский район","status":"approaching","count":null},{"lat":56.8587,"lon":35.9176,"time":"2026-07-23T21:38:37+00:00","location":"Тверь","status":"approaching","count":null}],"firstSeen":"2026-07-23T21:37:34+00:00","lastSeen":"2026-07-23T21:38:37+00:00","ended":false,"distanceKm":14},{"id":"trk-19","threatClass":"drone","points":[{"lat":52.854,"lon":35.1952,"time":"2026-07-23T21:38:42+00:00","location":"Шаблыкино","status":"unknown","count":null},{"lat":52.8493,"lon":33.966,"time":"2026-07-23T22:11:12+00:00","location":"Трубчевский район","status":"approaching","count":null}],"firstSeen":"2026-07-23T21:38:42+00:00","lastSeen":"2026-07-23T22:11:12+00:00","ended":false,"distanceKm":83},{"id":"trk-21","threatClass":"drone","points":[{"lat":53.9435,"lon":36.7279,"time":"2026-07-23T21:41:25+00:00","location":"Одоевский район","status":"approaching","count":null},{"lat":53.2413,"lon":37.7558,"time":"2026-07-23T21:41:43+00:00","location":"Каменский район","status":"approaching","count":null},{"lat":53.0017,"lon":38.2232,"time":"2026-07-23T21:42:30+00:00","location":"Становлянский район","status":"approaching","count":null}],"firstSeen":"2026-07-23T21:41:25+00:00","lastSeen":"2026-07-23T21:42:30+00:00","ended":false,"distanceKm":144},{"id":"trk-22","threatClass":"drone","points":[{"lat":56.7712,"lon":33.4753,"time":"2026-07-23T21:44:15+00:00","location":"Селижаровский район","status":"approaching","count":null},{"lat":56.4348,"lon":32.2637,"time":"2026-07-23T21:44:52+00:00","location":"Андреапольский район","status":"approaching","count":null},{"lat":56.1007,"lon":31.8429,"time":"2026-07-23T22:42:31+00:00","location":"Западнодвинский район","status":"overhead","count":null}],"firstSeen":"2026-07-23T21:44:15+00:00","lastSeen":"2026-07-23T22:42:31+00:00","ended":false,"distanceKm":128},{"id":"trk-23","threatClass":"drone","points":[{"lat":53.9338,"lon":35.6637,"time":"2026-07-23T21:44:32+00:00","location":"Волконское","status":"approaching","count":null},{"lat":53.9673,"lon":38.3377,"time":"2026-07-23T22:22:20+00:00","location":"Донской","status":"unknown","count":null}],"firstSeen":"2026-07-23T21:44:32+00:00","lastSeen":"2026-07-23T22:22:20+00:00","ended":false,"distanceKm":175},{"id":"trk-24","threatClass":"drone","points":[{"lat":45.8305,"lon":40.1693,"time":"2026-07-23T21:45:19+00:00","location":"Тихорецкий район","status":"approaching","count":null},{"lat":45.8839,"lon":39.6999,"time":"2026-07-23T21:45:19+00:00","location":"Павловский район","status":"approaching","count":null},{"lat":45.9245,"lon":39.0083,"time":"2026-07-23T21:45:19+00:00","location":"Каневской район","status":"approaching","count":null}],"firstSeen":"2026-07-23T21:45:19+00:00","lastSeen":"2026-07-23T21:45:19+00:00","ended":false,"distanceKm":91},{"id":"trk-26","threatClass":"drone","points":[{"lat":56.2516,"lon":34.2875,"time":"2026-07-23T21:45:25+00:00","location":"Торопецкий район","status":"approaching","count":null},{"lat":55.2008,"lon":33.4303,"time":"2026-07-23T21:46:35+00:00","location":"Сафоновский район","status":"approaching","count":null},{"lat":54.2094,"lon":33.6126,"time":"2026-07-23T22:39:26+00:00","location":"Рославльский район","status":"approaching","count":5}],"firstSeen":"2026-07-23T21:45:25+00:00","lastSeen":"2026-07-23T22:39:26+00:00","ended":false,"distanceKm":239},{"id":"trk-27","threatClass":"drone","points":[{"lat":54.3597,"lon":32.1169,"time":"2026-07-23T21:48:55+00:00","location":"Починковский район","status":"approaching","count":null},{"lat":54.5275,"lon":33.3509,"time":"2026-07-23T21:48:55+00:00","location":"Ельнинский район","status":"approaching","count":null},{"lat":54.0967,"lon":33.7911,"time":"2026-07-23T21:49:36+00:00","location":"Куйбышевский район","status":"approaching","count":8},{"lat":54.1014,"lon":35.3397,"time":"2026-07-23T21:50:03+00:00","location":"Сухиничский район","status":"approaching","count":null},{"lat":54.9155,"lon":37.4196,"time":"2026-07-23T22:34:39+00:00","location":"Серпухов","status":"approaching","count":null},{"lat":55.4087,"lon":37.9095,"time":"2026-07-23T23:17:22+00:00","location":"Домодедово","status":"approaching","count":null}],"firstSeen":"2026-07-23T21:48:55+00:00","lastSeen":"2026-07-23T23:17:22+00:00","ended":false,"distanceKm":464},{"id":"trk-28","threatClass":"drone","points":[{"lat":45.4548,"lon":41.9756,"time":"2026-07-23T22:09:21+00:00","location":"Донское","status":"approaching","count":null},{"lat":45.1325,"lon":42.0263,"time":"2026-07-23T22:09:21+00:00","location":"Михайловск","status":"approaching","count":null},{"lat":44.7819,"lon":44.1664,"time":"2026-07-23T22:09:21+00:00","location":"Будённовск","status":"approaching","count":null}],"firstSeen":"2026-07-23T22:09:21+00:00","lastSeen":"2026-07-23T22:09:21+00:00","ended":false,"distanceKm":209},{"id":"trk-29","threatClass":"missile","points":[{"lat":52.8493,"lon":33.966,"time":"2026-07-23T22:25:29+00:00","location":"Трубчевский район","status":"unknown","count":null},{"lat":52.8271,"lon":34.4994,"time":"2026-07-23T22:42:47+00:00","location":"Навля","status":"approaching","count":null}],"firstSeen":"2026-07-23T22:25:29+00:00","lastSeen":"2026-07-23T22:42:47+00:00","ended":false,"distanceKm":36},{"id":"trk-32","threatClass":"missile","points":[{"lat":52.8847,"lon":34.5382,"time":"2026-07-23T22:32:38+00:00","location":"Муравлевка","status":"unknown","count":null},{"lat":52.891,"lon":34.4097,"time":"2026-07-23T22:38:10+00:00","location":"Навлинский район","status":"approaching","count":null}],"firstSeen":"2026-07-23T22:32:38+00:00","lastSeen":"2026-07-23T22:38:10+00:00","ended":false,"distanceKm":9},{"id":"trk-33","threatClass":"drone","points":[{"lat":53.7845,"lon":39.2369,"time":"2026-07-23T22:33:54+00:00","location":"Скопинский район","status":"approaching","count":null},{"lat":54.4778,"lon":41.1858,"time":"2026-07-23T23:06:40+00:00","location":"Шиловский район","status":"approaching","count":null}],"firstSeen":"2026-07-23T22:33:54+00:00","lastSeen":"2026-07-23T23:06:40+00:00","ended":false,"distanceKm":149},{"id":"trk-36","threatClass":"drone","points":[{"lat":55.6582,"lon":34.7213,"time":"2026-07-23T22:39:09+00:00","location":"Гагаринский район","status":"approaching","count":null},{"lat":55.6168,"lon":34.1262,"time":"2026-07-23T22:39:09+00:00","location":"Новодугинский район","status":"approaching","count":null},{"lat":56.6428,"lon":32.2763,"time":"2026-07-23T22:39:40+00:00","location":"Нелидовский район","status":"approaching","count":null}],"firstSeen":"2026-07-23T22:39:09+00:00","lastSeen":"2026-07-23T22:39:40+00:00","ended":false,"distanceKm":199},{"id":"trk-37","threatClass":"drone","points":[{"lat":55.8489,"lon":33.0483,"time":"2026-07-23T22:39:55+00:00","location":"Бельский район","status":"approaching","count":3},{"lat":55.2222,"lon":32.8025,"time":"2026-07-23T22:41:32+00:00","location":"Ярцевский район","status":"overhead","count":null}],"firstSeen":"2026-07-23T22:39:55+00:00","lastSeen":"2026-07-23T22:41:32+00:00","ended":false,"distanceKm":71},{"id":"trk-38","threatClass":"drone","points":[{"lat":57.6806,"lon":31.2685,"time":"2026-07-23T22:50:37+00:00","location":"Старорусский район","status":"approaching","count":2},{"lat":56.9526,"lon":33.2515,"time":"2026-07-23T23:44:21+00:00","location":"Осташковский район","status":"approaching","count":2}],"firstSeen":"2026-07-23T22:50:37+00:00","lastSeen":"2026-07-23T23:44:21+00:00","ended":false,"distanceKm":144},{"id":"trk-40","threatClass":"drone","points":[{"lat":59.7318,"lon":30.4245,"time":"2026-07-23T22:48:06+00:00","location":"Пушкинский район","status":"unknown","count":null},{"lat":60.3572,"lon":30.6743,"time":"2026-07-23T22:48:06+00:00","location":"Всеволожский район","status":"unknown","count":null}],"firstSeen":"2026-07-23T22:48:06+00:00","lastSeen":"2026-07-23T22:48:06+00:00","ended":false,"distanceKm":71},{"id":"trk-44","threatClass":"drone","points":[{"lat":58.5215,"lon":31.2755,"time":"2026-07-23T23:04:35+00:00","location":"Великий Новгород","status":"overhead","count":null},{"lat":59.3687,"lon":31.0562,"time":"2026-07-23T23:52:00+00:00","location":"Тосненский район","status":"overhead","count":null}],"firstSeen":"2026-07-23T23:04:35+00:00","lastSeen":"2026-07-23T23:52:00+00:00","ended":false,"distanceKm":95},{"id":"trk-45","threatClass":"drone","points":[{"lat":55.6582,"lon":34.7213,"time":"2026-07-23T23:07:38+00:00","location":"Гагаринский район","status":"approaching","count":3},{"lat":56.1264,"lon":34.8164,"time":"2026-07-23T23:43:07+00:00","location":"Зубцовский район","status":"approaching","count":null},{"lat":56.7434,"lon":35.841,"time":"2026-07-23T23:43:44+00:00","location":"Калининский район","status":"approaching","count":null},{"lat":56.8587,"lon":35.9176,"time":"2026-07-23T23:44:43+00:00","location":"Тверь","status":"approaching","count":null}],"firstSeen":"2026-07-23T23:07:38+00:00","lastSeen":"2026-07-23T23:44:43+00:00","ended":false,"distanceKm":159},{"id":"trk-46","threatClass":"drone","points":[{"lat":54.5028,"lon":37.0667,"time":"2026-07-23T23:14:50+00:00","location":"Алексин","status":"approaching","count":null},{"lat":55.4309,"lon":37.5453,"time":"2026-07-23T23:42:42+00:00","location":"Подольск","status":"approaching","count":null},{"lat":56.6269,"lon":36.6019,"time":"2026-07-23T23:43:07+00:00","location":"Конаковский район","status":"approaching","count":null},{"lat":57.257,"lon":36.2597,"time":"2026-07-23T23:43:07+00:00","location":"Рамешковский район","status":"approaching","count":null}],"firstSeen":"2026-07-23T23:14:50+00:00","lastSeen":"2026-07-23T23:43:07+00:00","ended":false,"distanceKm":326},{"id":"trk-47","threatClass":"drone","points":[{"lat":53.1003,"lon":35.1787,"time":"2026-07-23T23:22:34+00:00","location":"Алымова","status":"approaching","count":null},{"lat":53.1777,"lon":34.6709,"time":"2026-07-23T23:22:34+00:00","location":"Карачевский район","status":"approaching","count":null},{"lat":53,"lon":33.5,"time":"2026-07-23T23:42:37+00:00","location":"Брянская область","status":"approaching","count":null}],"firstSeen":"2026-07-23T23:22:34+00:00","lastSeen":"2026-07-23T23:42:37+00:00","ended":false,"distanceKm":116},{"id":"trk-49","threatClass":"drone","points":[{"lat":56.0104,"lon":37.8462,"time":"2026-07-23T23:40:15+00:00","location":"Пушкино","status":"unknown","count":null},{"lat":55.919,"lon":37.815,"time":"2026-07-23T23:40:15+00:00","location":"Королёв","status":"unknown","count":null},{"lat":55.7774,"lon":37.6542,"time":"2026-07-23T23:59:37+00:00","location":"Красносельский район","status":"unknown","count":null}],"firstSeen":"2026-07-23T23:40:15+00:00","lastSeen":"2026-07-23T23:59:37+00:00","ended":false,"distanceKm":29},{"id":"trk-50","threatClass":"drone","points":[{"lat":55.9206,"lon":37.9916,"time":"2026-07-23T23:40:15+00:00","location":"Щёлково","status":"unknown","count":null},{"lat":56.0061,"lon":38.3835,"time":"2026-07-23T23:40:15+00:00","location":"Черноголовка","status":"unknown","count":null}],"firstSeen":"2026-07-23T23:40:15+00:00","lastSeen":"2026-07-23T23:40:15+00:00","ended":false,"distanceKm":26},{"id":"trk-53","threatClass":"drone","points":[{"lat":59.7318,"lon":30.4245,"time":"2026-07-23T23:59:12+00:00","location":"Пушкинский район","status":"unknown","count":null},{"lat":60.0151,"lon":29.7078,"time":"2026-07-23T23:59:37+00:00","location":"Кронштадт","status":"unknown","count":null}],"firstSeen":"2026-07-23T23:59:12+00:00","lastSeen":"2026-07-23T23:59:37+00:00","ended":false,"distanceKm":51},{"id":"trk-54","threatClass":"drone","points":[{"lat":59.9017,"lon":29.7794,"time":"2026-07-23T23:59:37+00:00","location":"Ломоносов","status":"unknown","count":null},{"lat":60.0234,"lon":30.1948,"time":"2026-07-23T23:59:37+00:00","location":"Приморский район","status":"unknown","count":null}],"firstSeen":"2026-07-23T23:59:37+00:00","lastSeen":"2026-07-23T23:59:37+00:00","ended":false,"distanceKm":27},{"id":"trk-56","threatClass":"drone","points":[{"lat":59.9393,"lon":30.2439,"time":"2026-07-23T23:59:37+00:00","location":"Василеостровский район","status":"unknown","count":null},{"lat":59.9546,"lon":31.0384,"time":"2026-07-23T23:59:37+00:00","location":"Морские ворота","status":"unknown","count":null}],"firstSeen":"2026-07-23T23:59:37+00:00","lastSeen":"2026-07-23T23:59:37+00:00","ended":false,"distanceKm":44},{"id":"trk-58","threatClass":"drone","points":[{"lat":53.5985,"lon":37.8191,"time":"2026-07-24T02:53:44+00:00","location":"Тёпло-Огарёвский район","status":"approaching","count":null},{"lat":53.909,"lon":38.1445,"time":"2026-07-24T02:54:14+00:00","location":"Узловский район","status":"approaching","count":null},{"lat":54.0576,"lon":38.3597,"time":"2026-07-24T02:55:00+00:00","location":"Новомосковский район","status":"approaching","count":2}],"firstSeen":"2026-07-24T02:53:44+00:00","lastSeen":"2026-07-24T02:55:00+00:00","ended":false,"distanceKm":62},{"id":"trk-59","threatClass":"drone","points":[{"lat":54.4727,"lon":37.091,"time":"2026-07-24T02:55:43+00:00","location":"Алексинский район","status":"approaching","count":2},{"lat":53.7236,"lon":35.5324,"time":"2026-07-24T02:59:20+00:00","location":"Ульяновский район","status":"approaching","count":null},{"lat":53.8089,"lon":34.8495,"time":"2026-07-24T02:59:20+00:00","location":"Жиздринский район","status":"approaching","count":null},{"lat":53.8631,"lon":34.4489,"time":"2026-07-24T02:59:20+00:00","location":"Людиновский район","status":"approaching","count":null}],"firstSeen":"2026-07-24T02:55:43+00:00","lastSeen":"2026-07-24T02:59:20+00:00","ended":false,"distanceKm":204},{"id":"trk-60","threatClass":"drone","points":[{"lat":54.1014,"lon":35.3397,"time":"2026-07-24T02:59:20+00:00","location":"Сухиничский район","status":"approaching","count":null},{"lat":54.5207,"lon":35.9735,"time":"2026-07-24T02:59:49+00:00","location":"Бабынинский район","status":"approaching","count":3},{"lat":54.9715,"lon":36.0575,"time":"2026-07-24T03:01:05+00:00","location":"Медынский район","status":"approaching","count":null}],"firstSeen":"2026-07-24T02:59:20+00:00","lastSeen":"2026-07-24T03:01:05+00:00","ended":false,"distanceKm":113},{"id":"trk-62","threatClass":"drone","points":[{"lat":55.1964,"lon":34.3311,"time":"2026-07-24T03:02:30+00:00","location":"Вяземский район","status":"approaching","count":null},{"lat":56.9424,"lon":32.452,"time":"2026-07-24T03:02:48+00:00","location":"Пеновский район","status":"approaching","count":null}],"firstSeen":"2026-07-24T03:02:30+00:00","lastSeen":"2026-07-24T03:02:48+00:00","ended":false,"distanceKm":226}],"updatedAt":"2026-07-24T08:46:42.668Z"}