{"tracks":[{"id":"trk-1","threatClass":"drone","points":[{"lat":55.7813,"lon":38.6508,"time":"2026-07-23T08:50:15+00:00","location":"Павловский Посад","status":"unknown","count":null},{"lat":55.7845,"lon":38.4449,"time":"2026-07-23T08:50:15+00:00","location":"Электросталь","status":"unknown","count":null},{"lat":55.8095,"lon":37.9485,"time":"2026-07-23T08:50:15+00:00","location":"Балашиха","status":"unknown","count":null},{"lat":55.7516,"lon":37.8556,"time":"2026-07-23T08:50:15+00:00","location":"Реутов","status":"unknown","count":null},{"lat":55.6783,"lon":37.8938,"time":"2026-07-23T08:50:15+00:00","location":"Люберцы","status":"unknown","count":null}],"firstSeen":"2026-07-23T08:50:15+00:00","lastSeen":"2026-07-23T08:50:15+00:00","ended":false,"distanceKm":61},{"id":"trk-16","threatClass":"drone","points":[{"lat":52.0929,"lon":37.4888,"time":"2026-07-23T16:15:54+00:00","location":"Должанский район","status":"approaching","count":null},{"lat":52.2425,"lon":37.0479,"time":"2026-07-23T16:15:54+00:00","location":"Колпнянский район","status":"approaching","count":null},{"lat":52.6765,"lon":36.2816,"time":"2026-07-23T16:15:54+00:00","location":"Свердловский район","status":"approaching","count":null}],"firstSeen":"2026-07-23T16:15:54+00:00","lastSeen":"2026-07-23T16:15:54+00:00","ended":false,"distanceKm":105},{"id":"trk-17","threatClass":"drone","points":[{"lat":55.0939,"lon":38.767,"time":"2026-07-23T16:16:37+00:00","location":"Коломна","status":"overhead","count":null},{"lat":54.7586,"lon":38.8818,"time":"2026-07-23T16:18:01+00:00","location":"Зарайск","status":"approaching","count":null},{"lat":54.709,"lon":39.5045,"time":"2026-07-23T16:19:08+00:00","location":"Рязанский район","status":"approaching","count":2}],"firstSeen":"2026-07-23T16:16:37+00:00","lastSeen":"2026-07-23T16:19:08+00:00","ended":false,"distanceKm":78},{"id":"trk-20","threatClass":"drone","points":[{"lat":52.5852,"lon":33.8169,"time":"2026-07-23T17:27:47+00:00","location":"Городцы","status":"unknown","count":null},{"lat":52.8493,"lon":33.966,"time":"2026-07-23T17:27:47+00:00","location":"Трубчевский район","status":"unknown","count":null},{"lat":53.2139,"lon":34.2894,"time":"2026-07-23T17:56:43+00:00","location":"Курнявцево","status":"approaching","count":null},{"lat":53.301,"lon":34.6559,"time":"2026-07-23T17:56:43+00:00","location":"Брянский район","status":"approaching","count":null}],"firstSeen":"2026-07-23T17:27:47+00:00","lastSeen":"2026-07-23T17:56:43+00:00","ended":false,"distanceKm":103},{"id":"trk-21","threatClass":"drone","points":[{"lat":52.5193,"lon":32.8868,"time":"2026-07-23T17:28:34+00:00","location":"Дохновичи","status":"approaching","count":null},{"lat":52.5154,"lon":32.715,"time":"2026-07-23T17:28:34+00:00","location":"Стародубский район","status":"approaching","count":null},{"lat":52.5353,"lon":31.9342,"time":"2026-07-23T18:03:01+00:00","location":"Новозыбков","status":"unknown","count":null}],"firstSeen":"2026-07-23T17:28:34+00:00","lastSeen":"2026-07-23T18:03:01+00:00","ended":false,"distanceKm":65},{"id":"trk-22","threatClass":"drone","points":[{"lat":50.9941,"lon":33.9835,"time":"2026-07-23T17:31:04+00:00","location":"Терни","status":"approaching","count":null},{"lat":51.5549,"lon":33.3876,"time":"2026-07-23T17:31:04+00:00","location":"Кролевець.","status":"approaching","count":null}],"firstSeen":"2026-07-23T17:31:04+00:00","lastSeen":"2026-07-23T17:31:04+00:00","ended":false,"distanceKm":75},{"id":"trk-24","threatClass":"drone","points":[{"lat":52.7501,"lon":32.8824,"time":"2026-07-23T17:53:34+00:00","location":"Рохманово","status":"unknown","count":null},{"lat":52.8314,"lon":32.8245,"time":"2026-07-23T17:53:34+00:00","location":"Унечский район","status":"unknown","count":null}],"firstSeen":"2026-07-23T17:53:34+00:00","lastSeen":"2026-07-23T17:53:34+00:00","ended":false,"distanceKm":10},{"id":"trk-26","threatClass":"drone","points":[{"lat":52.5543,"lon":33.2637,"time":"2026-07-23T18:48:37+00:00","location":"Погар","status":"unknown","count":null},{"lat":52.7501,"lon":32.8824,"time":"2026-07-23T18:59:42+00:00","location":"Рохманово","status":"unknown","count":null},{"lat":52.8314,"lon":32.8245,"time":"2026-07-23T18:59:42+00:00","location":"Унечский район","status":"unknown","count":null},{"lat":52.845,"lon":32.67,"time":"2026-07-23T19:12:10+00:00","location":"Унеча","status":"unknown","count":null}],"firstSeen":"2026-07-23T18:48:37+00:00","lastSeen":"2026-07-23T19:12:10+00:00","ended":false,"distanceKm":54},{"id":"trk-28","threatClass":"drone","points":[{"lat":56.978,"lon":39.8537,"time":"2026-07-23T19:00:10+00:00","location":"Ильинский район","status":"approaching","count":null},{"lat":56.3695,"lon":40.4516,"time":"2026-07-23T19:00:44+00:00","location":"Суздальский район","status":"approaching","count":null}],"firstSeen":"2026-07-23T19:00:10+00:00","lastSeen":"2026-07-23T19:00:44+00:00","ended":false,"distanceKm":77},{"id":"trk-29","threatClass":"drone","points":[{"lat":53.8631,"lon":34.4489,"time":"2026-07-23T19:05:40+00:00","location":"Людиновский район","status":"approaching","count":null},{"lat":53.8089,"lon":34.8495,"time":"2026-07-23T19:05:40+00:00","location":"Жиздринский район","status":"approaching","count":null}],"firstSeen":"2026-07-23T19:05:40+00:00","lastSeen":"2026-07-23T19:05:40+00:00","ended":false,"distanceKm":27},{"id":"trk-30","threatClass":"drone","points":[{"lat":52.7501,"lon":32.8824,"time":"2026-07-23T19:13:33+00:00","location":"Рохманово","status":"unknown","count":null},{"lat":52.8314,"lon":32.8245,"time":"2026-07-23T19:13:33+00:00","location":"Унечский район","status":"unknown","count":null},{"lat":53.4656,"lon":33.6796,"time":"2026-07-23T19:38:15+00:00","location":"Летошники","status":"approaching","count":null},{"lat":53.5424,"lon":33.7924,"time":"2026-07-23T19:38:15+00:00","location":"Жуковский район","status":"approaching","count":null},{"lat":54.2104,"lon":33.6159,"time":"2026-07-23T20:29:01+00:00","location":"Смоленская область","status":"approaching","count":2}],"firstSeen":"2026-07-23T19:13:33+00:00","lastSeen":"2026-07-23T20:29:01+00:00","ended":false,"distanceKm":187},{"id":"trk-32","threatClass":"drone","points":[{"lat":54.8374,"lon":38.1505,"time":"2026-07-23T19:15:56+00:00","location":"Кашира","status":"approaching","count":null},{"lat":54.6938,"lon":38.1602,"time":"2026-07-23T19:22:32+00:00","location":"Веневский район","status":"approaching","count":null}],"firstSeen":"2026-07-23T19:15:56+00:00","lastSeen":"2026-07-23T19:22:32+00:00","ended":false,"distanceKm":16},{"id":"trk-33","threatClass":"drone","points":[{"lat":53,"lon":33.5,"time":"2026-07-23T19:16:10+00:00","location":"Брянская область.","status":"unknown","count":null},{"lat":52.9288,"lon":33.4544,"time":"2026-07-23T19:51:25+00:00","location":"Почеп","status":"approaching","count":null},{"lat":52.5835,"lon":33.7675,"time":"2026-07-23T19:51:25+00:00","location":"Трубчевск","status":"approaching","count":null}],"firstSeen":"2026-07-23T19:16:10+00:00","lastSeen":"2026-07-23T19:51:25+00:00","ended":false,"distanceKm":52},{"id":"trk-34","threatClass":"drone","points":[{"lat":54.0967,"lon":33.7911,"time":"2026-07-23T19:18:05+00:00","location":"Куйбышевский район","status":"approaching","count":null},{"lat":53.8631,"lon":34.4489,"time":"2026-07-23T20:08:20+00:00","location":"Людиновский район","status":"approaching","count":null},{"lat":53.8089,"lon":34.8495,"time":"2026-07-23T20:08:46+00:00","location":"Жиздринский район","status":"approaching","count":null},{"lat":52.3967,"lon":35.8058,"time":"2026-07-23T20:09:03+00:00","location":"Троснянский район","status":"approaching","count":null},{"lat":52.4109,"lon":37.3745,"time":"2026-07-23T20:36:10+00:00","location":"Ливенский район","status":"approaching","count":null}],"firstSeen":"2026-07-23T19:18:05+00:00","lastSeen":"2026-07-23T20:36:10+00:00","ended":false,"distanceKm":353},{"id":"trk-35","threatClass":"drone","points":[{"lat":53.6046,"lon":32.6902,"time":"2026-07-23T20:07:46+00:00","location":"Ершичский район","status":"approaching","count":null},{"lat":54.7905,"lon":34.3736,"time":"2026-07-23T20:08:05+00:00","location":"Угранский район","status":"approaching","count":2},{"lat":54.5207,"lon":35.9735,"time":"2026-07-23T20:08:46+00:00","location":"Бабынинский район","status":"approaching","count":null},{"lat":52.4485,"lon":36.2419,"time":"2026-07-23T20:09:03+00:00","location":"Глазуновский район","status":"approaching","count":null}],"firstSeen":"2026-07-23T20:07:46+00:00","lastSeen":"2026-07-23T20:09:03+00:00","ended":false,"distanceKm":510},{"id":"trk-37","threatClass":"drone","points":[{"lat":53.533,"lon":33.7321,"time":"2026-07-23T19:20:16+00:00","location":"Жуковка","status":"approaching","count":2},{"lat":53.3753,"lon":34.1586,"time":"2026-07-23T19:37:50+00:00","location":"Глаженка","status":"unknown","count":null},{"lat":53.301,"lon":34.6559,"time":"2026-07-23T19:37:50+00:00","location":"Брянский район","status":"unknown","count":null},{"lat":54.3939,"lon":35.7709,"time":"2026-07-23T20:32:10+00:00","location":"Бабынино","status":"shot_down","count":null}],"firstSeen":"2026-07-23T19:20:16+00:00","lastSeen":"2026-07-23T20:32:10+00:00","ended":true,"distanceKm":209},{"id":"trk-47","threatClass":"drone","points":[{"lat":51.9063,"lon":35.3043,"time":"2026-07-23T19:27:03+00:00","location":"Конышевский район","status":"approaching","count":null},{"lat":53.533,"lon":33.7321,"time":"2026-07-23T20:13:35+00:00","location":"Жуковка","status":"unknown","count":null},{"lat":53.6735,"lon":32.7482,"time":"2026-07-23T20:43:05+00:00","location":"Ершичи","status":"approaching","count":3}],"firstSeen":"2026-07-23T19:27:03+00:00","lastSeen":"2026-07-23T20:43:05+00:00","ended":false,"distanceKm":276},{"id":"trk-49","threatClass":"drone","points":[{"lat":53.3065,"lon":34.3676,"time":"2026-07-23T19:38:47+00:00","location":"Радица-Крыловка","status":"approaching","count":null},{"lat":53.13,"lon":34.09,"time":"2026-07-23T19:58:36+00:00","location":"Выгоничи","status":"unknown","count":null}],"firstSeen":"2026-07-23T19:38:47+00:00","lastSeen":"2026-07-23T19:58:36+00:00","ended":false,"distanceKm":27},{"id":"trk-50","threatClass":"drone","points":[{"lat":53.4656,"lon":33.6796,"time":"2026-07-23T19:47:10+00:00","location":"Летошники","status":"approaching","count":null},{"lat":53.347,"lon":34.0798,"time":"2026-07-23T20:13:35+00:00","location":"Сельцо","status":"unknown","count":null}],"firstSeen":"2026-07-23T19:47:10+00:00","lastSeen":"2026-07-23T20:13:35+00:00","ended":false,"distanceKm":30},{"id":"trk-53","threatClass":"drone","points":[{"lat":54.0705,"lon":34.2991,"time":"2026-07-23T20:08:20+00:00","location":"Кировский район","status":"approaching","count":null},{"lat":54.0967,"lon":33.7911,"time":"2026-07-23T20:08:20+00:00","location":"Куйбышевский район","status":"approaching","count":null},{"lat":54.2094,"lon":33.6126,"time":"2026-07-23T20:44:29+00:00","location":"Рославльский район","status":"shot_down","count":null}],"firstSeen":"2026-07-23T20:08:20+00:00","lastSeen":"2026-07-23T20:44:29+00:00","ended":true,"distanceKm":50},{"id":"trk-55","threatClass":"drone","points":[{"lat":53.6735,"lon":32.7482,"time":"2026-07-23T20:18:36+00:00","location":"Ершичи","status":"approaching","count":null},{"lat":53.1022,"lon":32.4189,"time":"2026-07-23T20:19:45+00:00","location":"Суражский район","status":"approaching","count":null}],"firstSeen":"2026-07-23T20:18:36+00:00","lastSeen":"2026-07-23T20:19:45+00:00","ended":false,"distanceKm":67},{"id":"trk-67","threatClass":"drone","points":[{"lat":52.9042,"lon":36.6906,"time":"2026-07-23T20:36:10+00:00","location":"Залегощенский район","status":"approaching","count":null},{"lat":52.6765,"lon":36.2816,"time":"2026-07-23T20:36:10+00:00","location":"Свердловский район","status":"approaching","count":null}],"firstSeen":"2026-07-23T20:36:10+00:00","lastSeen":"2026-07-23T20:36:10+00:00","ended":false,"distanceKm":37},{"id":"trk-70","threatClass":"drone","points":[{"lat":54.2104,"lon":33.6159,"time":"2026-07-23T20:45:02+00:00","location":"Смоленская область","status":"approaching","count":20},{"lat":54.0705,"lon":34.2991,"time":"2026-07-23T20:45:16+00:00","location":"Кировский район","status":"approaching","count":null},{"lat":53.8631,"lon":34.4489,"time":"2026-07-23T20:45:16+00:00","location":"Людиновский район","status":"approaching","count":null}],"firstSeen":"2026-07-23T20:45:02+00:00","lastSeen":"2026-07-23T20:45:16+00:00","ended":false,"distanceKm":72},{"id":"trk-71","threatClass":"drone","points":[{"lat":54.0967,"lon":33.7911,"time":"2026-07-23T20:45:16+00:00","location":"Куйбышевский район","status":"approaching","count":null},{"lat":55.6168,"lon":34.1262,"time":"2026-07-23T20:45:53+00:00","location":"Новодугинский район","status":"approaching","count":null}],"firstSeen":"2026-07-23T20:45:16+00:00","lastSeen":"2026-07-23T20:45:53+00:00","ended":false,"distanceKm":170},{"id":"trk-72","threatClass":"drone","points":[{"lat":54.5247,"lon":36.0975,"time":"2026-07-23T20:46:09+00:00","location":"Плетеневка","status":"unknown","count":null},{"lat":54.1631,"lon":33.2335,"time":"2026-07-23T20:46:45+00:00","location":"Смоленская АЭС","status":"unknown","count":null}],"firstSeen":"2026-07-23T20:46:09+00:00","lastSeen":"2026-07-23T20:46:45+00:00","ended":false,"distanceKm":190}],"updatedAt":"2026-07-23T20:48:18.770Z"}