{"tracks":[{"id":"trk-1","threatClass":"drone","points":[{"lat":52.5353,"lon":31.9342,"time":"2026-07-18T16:43:50+00:00","location":"Новозыбков","status":"unknown","count":null},{"lat":52.7494,"lon":32.2356,"time":"2026-07-18T16:43:50+00:00","location":"Клинцы","status":"unknown","count":null}],"firstSeen":"2026-07-18T16:43:50+00:00","lastSeen":"2026-07-18T16:43:50+00:00","ended":false,"distanceKm":31},{"id":"trk-4","threatClass":"drone","points":[{"lat":44.9613,"lon":34.1043,"time":"2026-07-18T17:37:55+00:00","location":"Фиолент","status":"approaching","count":null},{"lat":44.5121,"lon":33.599,"time":"2026-07-18T17:37:55+00:00","location":"Балаклава","status":"approaching","count":null}],"firstSeen":"2026-07-18T17:37:55+00:00","lastSeen":"2026-07-18T17:37:55+00:00","ended":false,"distanceKm":64},{"id":"trk-8","threatClass":"drone","points":[{"lat":45.4982,"lon":34.7703,"time":"2026-07-18T19:14:50+00:00","location":"Нижнегорский район","status":"unknown","count":null},{"lat":45.2381,"lon":35.2859,"time":"2026-07-18T19:14:50+00:00","location":"Кировский район","status":"unknown","count":null},{"lat":45.2411,"lon":35.9763,"time":"2026-07-18T19:14:50+00:00","location":"Керченский полуостров","status":"unknown","count":null}],"firstSeen":"2026-07-18T19:14:50+00:00","lastSeen":"2026-07-18T19:14:50+00:00","ended":false,"distanceKm":104},{"id":"trk-10","threatClass":"drone","points":[{"lat":45.2079,"lon":33.1531,"time":"2026-07-18T19:27:12+00:00","location":"Витино","status":"unknown","count":null},{"lat":45.5194,"lon":34.5932,"time":"2026-07-18T19:27:12+00:00","location":"Уютное","status":"unknown","count":null}],"firstSeen":"2026-07-18T19:27:12+00:00","lastSeen":"2026-07-18T19:27:12+00:00","ended":false,"distanceKm":118},{"id":"trk-11","threatClass":"drone","points":[{"lat":48.2305,"lon":38.185,"time":"2026-07-18T19:35:00+00:00","location":"Енакиево","status":"approaching","count":null},{"lat":48.312,"lon":38.2609,"time":"2026-07-18T19:35:00+00:00","location":"Углегорск","status":"approaching","count":null},{"lat":48.5235,"lon":39.2864,"time":"2026-07-18T20:03:10+00:00","location":"ЛНР","status":"unknown","count":null}],"firstSeen":"2026-07-18T19:35:00+00:00","lastSeen":"2026-07-18T20:03:10+00:00","ended":false,"distanceKm":90},{"id":"trk-12","threatClass":"drone","points":[{"lat":49.8227,"lon":39.2824,"time":"2026-07-18T20:01:16+00:00","location":"Новобелая","status":"approaching","count":null},{"lat":49.7972,"lon":39.7513,"time":"2026-07-18T20:01:16+00:00","location":"Кантемировский район","status":"approaching","count":null},{"lat":50.0544,"lon":40.5939,"time":"2026-07-18T20:25:53+00:00","location":"Журавка","status":"unknown","count":null}],"firstSeen":"2026-07-18T20:01:16+00:00","lastSeen":"2026-07-18T20:25:53+00:00","ended":false,"distanceKm":101},{"id":"trk-14","threatClass":"drone","points":[{"lat":48.6947,"lon":38.9863,"time":"2026-07-18T20:03:10+00:00","location":"Славяносербск","status":"unknown","count":null},{"lat":48.7453,"lon":39.1711,"time":"2026-07-18T20:03:10+00:00","location":"Счастье","status":"unknown","count":null}],"firstSeen":"2026-07-18T20:03:10+00:00","lastSeen":"2026-07-18T20:03:10+00:00","ended":false,"distanceKm":15},{"id":"trk-16","threatClass":"drone","points":[{"lat":50.3476,"lon":39.4458,"time":"2026-07-18T20:41:01+00:00","location":"Россошанский район","status":"approaching","count":2},{"lat":48.3687,"lon":40.5059,"time":"2026-07-18T21:58:59+00:00","location":"Каменский район","status":"approaching","count":null}],"firstSeen":"2026-07-18T20:41:01+00:00","lastSeen":"2026-07-18T21:58:59+00:00","ended":false,"distanceKm":233},{"id":"trk-17","threatClass":"drone","points":[{"lat":51.5714,"lon":34.624,"time":"2026-07-18T20:12:59+00:00","location":"Рыльский район","status":"approaching","count":null},{"lat":52.5543,"lon":33.2637,"time":"2026-07-18T20:44:52+00:00","location":"Погар","status":"approaching","count":null}],"firstSeen":"2026-07-18T20:12:59+00:00","lastSeen":"2026-07-18T20:44:52+00:00","ended":false,"distanceKm":143},{"id":"trk-19","threatClass":"drone","points":[{"lat":49.8881,"lon":40.2257,"time":"2026-07-18T20:24:23+00:00","location":"Богучарский район","status":"approaching","count":null},{"lat":49.7972,"lon":39.7513,"time":"2026-07-18T20:55:24+00:00","location":"Кантемировский район","status":"approaching","count":null}],"firstSeen":"2026-07-18T20:24:23+00:00","lastSeen":"2026-07-18T20:55:24+00:00","ended":false,"distanceKm":35},{"id":"trk-20","threatClass":"drone","points":[{"lat":47.9594,"lon":40.1889,"time":"2026-07-18T20:25:28+00:00","location":"Красносулинский район","status":"approaching","count":null},{"lat":49.025,"lon":40.2652,"time":"2026-07-18T20:25:28+00:00","location":"Миллеровский район","status":"approaching","count":null},{"lat":49.8881,"lon":40.2257,"time":"2026-07-18T20:55:24+00:00","location":"Богучарский район","status":"approaching","count":null}],"firstSeen":"2026-07-18T20:25:28+00:00","lastSeen":"2026-07-18T20:55:24+00:00","ended":false,"distanceKm":215},{"id":"trk-21","threatClass":"drone","points":[{"lat":49.7972,"lon":39.7513,"time":"2026-07-18T20:25:53+00:00","location":"Кантемировский район","status":"unknown","count":null},{"lat":49.2098,"lon":41.1858,"time":"2026-07-18T21:06:37+00:00","location":"Дибровый","status":"unknown","count":null}],"firstSeen":"2026-07-18T20:25:53+00:00","lastSeen":"2026-07-18T21:06:37+00:00","ended":false,"distanceKm":122},{"id":"trk-24","threatClass":"drone","points":[{"lat":48.6824,"lon":40.4969,"time":"2026-07-18T20:56:18+00:00","location":"Тарасовский район","status":"approaching","count":null},{"lat":47.9594,"lon":40.1889,"time":"2026-07-18T20:56:18+00:00","location":"Красносулинский район","status":"approaching","count":null}],"firstSeen":"2026-07-18T20:56:18+00:00","lastSeen":"2026-07-18T20:56:18+00:00","ended":false,"distanceKm":84},{"id":"trk-28","threatClass":"missile","points":[{"lat":48.7453,"lon":39.1711,"time":"2026-07-18T22:10:09+00:00","location":"Счастье","status":"unknown","count":null},{"lat":48.5235,"lon":39.2864,"time":"2026-07-18T22:10:09+00:00","location":"ЛНР","status":"unknown","count":null}],"firstSeen":"2026-07-18T22:10:09+00:00","lastSeen":"2026-07-18T22:10:09+00:00","ended":false,"distanceKm":26},{"id":"trk-29","threatClass":"drone","points":[{"lat":47.3304,"lon":41.2738,"time":"2026-07-18T22:11:04+00:00","location":"Большая Орловка","status":"approaching","count":null},{"lat":47.282,"lon":41.6676,"time":"2026-07-18T22:11:04+00:00","location":"Мартыновский район","status":"approaching","count":null}],"firstSeen":"2026-07-18T22:11:04+00:00","lastSeen":"2026-07-18T22:11:04+00:00","ended":false,"distanceKm":30},{"id":"trk-36","threatClass":"drone","points":[{"lat":45.2207,"lon":42.18,"time":"2026-07-19T00:21:32+00:00","location":"Дубовка","status":"approaching","count":null},{"lat":45.0451,"lon":41.5668,"time":"2026-07-19T00:21:32+00:00","location":"Шпаковский район","status":"approaching","count":null}],"firstSeen":"2026-07-19T00:21:32+00:00","lastSeen":"2026-07-19T00:21:32+00:00","ended":false,"distanceKm":52},{"id":"trk-37","threatClass":"drone","points":[{"lat":46.7909,"lon":40.4949,"time":"2026-07-19T00:36:45+00:00","location":"Зерноградский район","status":"approaching","count":null},{"lat":47.1442,"lon":40.732,"time":"2026-07-19T00:36:45+00:00","location":"Веселовский район","status":"approaching","count":null}],"firstSeen":"2026-07-19T00:36:45+00:00","lastSeen":"2026-07-19T00:36:45+00:00","ended":false,"distanceKm":43}],"updatedAt":"2026-07-19T04:36:56.091Z"}