{"tracks":[{"id":"trk-3","threatClass":"drone","points":[{"lat":55.8062,"lon":38.981,"time":"2026-07-23T08:39:11+00:00","location":"Орехово-Зуево","status":"approaching","count":2},{"lat":55.7813,"lon":38.6508,"time":"2026-07-23T08:50:15+00:00","location":"Павловский Посад","status":"unknown","count":null},{"lat":55.7845,"lon":38.4449,"time":"2026-07-23T08:50:15+00:00","location":"Электросталь","status":"unknown","count":null},{"lat":55.8095,"lon":37.9485,"time":"2026-07-23T08:50:15+00:00","location":"Балашиха","status":"unknown","count":null},{"lat":55.7516,"lon":37.8556,"time":"2026-07-23T08:50:15+00:00","location":"Реутов","status":"unknown","count":null},{"lat":55.6783,"lon":37.8938,"time":"2026-07-23T08:50:15+00:00","location":"Люберцы","status":"unknown","count":null}],"firstSeen":"2026-07-23T08:39:11+00:00","lastSeen":"2026-07-23T08:50:15+00:00","ended":false,"distanceKm":82},{"id":"trk-4","threatClass":"drone","points":[{"lat":55.7813,"lon":38.6508,"time":"2026-07-23T08:46:45+00:00","location":"Павловский Посад","status":"unknown","count":null},{"lat":55.7845,"lon":38.4449,"time":"2026-07-23T08:46:45+00:00","location":"Электросталь","status":"unknown","count":null},{"lat":55.8095,"lon":37.9485,"time":"2026-07-23T08:46:45+00:00","location":"Балашиха","status":"unknown","count":null},{"lat":55.7516,"lon":37.8556,"time":"2026-07-23T08:46:45+00:00","location":"Реутов","status":"unknown","count":null},{"lat":55.6783,"lon":37.8938,"time":"2026-07-23T08:46:45+00:00","location":"Люберцы","status":"unknown","count":null}],"firstSeen":"2026-07-23T08:46:45+00:00","lastSeen":"2026-07-23T08:46:45+00:00","ended":false,"distanceKm":61},{"id":"trk-19","threatClass":"drone","points":[{"lat":52.0929,"lon":37.4888,"time":"2026-07-23T16:15:54+00:00","location":"Должанский район","status":"approaching","count":null},{"lat":52.2425,"lon":37.0479,"time":"2026-07-23T16:15:54+00:00","location":"Колпнянский район","status":"approaching","count":null},{"lat":52.6765,"lon":36.2816,"time":"2026-07-23T16:15:54+00:00","location":"Свердловский район","status":"approaching","count":null}],"firstSeen":"2026-07-23T16:15:54+00:00","lastSeen":"2026-07-23T16:15:54+00:00","ended":false,"distanceKm":105},{"id":"trk-20","threatClass":"drone","points":[{"lat":55.0939,"lon":38.767,"time":"2026-07-23T16:16:37+00:00","location":"Коломна","status":"overhead","count":null},{"lat":54.7586,"lon":38.8818,"time":"2026-07-23T16:18:01+00:00","location":"Зарайск","status":"approaching","count":null},{"lat":54.709,"lon":39.5045,"time":"2026-07-23T16:19:08+00:00","location":"Рязанский район","status":"approaching","count":2}],"firstSeen":"2026-07-23T16:16:37+00:00","lastSeen":"2026-07-23T16:19:08+00:00","ended":false,"distanceKm":78},{"id":"trk-23","threatClass":"drone","points":[{"lat":52.5852,"lon":33.8169,"time":"2026-07-23T17:27:47+00:00","location":"Городцы","status":"unknown","count":null},{"lat":52.8493,"lon":33.966,"time":"2026-07-23T17:27:47+00:00","location":"Трубчевский район","status":"unknown","count":null},{"lat":53.2139,"lon":34.2894,"time":"2026-07-23T17:56:43+00:00","location":"Курнявцево","status":"approaching","count":null},{"lat":53.301,"lon":34.6559,"time":"2026-07-23T17:56:43+00:00","location":"Брянский район","status":"approaching","count":null}],"firstSeen":"2026-07-23T17:27:47+00:00","lastSeen":"2026-07-23T17:56:43+00:00","ended":false,"distanceKm":103},{"id":"trk-24","threatClass":"drone","points":[{"lat":52.5193,"lon":32.8868,"time":"2026-07-23T17:28:34+00:00","location":"Дохновичи","status":"approaching","count":null},{"lat":52.5154,"lon":32.715,"time":"2026-07-23T17:28:34+00:00","location":"Стародубский район","status":"approaching","count":null},{"lat":52.5353,"lon":31.9342,"time":"2026-07-23T18:03:01+00:00","location":"Новозыбков","status":"unknown","count":null}],"firstSeen":"2026-07-23T17:28:34+00:00","lastSeen":"2026-07-23T18:03:01+00:00","ended":false,"distanceKm":65},{"id":"trk-25","threatClass":"drone","points":[{"lat":50.9941,"lon":33.9835,"time":"2026-07-23T17:31:04+00:00","location":"Терни","status":"approaching","count":null},{"lat":51.5549,"lon":33.3876,"time":"2026-07-23T17:31:04+00:00","location":"Кролевець.","status":"approaching","count":null}],"firstSeen":"2026-07-23T17:31:04+00:00","lastSeen":"2026-07-23T17:31:04+00:00","ended":false,"distanceKm":75},{"id":"trk-27","threatClass":"drone","points":[{"lat":52.7501,"lon":32.8824,"time":"2026-07-23T17:53:34+00:00","location":"Рохманово","status":"unknown","count":null},{"lat":52.8314,"lon":32.8245,"time":"2026-07-23T17:53:34+00:00","location":"Унечский район","status":"unknown","count":null}],"firstSeen":"2026-07-23T17:53:34+00:00","lastSeen":"2026-07-23T17:53:34+00:00","ended":false,"distanceKm":10},{"id":"trk-29","threatClass":"drone","points":[{"lat":52.5543,"lon":33.2637,"time":"2026-07-23T18:48:37+00:00","location":"Погар","status":"unknown","count":null},{"lat":52.7501,"lon":32.8824,"time":"2026-07-23T18:59:42+00:00","location":"Рохманово","status":"unknown","count":null},{"lat":52.8314,"lon":32.8245,"time":"2026-07-23T18:59:42+00:00","location":"Унечский район","status":"unknown","count":null},{"lat":52.845,"lon":32.67,"time":"2026-07-23T19:12:10+00:00","location":"Унеча","status":"unknown","count":null}],"firstSeen":"2026-07-23T18:48:37+00:00","lastSeen":"2026-07-23T19:12:10+00:00","ended":false,"distanceKm":54},{"id":"trk-31","threatClass":"drone","points":[{"lat":56.978,"lon":39.8537,"time":"2026-07-23T19:00:10+00:00","location":"Ильинский район","status":"approaching","count":null},{"lat":56.3695,"lon":40.4516,"time":"2026-07-23T19:00:44+00:00","location":"Суздальский район","status":"approaching","count":null}],"firstSeen":"2026-07-23T19:00:10+00:00","lastSeen":"2026-07-23T19:00:44+00:00","ended":false,"distanceKm":77},{"id":"trk-32","threatClass":"drone","points":[{"lat":53.8631,"lon":34.4489,"time":"2026-07-23T19:05:40+00:00","location":"Людиновский район","status":"approaching","count":null},{"lat":53.8089,"lon":34.8495,"time":"2026-07-23T19:05:40+00:00","location":"Жиздринский район","status":"approaching","count":null}],"firstSeen":"2026-07-23T19:05:40+00:00","lastSeen":"2026-07-23T19:05:40+00:00","ended":false,"distanceKm":27},{"id":"trk-33","threatClass":"drone","points":[{"lat":52.7501,"lon":32.8824,"time":"2026-07-23T19:13:33+00:00","location":"Рохманово","status":"unknown","count":null},{"lat":52.8314,"lon":32.8245,"time":"2026-07-23T19:13:33+00:00","location":"Унечский район","status":"unknown","count":null},{"lat":53.4656,"lon":33.6796,"time":"2026-07-23T19:38:15+00:00","location":"Летошники","status":"approaching","count":null},{"lat":53.5424,"lon":33.7924,"time":"2026-07-23T19:38:15+00:00","location":"Жуковский район","status":"approaching","count":null}],"firstSeen":"2026-07-23T19:13:33+00:00","lastSeen":"2026-07-23T19:38:15+00:00","ended":false,"distanceKm":112},{"id":"trk-35","threatClass":"drone","points":[{"lat":54.8374,"lon":38.1505,"time":"2026-07-23T19:15:56+00:00","location":"Кашира","status":"approaching","count":null},{"lat":54.6938,"lon":38.1602,"time":"2026-07-23T19:22:32+00:00","location":"Веневский район","status":"approaching","count":null}],"firstSeen":"2026-07-23T19:15:56+00:00","lastSeen":"2026-07-23T19:22:32+00:00","ended":false,"distanceKm":16},{"id":"trk-36","threatClass":"drone","points":[{"lat":53,"lon":33.5,"time":"2026-07-23T19:16:10+00:00","location":"Брянская область.","status":"unknown","count":null},{"lat":52.9288,"lon":33.4544,"time":"2026-07-23T19:37:04+00:00","location":"Почеп","status":"unknown","count":null}],"firstSeen":"2026-07-23T19:16:10+00:00","lastSeen":"2026-07-23T19:37:04+00:00","ended":false,"distanceKm":8},{"id":"trk-37","threatClass":"drone","points":[{"lat":54.0967,"lon":33.7911,"time":"2026-07-23T19:18:05+00:00","location":"Куйбышевский район","status":"approaching","count":null},{"lat":53.8631,"lon":34.4489,"time":"2026-07-23T19:18:05+00:00","location":"Людиновский район","status":"approaching","count":null}],"firstSeen":"2026-07-23T19:18:05+00:00","lastSeen":"2026-07-23T19:18:05+00:00","ended":false,"distanceKm":50},{"id":"trk-40","threatClass":"drone","points":[{"lat":53.533,"lon":33.7321,"time":"2026-07-23T19:20:16+00:00","location":"Жуковка","status":"approaching","count":2},{"lat":53.3753,"lon":34.1586,"time":"2026-07-23T19:37:50+00:00","location":"Глаженка","status":"unknown","count":null},{"lat":53.301,"lon":34.6559,"time":"2026-07-23T19:37:50+00:00","location":"Брянский район","status":"unknown","count":null}],"firstSeen":"2026-07-23T19:20:16+00:00","lastSeen":"2026-07-23T19:37:50+00:00","ended":false,"distanceKm":67}],"updatedAt":"2026-07-23T19:48:25.339Z"}