{"tracks":[{"id":"trk-2","threatClass":"drone","points":[{"lat":51.9507,"lon":34.9792,"time":"2026-07-20T14:33:24+00:00","location":"Старый хутор","status":"unknown","count":null},{"lat":51.4113,"lon":36.3551,"time":"2026-07-20T14:33:24+00:00","location":"Леоновка","status":"unknown","count":null},{"lat":50.211,"lon":38.0997,"time":"2026-07-20T14:33:24+00:00","location":"Валуйского района","status":"unknown","count":null}],"firstSeen":"2026-07-20T14:33:24+00:00","lastSeen":"2026-07-20T14:33:24+00:00","ended":false,"distanceKm":293},{"id":"trk-11","threatClass":"drone","points":[{"lat":52.4429,"lon":34.4922,"time":"2026-07-20T20:51:12+00:00","location":"Лагеревка","status":"approaching","count":null},{"lat":52.5938,"lon":33.0796,"time":"2026-07-20T20:51:12+00:00","location":"Бобрик","status":"approaching","count":null}],"firstSeen":"2026-07-20T20:51:12+00:00","lastSeen":"2026-07-20T20:51:12+00:00","ended":false,"distanceKm":97},{"id":"trk-13","threatClass":"drone","points":[{"lat":44.6866,"lon":33.567,"time":"2026-07-20T21:14:05+00:00","location":"Бельбек","status":"approaching","count":null},{"lat":44.6166,"lon":33.5254,"time":"2026-07-20T21:17:31+00:00","location":"Севастополь","status":"approaching","count":null},{"lat":44.5121,"lon":33.599,"time":"2026-07-20T21:43:27+00:00","location":"Балаклава","status":"approaching","count":null}],"firstSeen":"2026-07-20T21:14:05+00:00","lastSeen":"2026-07-20T21:43:27+00:00","ended":false,"distanceKm":21},{"id":"trk-14","threatClass":"drone","points":[{"lat":45.1453,"lon":33.517,"time":"2026-07-20T21:16:45+00:00","location":"Прибрежное","status":"approaching","count":null},{"lat":44.9613,"lon":34.1043,"time":"2026-07-20T21:28:17+00:00","location":"Фиолент","status":"approaching","count":null}],"firstSeen":"2026-07-20T21:16:45+00:00","lastSeen":"2026-07-20T21:28:17+00:00","ended":false,"distanceKm":50},{"id":"trk-16","threatClass":"drone","points":[{"lat":44.7235,"lon":37.7686,"time":"2026-07-20T21:20:13+00:00","location":"Новороссийск","status":"approaching","count":null},{"lat":44.6516,"lon":37.9395,"time":"2026-07-20T21:20:13+00:00","location":"Кабардинка","status":"approaching","count":null},{"lat":44.5609,"lon":38.0767,"time":"2026-07-20T21:20:13+00:00","location":"Геленджик","status":"approaching","count":null}],"firstSeen":"2026-07-20T21:20:13+00:00","lastSeen":"2026-07-20T21:20:13+00:00","ended":false,"distanceKm":31},{"id":"trk-17","threatClass":"drone","points":[{"lat":44.6166,"lon":33.5254,"time":"2026-07-20T22:15:16+00:00","location":"Севастополь","status":"approaching","count":null},{"lat":44.7556,"lon":33.7235,"time":"2026-07-20T22:35:25+00:00","location":"Кача","status":"approaching","count":null}],"firstSeen":"2026-07-20T22:15:16+00:00","lastSeen":"2026-07-20T22:35:25+00:00","ended":false,"distanceKm":22}],"updatedAt":"2026-07-20T22:37:15.815Z"}