{"tracks":[{"id":"trk-2","threatClass":"drone","points":[{"lat":52.5666,"lon":40.3535,"time":"2026-07-06T21:57:24+00:00","location":"Петровский район","status":"approaching","count":2},{"lat":52.5661,"lon":39.2899,"time":"2026-07-06T21:57:46+00:00","location":"Липецкий район","status":"approaching","count":5},{"lat":53.1649,"lon":38.2545,"time":"2026-07-06T22:37:04+00:00","location":"Ефремовский район","status":"approaching","count":null},{"lat":53.4025,"lon":37.0331,"time":"2026-07-06T23:13:08+00:00","location":"Ленинский район","status":"approaching","count":null},{"lat":54.1226,"lon":36.3581,"time":"2026-07-06T23:13:08+00:00","location":"Суворовский район","status":"approaching","count":null},{"lat":54.0705,"lon":34.2991,"time":"2026-07-06T23:14:53+00:00","location":"Кировский район","status":"approaching","count":null}],"firstSeen":"2026-07-06T21:57:24+00:00","lastSeen":"2026-07-06T23:14:53+00:00","ended":false,"distanceKm":479},{"id":"trk-3","threatClass":"drone","points":[{"lat":53.0355,"lon":37.0551,"time":"2026-07-06T22:00:19+00:00","location":"Новосильский район","status":"approaching","count":null},{"lat":52.9042,"lon":36.6906,"time":"2026-07-06T22:00:19+00:00","location":"Залегощенский район","status":"approaching","count":null},{"lat":52.858,"lon":35.1026,"time":"2026-07-06T22:00:19+00:00","location":"Шаблыкинский район","status":"approaching","count":null}],"firstSeen":"2026-07-06T22:00:19+00:00","lastSeen":"2026-07-06T22:00:19+00:00","ended":false,"distanceKm":135},{"id":"trk-4","threatClass":"drone","points":[{"lat":52.0929,"lon":37.4888,"time":"2026-07-06T22:00:19+00:00","location":"Должанский район","status":"approaching","count":null},{"lat":52.9729,"lon":35.452,"time":"2026-07-06T22:00:19+00:00","location":"Хотынецкий район","status":"approaching","count":null},{"lat":53.8089,"lon":34.8495,"time":"2026-07-06T22:01:00+00:00","location":"Жиздринский район","status":"approaching","count":null}],"firstSeen":"2026-07-06T22:00:19+00:00","lastSeen":"2026-07-06T22:01:00+00:00","ended":false,"distanceKm":270},{"id":"trk-7","threatClass":"drone","points":[{"lat":54.5293,"lon":36.2754,"time":"2026-07-06T22:51:23+00:00","location":"Калуга","status":"approaching","count":null},{"lat":54.5028,"lon":37.0667,"time":"2026-07-06T23:02:32+00:00","location":"Алексин","status":"overhead","count":null},{"lat":54.0045,"lon":37.5179,"time":"2026-07-06T23:21:40+00:00","location":"Щекино","status":"overhead","count":null},{"lat":52.606,"lon":38.9206,"time":"2026-07-06T23:22:28+00:00","location":"Задонский район","status":"approaching","count":null}],"firstSeen":"2026-07-06T22:51:23+00:00","lastSeen":"2026-07-06T23:22:28+00:00","ended":false,"distanceKm":295},{"id":"trk-10","threatClass":"drone","points":[{"lat":52.8988,"lon":39.7359,"time":"2026-07-06T22:34:20+00:00","location":"Добровский район","status":"approaching","count":null},{"lat":54.0221,"lon":37.8625,"time":"2026-07-06T23:13:08+00:00","location":"Киреевский район","status":"approaching","count":null},{"lat":53.8089,"lon":34.8495,"time":"2026-07-06T23:14:53+00:00","location":"Жиздринский район","status":"approaching","count":null},{"lat":53.8631,"lon":34.4489,"time":"2026-07-06T23:14:53+00:00","location":"Людиновский район","status":"approaching","count":null}],"firstSeen":"2026-07-06T22:34:20+00:00","lastSeen":"2026-07-06T23:14:53+00:00","ended":false,"distanceKm":402},{"id":"trk-11","threatClass":"drone","points":[{"lat":52.9685,"lon":36.0692,"time":"2026-07-06T23:03:50+00:00","location":"Орел","status":"approaching","count":null},{"lat":52.9708,"lon":35.4554,"time":"2026-07-06T23:18:04+00:00","location":"Урицкий район","status":"approaching","count":null},{"lat":52.858,"lon":35.1026,"time":"2026-07-06T23:18:04+00:00","location":"Шаблыкинский район","status":"approaching","count":null}],"firstSeen":"2026-07-06T23:03:50+00:00","lastSeen":"2026-07-06T23:18:04+00:00","ended":false,"distanceKm":68},{"id":"trk-17","threatClass":"drone","points":[{"lat":53.5985,"lon":37.8191,"time":"2026-07-06T23:13:08+00:00","location":"Тепло-Огаревский район","status":"approaching","count":null},{"lat":53.2413,"lon":37.7558,"time":"2026-07-06T23:13:08+00:00","location":"Каменский район","status":"approaching","count":null},{"lat":52.9857,"lon":35.9383,"time":"2026-07-06T23:40:51+00:00","location":"Орловский район","status":"approaching","count":2}],"firstSeen":"2026-07-06T23:13:08+00:00","lastSeen":"2026-07-06T23:40:51+00:00","ended":false,"distanceKm":165},{"id":"trk-18","threatClass":"drone","points":[{"lat":54.0576,"lon":38.3597,"time":"2026-07-06T23:13:08+00:00","location":"Новомосковский район","status":"approaching","count":null},{"lat":54.2141,"lon":35.3921,"time":"2026-07-06T23:14:53+00:00","location":"Мещовский район","status":"approaching","count":null},{"lat":54.7905,"lon":34.3736,"time":"2026-07-06T23:15:47+00:00","location":"Угранский район","status":"approaching","count":null},{"lat":55.1964,"lon":34.3311,"time":"2026-07-06T23:15:47+00:00","location":"Вяземский район","status":"approaching","count":null}],"firstSeen":"2026-07-06T23:13:08+00:00","lastSeen":"2026-07-06T23:15:47+00:00","ended":false,"distanceKm":331},{"id":"trk-19","threatClass":"drone","points":[{"lat":52.5157,"lon":35.2526,"time":"2026-07-06T23:18:04+00:00","location":"Дмитровский район","status":"approaching","count":null},{"lat":54.5293,"lon":36.2754,"time":"2026-07-06T23:18:26+00:00","location":"Калуга","status":"approaching","count":null}],"firstSeen":"2026-07-06T23:18:04+00:00","lastSeen":"2026-07-06T23:18:26+00:00","ended":false,"distanceKm":234},{"id":"trk-25","threatClass":"drone","points":[{"lat":56.2868,"lon":38.7918,"time":"2026-07-07T00:47:45+00:00","location":"Киржачский район","status":"approaching","count":2},{"lat":55.4087,"lon":37.9095,"time":"2026-07-07T00:49:31+00:00","location":"Домодедово","status":"approaching","count":1},{"lat":54.0045,"lon":37.5179,"time":"2026-07-07T00:50:06+00:00","location":"Щекино","status":"overhead","count":null},{"lat":53.5985,"lon":37.8191,"time":"2026-07-07T01:16:05+00:00","location":"Тёпло-Огарёвский район","status":"approaching","count":null}],"firstSeen":"2026-07-07T00:47:45+00:00","lastSeen":"2026-07-07T01:16:05+00:00","ended":false,"distanceKm":320},{"id":"trk-28","threatClass":"drone","points":[{"lat":54.709,"lon":39.5045,"time":"2026-07-07T00:51:10+00:00","location":"Рязанский район","status":"approaching","count":null},{"lat":54.7586,"lon":38.8818,"time":"2026-07-07T01:23:27+00:00","location":"Зарайск","status":"approaching","count":null},{"lat":54.6684,"lon":37.4727,"time":"2026-07-07T01:23:56+00:00","location":"Заокский район","status":"approaching","count":null},{"lat":54.1014,"lon":35.3397,"time":"2026-07-07T01:24:40+00:00","location":"Сухиничский район","status":"approaching","count":null}],"firstSeen":"2026-07-07T00:51:10+00:00","lastSeen":"2026-07-07T01:24:40+00:00","ended":false,"distanceKm":283},{"id":"trk-29","threatClass":"drone","points":[{"lat":50.4605,"lon":39.3894,"time":"2026-07-07T00:52:15+00:00","location":"Ольховатский район","status":"approaching","count":2},{"lat":50.3476,"lon":39.4458,"time":"2026-07-07T01:16:53+00:00","location":"Россошанский район","status":"approaching","count":10}],"firstSeen":"2026-07-07T00:52:15+00:00","lastSeen":"2026-07-07T01:16:53+00:00","ended":false,"distanceKm":13},{"id":"trk-30","threatClass":"drone","points":[{"lat":56.5744,"lon":34.8805,"time":"2026-07-07T00:53:23+00:00","location":"Старицкий район","status":"approaching","count":null},{"lat":55.5065,"lon":36.0213,"time":"2026-07-07T00:53:40+00:00","location":"Можайск","status":"approaching","count":2},{"lat":54.9715,"lon":36.0575,"time":"2026-07-07T00:55:02+00:00","location":"Медынский район","status":"approaching","count":4},{"lat":54.5207,"lon":35.9735,"time":"2026-07-07T00:55:25+00:00","location":"Бабынинский район","status":"approaching","count":null},{"lat":54.1226,"lon":36.3581,"time":"2026-07-07T00:55:43+00:00","location":"Суворовский район","status":"approaching","count":null},{"lat":53.761,"lon":36.1634,"time":"2026-07-07T00:56:03+00:00","location":"Белевский район","status":"approaching","count":2},{"lat":52.5157,"lon":35.2526,"time":"2026-07-07T00:57:45+00:00","location":"Дмитровский район","status":"approaching","count":3}],"firstSeen":"2026-07-07T00:53:23+00:00","lastSeen":"2026-07-07T00:57:45+00:00","ended":false,"distanceKm":492},{"id":"trk-31","threatClass":"drone","points":[{"lat":55.1964,"lon":34.3311,"time":"2026-07-07T00:54:01+00:00","location":"Вяземский район","status":"approaching","count":null},{"lat":54.5275,"lon":33.3509,"time":"2026-07-07T00:54:14+00:00","location":"Ельнинский район","status":"approaching","count":null}],"firstSeen":"2026-07-07T00:54:01+00:00","lastSeen":"2026-07-07T00:54:14+00:00","ended":false,"distanceKm":97},{"id":"trk-33","threatClass":"drone","points":[{"lat":55.2,"lon":30.5,"time":"2026-07-07T00:57:10+00:00","location":"Колимер","status":"approaching","count":12},{"lat":55,"lon":30,"time":"2026-07-07T01:07:18+00:00","location":"Серпухов","status":"approaching","count":5}],"firstSeen":"2026-07-07T00:57:10+00:00","lastSeen":"2026-07-07T01:07:18+00:00","ended":false,"distanceKm":39},{"id":"trk-36","threatClass":"drone","points":[{"lat":52.9708,"lon":35.4554,"time":"2026-07-07T00:58:04+00:00","location":"Урицкий район","status":"approaching","count":null},{"lat":52.9042,"lon":36.6906,"time":"2026-07-07T01:12:54+00:00","location":"Залегощенский район","status":"approaching","count":2}],"firstSeen":"2026-07-07T00:58:04+00:00","lastSeen":"2026-07-07T01:12:54+00:00","ended":false,"distanceKm":83},{"id":"trk-37","threatClass":"drone","points":[{"lat":55.4087,"lon":37.9095,"time":"2026-07-07T01:06:27+00:00","location":"Домодедово","status":"approaching","count":2},{"lat":55.3737,"lon":37.7834,"time":"2026-07-07T01:12:14+00:00","location":"Домодедово","status":"approaching","count":1}],"firstSeen":"2026-07-07T01:06:27+00:00","lastSeen":"2026-07-07T01:12:14+00:00","ended":false,"distanceKm":9},{"id":"trk-41","threatClass":"drone","points":[{"lat":52.9857,"lon":35.9383,"time":"2026-07-07T01:12:34+00:00","location":"Орловский район","status":"approaching","count":3},{"lat":52.6765,"lon":36.2816,"time":"2026-07-07T01:13:35+00:00","location":"Свердловский район","status":"approaching","count":3},{"lat":52.3932,"lon":36.5399,"time":"2026-07-07T01:13:59+00:00","location":"Малоархангельский район","status":"approaching","count":2},{"lat":52.2425,"lon":37.0479,"time":"2026-07-07T01:14:18+00:00","location":"Колпнянский район","status":"approaching","count":5},{"lat":52.4109,"lon":37.3745,"time":"2026-07-07T01:15:47+00:00","location":"Ливенский район","status":"approaching","count":2}],"firstSeen":"2026-07-07T01:12:34+00:00","lastSeen":"2026-07-07T01:15:47+00:00","ended":false,"distanceKm":145},{"id":"trk-45","threatClass":"drone","points":[{"lat":53.4518,"lon":36.822,"time":"2026-07-07T01:17:55+00:00","location":"Чернский район","status":"approaching","count":2},{"lat":53.6528,"lon":38.0915,"time":"2026-07-07T01:19:13+00:00","location":"Тульская область","status":"approaching","count":7},{"lat":54.0576,"lon":38.3597,"time":"2026-07-07T01:20:56+00:00","location":"Новомосковский район","status":"approaching","count":4},{"lat":54.1731,"lon":39.0747,"time":"2026-07-07T01:21:14+00:00","location":"Михайловский район","status":"approaching","count":2}],"firstSeen":"2026-07-07T01:17:55+00:00","lastSeen":"2026-07-07T01:21:14+00:00","ended":false,"distanceKm":183},{"id":"trk-48","threatClass":"drone","points":[{"lat":53.7064,"lon":37.293,"time":"2026-07-07T01:19:29+00:00","location":"Плавский район","status":"approaching","count":null},{"lat":54.1226,"lon":36.3581,"time":"2026-07-07T01:19:51+00:00","location":"Суворовский район","status":"approaching","count":2}],"firstSeen":"2026-07-07T01:19:29+00:00","lastSeen":"2026-07-07T01:19:51+00:00","ended":false,"distanceKm":77},{"id":"trk-50","threatClass":"drone","points":[{"lat":54.6938,"lon":38.1602,"time":"2026-07-07T01:23:56+00:00","location":"Веневский район","status":"approaching","count":null},{"lat":54.2141,"lon":35.3921,"time":"2026-07-07T01:24:40+00:00","location":"Мещовский район","status":"approaching","count":null}],"firstSeen":"2026-07-07T01:23:56+00:00","lastSeen":"2026-07-07T01:24:40+00:00","ended":false,"distanceKm":187},{"id":"trk-51","threatClass":"drone","points":[{"lat":54.5207,"lon":35.9735,"time":"2026-07-07T01:24:40+00:00","location":"Бабынинский район","status":"approaching","count":null},{"lat":55.0939,"lon":38.767,"time":"2026-07-07T01:25:28+00:00","location":"Коломна","status":"approaching","count":12}],"firstSeen":"2026-07-07T01:24:40+00:00","lastSeen":"2026-07-07T01:25:28+00:00","ended":false,"distanceKm":190},{"id":"trk-54","threatClass":"drone","points":[{"lat":54.1931,"lon":37.6173,"time":"2026-07-07T01:25:48+00:00","location":"Тула","status":"overhead","count":null},{"lat":55.3808,"lon":36.4426,"time":"2026-07-07T01:26:08+00:00","location":"Наро-Фоминский район","status":"approaching","count":3},{"lat":55.5137,"lon":36.2643,"time":"2026-07-07T01:26:53+00:00","location":"Можайский район","status":"approaching","count":2},{"lat":55.9937,"lon":35.9362,"time":"2026-07-07T01:28:29+00:00","location":"Волоколамск","status":"approaching","count":null},{"lat":56.227,"lon":35.6413,"time":"2026-07-07T01:28:29+00:00","location":"Лотошино","status":"approaching","count":null}],"firstSeen":"2026-07-07T01:25:48+00:00","lastSeen":"2026-07-07T01:28:29+00:00","ended":false,"distanceKm":260},{"id":"trk-55","threatClass":"drone","points":[{"lat":55.8062,"lon":38.981,"time":"2026-07-07T01:28:29+00:00","location":"Орехово-Зуево","status":"approaching","count":null},{"lat":56.4573,"lon":38.3482,"time":"2026-07-07T01:28:55+00:00","location":"Сергиево-Посадский","status":"approaching","count":null}],"firstSeen":"2026-07-07T01:28:29+00:00","lastSeen":"2026-07-07T01:28:55+00:00","ended":false,"distanceKm":82},{"id":"trk-56","threatClass":"drone","points":[{"lat":55.6782,"lon":37.2668,"time":"2026-07-07T02:15:11+00:00","location":"Одинцово","status":"overhead","count":null},{"lat":55.4087,"lon":37.9095,"time":"2026-07-07T02:21:24+00:00","location":"Домодедово","status":"shot_down","count":null}],"firstSeen":"2026-07-07T02:15:11+00:00","lastSeen":"2026-07-07T02:21:24+00:00","ended":true,"distanceKm":50},{"id":"trk-60","threatClass":"drone","points":[{"lat":44.6055,"lon":39.7131,"time":"2026-07-07T05:00:45+00:00","location":"Кубанская","status":"approaching","count":null},{"lat":44.3009,"lon":39.7356,"time":"2026-07-07T05:00:45+00:00","location":"Апшеронский район","status":"approaching","count":null}],"firstSeen":"2026-07-07T05:00:45+00:00","lastSeen":"2026-07-07T05:00:45+00:00","ended":false,"distanceKm":34},{"id":"trk-61","threatClass":"drone","points":[{"lat":55.7751,"lon":40.4229,"time":"2026-07-07T05:02:04+00:00","location":"Иванищи","status":"unknown","count":null},{"lat":55.2842,"lon":40.799,"time":"2026-07-07T05:02:04+00:00","location":"Гусь-Хрустальный район","status":"unknown","count":null}],"firstSeen":"2026-07-07T05:02:04+00:00","lastSeen":"2026-07-07T05:02:04+00:00","ended":false,"distanceKm":59},{"id":"trk-62","threatClass":"drone","points":[{"lat":56.0151,"lon":39.9466,"time":"2026-07-07T05:02:44+00:00","location":"Лакинск","status":"unknown","count":null},{"lat":56.2588,"lon":38.4519,"time":"2026-07-07T05:33:03+00:00","location":"Площево","status":"approaching","count":null},{"lat":56.3153,"lon":38.136,"time":"2026-07-07T06:21:58+00:00","location":"Сергиев Посад","status":"approaching","count":null}],"firstSeen":"2026-07-07T05:02:44+00:00","lastSeen":"2026-07-07T06:21:58+00:00","ended":false,"distanceKm":117},{"id":"trk-67","threatClass":"drone","points":[{"lat":56.4274,"lon":40.4408,"time":"2026-07-07T05:33:03+00:00","location":"Александровский район","status":"approaching","count":null},{"lat":55.2842,"lon":40.799,"time":"2026-07-07T06:18:36+00:00","location":"Гусь-Хрустальный район","status":"approaching","count":null}],"firstSeen":"2026-07-07T05:33:03+00:00","lastSeen":"2026-07-07T06:18:36+00:00","ended":false,"distanceKm":129},{"id":"trk-75","threatClass":"drone","points":[{"lat":58.4691,"lon":41.8648,"time":"2026-07-07T05:42:43+00:00","location":"Калинино","status":"approaching","count":null},{"lat":57.6973,"lon":40.663,"time":"2026-07-07T05:42:43+00:00","location":"Костромской район","status":"approaching","count":null}],"firstSeen":"2026-07-07T05:42:43+00:00","lastSeen":"2026-07-07T05:42:43+00:00","ended":false,"distanceKm":111},{"id":"trk-76","threatClass":"drone","points":[{"lat":56.2868,"lon":38.7918,"time":"2026-07-07T06:19:41+00:00","location":"Киржачский район","status":"approaching","count":null},{"lat":55.5784,"lon":39.5438,"time":"2026-07-07T06:20:32+00:00","location":"Шатура","status":"approaching","count":3}],"firstSeen":"2026-07-07T06:19:41+00:00","lastSeen":"2026-07-07T06:20:32+00:00","ended":false,"distanceKm":92},{"id":"trk-77","threatClass":"drone","points":[{"lat":57.4064,"lon":41.2043,"time":"2026-07-07T06:23:56+00:00","location":"Красносельский район","status":"approaching","count":null},{"lat":57.6261,"lon":39.8845,"time":"2026-07-07T06:43:37+00:00","location":"Ярославль","status":"approaching","count":null}],"firstSeen":"2026-07-07T06:23:56+00:00","lastSeen":"2026-07-07T06:43:37+00:00","ended":false,"distanceKm":83},{"id":"trk-78","threatClass":"drone","points":[{"lat":52.2425,"lon":37.0479,"time":"2026-07-07T06:25:47+00:00","location":"Колпнянский район","status":"approaching","count":null},{"lat":52.3932,"lon":36.5399,"time":"2026-07-07T06:26:44+00:00","location":"Малоархангельский район","status":"approaching","count":2},{"lat":52.3967,"lon":35.8058,"time":"2026-07-07T06:27:51+00:00","location":"Троснянский район","status":"approaching","count":null},{"lat":52.858,"lon":35.1026,"time":"2026-07-07T06:28:36+00:00","location":"Шаблыкинский район","status":"approaching","count":null}],"firstSeen":"2026-07-07T06:25:47+00:00","lastSeen":"2026-07-07T06:28:36+00:00","ended":false,"distanceKm":158},{"id":"trk-79","threatClass":"drone","points":[{"lat":52.5715,"lon":36.8974,"time":"2026-07-07T06:27:34+00:00","location":"Покровский район","status":"approaching","count":null},{"lat":52.9857,"lon":35.9383,"time":"2026-07-07T06:46:16+00:00","location":"Орловский район","status":"approaching","count":2}],"firstSeen":"2026-07-07T06:27:34+00:00","lastSeen":"2026-07-07T06:46:16+00:00","ended":false,"distanceKm":79},{"id":"trk-81","threatClass":"drone","points":[{"lat":57.6964,"lon":40.6575,"time":"2026-07-07T06:44:30+00:00","location":"Ярославская область","status":"unknown","count":null},{"lat":57.7367,"lon":40.5455,"time":"2026-07-07T07:01:10+00:00","location":"Черная Заводь","status":"unknown","count":null}],"firstSeen":"2026-07-07T06:44:30+00:00","lastSeen":"2026-07-07T07:01:10+00:00","ended":false,"distanceKm":8},{"id":"trk-83","threatClass":"drone","points":[{"lat":52.9685,"lon":36.0692,"time":"2026-07-07T06:45:56+00:00","location":"Орел","status":"approaching","count":null},{"lat":53.5983,"lon":37.8195,"time":"2026-07-07T06:46:55+00:00","location":"Воловский район","status":"approaching","count":null},{"lat":53.7136,"lon":38.1682,"time":"2026-07-07T06:46:55+00:00","location":"Богородицкий район","status":"approaching","count":null}],"firstSeen":"2026-07-07T06:45:56+00:00","lastSeen":"2026-07-07T06:46:55+00:00","ended":false,"distanceKm":162},{"id":"trk-84","threatClass":"drone","points":[{"lat":53.9435,"lon":36.7279,"time":"2026-07-07T06:47:27+00:00","location":"Одоевский район","status":"approaching","count":2},{"lat":53.7236,"lon":35.5324,"time":"2026-07-07T06:49:01+00:00","location":"Ульяновский район","status":"approaching","count":3}],"firstSeen":"2026-07-07T06:47:27+00:00","lastSeen":"2026-07-07T06:49:01+00:00","ended":false,"distanceKm":82},{"id":"trk-86","threatClass":"drone","points":[{"lat":52.3967,"lon":35.8058,"time":"2026-07-07T08:33:38+00:00","location":"Троснянский район","status":"approaching","count":null},{"lat":52.2425,"lon":37.0479,"time":"2026-07-07T08:34:18+00:00","location":"Колпнянский район","status":"approaching","count":null},{"lat":51.2136,"lon":39.0706,"time":"2026-07-07T08:34:53+00:00","location":"Острогожский район","status":"approaching","count":null}],"firstSeen":"2026-07-07T08:33:38+00:00","lastSeen":"2026-07-07T08:34:53+00:00","ended":false,"distanceKm":266}],"updatedAt":"2026-07-07T09:22:42.246Z"}