{"tracks":[{"id":"trk-3","threatClass":"drone","points":[{"lat":55.5598,"lon":33.2145,"time":"2026-07-07T15:07:58+00:00","location":"Холм-Жирковский район","status":"approaching","count":null},{"lat":55.8657,"lon":34.1218,"time":"2026-07-07T15:07:58+00:00","location":"Сычевский район","status":"approaching","count":null}],"firstSeen":"2026-07-07T15:07:58+00:00","lastSeen":"2026-07-07T15:07:58+00:00","ended":false,"distanceKm":66},{"id":"trk-5","threatClass":"drone","points":[{"lat":48.312,"lon":38.2609,"time":"2026-07-07T15:19:31+00:00","location":"Углегорск","status":"unknown","count":null},{"lat":48.3397,"lon":38.3999,"time":"2026-07-07T15:19:31+00:00","location":"Дебальцево","status":"unknown","count":null}],"firstSeen":"2026-07-07T15:19:31+00:00","lastSeen":"2026-07-07T15:19:31+00:00","ended":false,"distanceKm":11},{"id":"trk-6","threatClass":"drone","points":[{"lat":51.9638,"lon":35.9644,"time":"2026-07-07T16:43:45+00:00","location":"Большое Жирово","status":"approaching","count":null},{"lat":52.2926,"lon":35.821,"time":"2026-07-07T16:43:45+00:00","location":"Фатежский район","status":"approaching","count":null}],"firstSeen":"2026-07-07T16:43:45+00:00","lastSeen":"2026-07-07T16:43:45+00:00","ended":false,"distanceKm":38},{"id":"trk-9","threatClass":"drone","points":[{"lat":51.236,"lon":36.6941,"time":"2026-07-07T17:26:57+00:00","location":"Пристень","status":"approaching","count":null},{"lat":51.4196,"lon":36.7499,"time":"2026-07-07T17:26:57+00:00","location":"Солнцево","status":"approaching","count":null}],"firstSeen":"2026-07-07T17:26:57+00:00","lastSeen":"2026-07-07T17:26:57+00:00","ended":false,"distanceKm":21},{"id":"trk-11","threatClass":"drone","points":[{"lat":52.5844,"lon":38.3803,"time":"2026-07-07T19:16:58+00:00","location":"Ольховец","status":"approaching","count":null},{"lat":51.6947,"lon":39.0205,"time":"2026-07-07T20:11:15+00:00","location":"Семилуки","status":"unknown","count":null}],"firstSeen":"2026-07-07T19:16:58+00:00","lastSeen":"2026-07-07T20:11:15+00:00","ended":false,"distanceKm":108},{"id":"trk-16","threatClass":"drone","points":[{"lat":45.1145,"lon":39.3805,"time":"2026-07-07T19:09:50+00:00","location":"Васюринская","status":"approaching","count":null},{"lat":45.3318,"lon":39.2596,"time":"2026-07-07T19:09:50+00:00","location":"Динской район","status":"approaching","count":null}],"firstSeen":"2026-07-07T19:09:50+00:00","lastSeen":"2026-07-07T19:09:50+00:00","ended":false,"distanceKm":26},{"id":"trk-17","threatClass":"drone","points":[{"lat":49.7972,"lon":39.7513,"time":"2026-07-07T19:14:25+00:00","location":"Кантемировский район","status":"approaching","count":null},{"lat":49.8881,"lon":40.2257,"time":"2026-07-07T19:14:25+00:00","location":"Богучарский район","status":"approaching","count":null},{"lat":50.6859,"lon":41.0743,"time":"2026-07-07T19:14:25+00:00","location":"Воробьёвский район","status":"approaching","count":null}],"firstSeen":"2026-07-07T19:14:25+00:00","lastSeen":"2026-07-07T19:14:25+00:00","ended":false,"distanceKm":143},{"id":"trk-18","threatClass":"drone","points":[{"lat":50.0544,"lon":40.5939,"time":"2026-07-07T20:13:30+00:00","location":"Журавка","status":"unknown","count":null},{"lat":49.7972,"lon":39.7513,"time":"2026-07-07T20:40:37+00:00","location":"Кантемировский район","status":"approaching","count":null}],"firstSeen":"2026-07-07T20:13:30+00:00","lastSeen":"2026-07-07T20:40:37+00:00","ended":false,"distanceKm":67},{"id":"trk-20","threatClass":"drone","points":[{"lat":55.383,"lon":39.0356,"time":"2026-07-07T20:14:15+00:00","location":"Егорьевск","status":"approaching","count":2},{"lat":54.709,"lon":39.5045,"time":"2026-07-07T20:52:56+00:00","location":"Рязанский район","status":"approaching","count":null}],"firstSeen":"2026-07-07T20:14:15+00:00","lastSeen":"2026-07-07T20:52:56+00:00","ended":false,"distanceKm":81},{"id":"trk-21","threatClass":"drone","points":[{"lat":52.9857,"lon":35.9383,"time":"2026-07-07T20:17:33+00:00","location":"Орловский район","status":"approaching","count":null},{"lat":52.5157,"lon":35.2526,"time":"2026-07-07T20:17:33+00:00","location":"Дмитровский район","status":"approaching","count":null}],"firstSeen":"2026-07-07T20:17:33+00:00","lastSeen":"2026-07-07T20:17:33+00:00","ended":false,"distanceKm":70},{"id":"trk-22","threatClass":"drone","points":[{"lat":52.4485,"lon":36.2419,"time":"2026-07-07T20:17:33+00:00","location":"Глазуновский район","status":"approaching","count":null},{"lat":52.9628,"lon":37.56,"time":"2026-07-07T20:17:33+00:00","location":"Новодеревеньковский район","status":"approaching","count":null}],"firstSeen":"2026-07-07T20:17:33+00:00","lastSeen":"2026-07-07T20:17:33+00:00","ended":false,"distanceKm":106},{"id":"trk-23","threatClass":"drone","points":[{"lat":52.0929,"lon":37.4888,"time":"2026-07-07T20:17:33+00:00","location":"Должанский район","status":"approaching","count":null},{"lat":51.6465,"lon":38.8104,"time":"2026-07-07T20:39:01+00:00","location":"Семилукский район","status":"approaching","count":null},{"lat":50.4092,"lon":41.0154,"time":"2026-07-07T20:39:01+00:00","location":"Калачеевский район","status":"approaching","count":null},{"lat":50.0765,"lon":41.0384,"time":"2026-07-07T20:39:17+00:00","location":"Петропавловский район","status":"approaching","count":null}],"firstSeen":"2026-07-07T20:17:33+00:00","lastSeen":"2026-07-07T20:39:17+00:00","ended":false,"distanceKm":347},{"id":"trk-24","threatClass":"drone","points":[{"lat":49.8227,"lon":39.2824,"time":"2026-07-07T20:18:05+00:00","location":"Новобелая","status":"approaching","count":null},{"lat":50.0544,"lon":40.5939,"time":"2026-07-07T20:40:37+00:00","location":"Журавка","status":"approaching","count":null}],"firstSeen":"2026-07-07T20:18:05+00:00","lastSeen":"2026-07-07T20:40:37+00:00","ended":false,"distanceKm":97},{"id":"trk-25","threatClass":"drone","points":[{"lat":51.0588,"lon":40.1363,"time":"2026-07-07T20:21:18+00:00","location":"Бобровский район","status":"approaching","count":null},{"lat":50.728,"lon":40.0393,"time":"2026-07-07T20:21:18+00:00","location":"Павловский район","status":"approaching","count":null},{"lat":50.2296,"lon":40.4459,"time":"2026-07-07T20:21:18+00:00","location":"Верхнемамонский район","status":"approaching","count":null},{"lat":49.7972,"lon":39.7513,"time":"2026-07-07T21:07:13+00:00","location":"Кантемировский район","status":"approaching","count":null}],"firstSeen":"2026-07-07T20:21:18+00:00","lastSeen":"2026-07-07T21:07:13+00:00","ended":false,"distanceKm":169},{"id":"trk-26","threatClass":"drone","points":[{"lat":50.3476,"lon":39.4458,"time":"2026-07-07T20:21:18+00:00","location":"Россошанский район","status":"approaching","count":null},{"lat":49.8881,"lon":40.2257,"time":"2026-07-07T20:41:49+00:00","location":"Богучарский район","status":"approaching","count":null},{"lat":49.5896,"lon":40.5547,"time":"2026-07-07T20:42:13+00:00","location":"Чертковский район","status":"approaching","count":null},{"lat":48.6824,"lon":40.4969,"time":"2026-07-07T20:42:13+00:00","location":"Тарасовский район","status":"approaching","count":null},{"lat":48.3383,"lon":39.9509,"time":"2026-07-07T21:35:06+00:00","location":"Донецк","status":"overhead","count":null}],"firstSeen":"2026-07-07T20:21:18+00:00","lastSeen":"2026-07-07T21:35:06+00:00","ended":false,"distanceKm":273},{"id":"trk-28","threatClass":"drone","points":[{"lat":49.5896,"lon":40.5547,"time":"2026-07-07T20:23:42+00:00","location":"Чертковский район","status":"approaching","count":null},{"lat":49.025,"lon":40.2652,"time":"2026-07-07T20:23:42+00:00","location":"Миллеровский район","status":"approaching","count":null},{"lat":48.6824,"lon":40.4969,"time":"2026-07-07T20:23:42+00:00","location":"Тарасовский район","status":"approaching","count":null},{"lat":48.3687,"lon":40.5059,"time":"2026-07-07T20:42:13+00:00","location":"Каменский район","status":"approaching","count":null}],"firstSeen":"2026-07-07T20:23:42+00:00","lastSeen":"2026-07-07T20:42:13+00:00","ended":false,"distanceKm":143},{"id":"trk-29","threatClass":"drone","points":[{"lat":51.3664,"lon":42.0867,"time":"2026-07-07T20:28:40+00:00","location":"Борисоглебск","status":"overhead","count":null},{"lat":51.0588,"lon":40.1363,"time":"2026-07-07T21:07:13+00:00","location":"Бобровский район","status":"approaching","count":null},{"lat":50.4605,"lon":39.3894,"time":"2026-07-07T21:07:13+00:00","location":"Ольховатский район","status":"approaching","count":null}],"firstSeen":"2026-07-07T20:28:40+00:00","lastSeen":"2026-07-07T21:07:13+00:00","ended":false,"distanceKm":225},{"id":"trk-30","threatClass":"drone","points":[{"lat":51.3393,"lon":41.5417,"time":"2026-07-07T20:26:21+00:00","location":"Кутки","status":"approaching","count":null},{"lat":51.4879,"lon":41.4836,"time":"2026-07-07T20:26:21+00:00","location":"Грибановский район","status":"approaching","count":null}],"firstSeen":"2026-07-07T20:26:21+00:00","lastSeen":"2026-07-07T20:26:21+00:00","ended":false,"distanceKm":17},{"id":"trk-32","threatClass":"drone","points":[{"lat":55.8062,"lon":38.981,"time":"2026-07-07T20:36:30+00:00","location":"Орехово-Зуево","status":"approaching","count":null},{"lat":56.0123,"lon":40.0415,"time":"2026-07-07T20:59:07+00:00","location":"Собинский район","status":"approaching","count":null}],"firstSeen":"2026-07-07T20:36:30+00:00","lastSeen":"2026-07-07T20:59:07+00:00","ended":false,"distanceKm":70},{"id":"trk-33","threatClass":"drone","points":[{"lat":53.3285,"lon":37.1138,"time":"2026-07-07T20:36:45+00:00","location":"Архангельское","status":"approaching","count":null},{"lat":54.2253,"lon":38.8906,"time":"2026-07-07T20:38:23+00:00","location":"Октябрьский","status":"approaching","count":null}],"firstSeen":"2026-07-07T20:36:45+00:00","lastSeen":"2026-07-07T20:38:23+00:00","ended":false,"distanceKm":154},{"id":"trk-34","threatClass":"drone","points":[{"lat":51.1725,"lon":39.7173,"time":"2026-07-07T20:39:31+00:00","location":"Лискинский район","status":"approaching","count":null},{"lat":50.728,"lon":40.0393,"time":"2026-07-07T21:07:13+00:00","location":"Павловский район","status":"approaching","count":null},{"lat":50.3476,"lon":39.4458,"time":"2026-07-07T21:07:13+00:00","location":"Россошанский район","status":"approaching","count":null}],"firstSeen":"2026-07-07T20:39:31+00:00","lastSeen":"2026-07-07T21:07:13+00:00","ended":false,"distanceKm":114},{"id":"trk-36","threatClass":"drone","points":[{"lat":49.2817,"lon":41.7308,"time":"2026-07-07T20:50:18+00:00","location":"Боковский район","status":"overhead","count":null},{"lat":50.2226,"lon":42.3203,"time":"2026-07-07T22:15:16+00:00","location":"Алексеевский район","status":"approaching","count":null},{"lat":50.8187,"lon":43.7258,"time":"2026-07-07T22:46:45+00:00","location":"Еланский район","status":"approaching","count":null},{"lat":50.8903,"lon":44.9818,"time":"2026-07-07T23:02:24+00:00","location":"Жирновский район","status":"approaching","count":null},{"lat":51.5333,"lon":46.0344,"time":"2026-07-07T23:26:51+00:00","location":"Саратов","status":"shot_down","count":null}],"firstSeen":"2026-07-07T20:50:18+00:00","lastSeen":"2026-07-07T23:26:51+00:00","ended":true,"distanceKm":423},{"id":"trk-41","threatClass":"drone","points":[{"lat":50.2296,"lon":40.4459,"time":"2026-07-07T21:07:13+00:00","location":"Верхнемамонский район","status":"approaching","count":null},{"lat":49.8881,"lon":40.2257,"time":"2026-07-07T21:38:15+00:00","location":"Богучарский район","status":"approaching","count":null},{"lat":49.5896,"lon":40.5547,"time":"2026-07-07T21:38:45+00:00","location":"Чертковский район","status":"approaching","count":null},{"lat":48.6824,"lon":40.4969,"time":"2026-07-07T21:38:45+00:00","location":"Тарасовский район","status":"approaching","count":null}],"firstSeen":"2026-07-07T21:07:13+00:00","lastSeen":"2026-07-07T21:38:45+00:00","ended":false,"distanceKm":183},{"id":"trk-42","threatClass":"drone","points":[{"lat":51.1127,"lon":41.4538,"time":"2026-07-07T21:07:13+00:00","location":"Новохоперский район","status":"approaching","count":null},{"lat":50.4092,"lon":41.0154,"time":"2026-07-07T21:38:15+00:00","location":"Калачеевский район","status":"approaching","count":null},{"lat":49.7991,"lon":41.2631,"time":"2026-07-07T21:38:45+00:00","location":"Верхнедонской район","status":"approaching","count":null},{"lat":48.728,"lon":41.6401,"time":"2026-07-07T21:38:45+00:00","location":"Милютинский район","status":"approaching","count":null}],"firstSeen":"2026-07-07T21:07:13+00:00","lastSeen":"2026-07-07T21:38:45+00:00","ended":false,"distanceKm":276},{"id":"trk-43","threatClass":"drone","points":[{"lat":51,"lon":40,"time":"2026-07-07T21:34:52+00:00","location":"Воронежской области.","status":"approaching","count":null},{"lat":50.9788,"lon":39.1816,"time":"2026-07-07T22:17:58+00:00","location":"Покровка","status":"approaching","count":null}],"firstSeen":"2026-07-07T21:34:52+00:00","lastSeen":"2026-07-07T22:17:58+00:00","ended":false,"distanceKm":57},{"id":"trk-44","threatClass":"drone","points":[{"lat":51.4653,"lon":40.1314,"time":"2026-07-07T21:35:50+00:00","location":"Аннинский район","status":"approaching","count":null},{"lat":51.0588,"lon":40.1363,"time":"2026-07-07T21:35:50+00:00","location":"Бобровский район","status":"approaching","count":null},{"lat":50.5089,"lon":39.6692,"time":"2026-07-07T21:35:50+00:00","location":"Подгоренский район","status":"approaching","count":null}],"firstSeen":"2026-07-07T21:35:50+00:00","lastSeen":"2026-07-07T21:35:50+00:00","ended":false,"distanceKm":115},{"id":"trk-45","threatClass":"drone","points":[{"lat":51.1725,"lon":39.7173,"time":"2026-07-07T21:35:50+00:00","location":"Лискинский район","status":"approaching","count":null},{"lat":50.728,"lon":40.0393,"time":"2026-07-07T21:48:36+00:00","location":"Павловский район","status":"approaching","count":null}],"firstSeen":"2026-07-07T21:35:50+00:00","lastSeen":"2026-07-07T21:48:36+00:00","ended":false,"distanceKm":54},{"id":"trk-46","threatClass":"drone","points":[{"lat":52.4208,"lon":42.4608,"time":"2026-07-07T21:38:50+00:00","location":"Васильевка","status":"approaching","count":null},{"lat":51.997,"lon":41.1766,"time":"2026-07-07T21:55:13+00:00","location":"Токарёвский район","status":"approaching","count":null}],"firstSeen":"2026-07-07T21:38:50+00:00","lastSeen":"2026-07-07T21:55:13+00:00","ended":false,"distanceKm":99},{"id":"trk-47","threatClass":"drone","points":[{"lat":52.0929,"lon":37.4888,"time":"2026-07-07T22:12:02+00:00","location":"Должанский район","status":"approaching","count":6},{"lat":52.2425,"lon":37.0479,"time":"2026-07-07T22:12:02+00:00","location":"Колпнянский район","status":"approaching","count":null},{"lat":52.3967,"lon":35.8058,"time":"2026-07-07T22:40:08+00:00","location":"Троснянский район","status":"approaching","count":null}],"firstSeen":"2026-07-07T22:12:02+00:00","lastSeen":"2026-07-07T22:40:08+00:00","ended":false,"distanceKm":121},{"id":"trk-49","threatClass":"drone","points":[{"lat":49.8794,"lon":43.4464,"time":"2026-07-07T21:47:43+00:00","location":"Фроловский район","status":"approaching","count":null},{"lat":49.856,"lon":42.447,"time":"2026-07-07T21:47:43+00:00","location":"Кумылженский район","status":"approaching","count":null},{"lat":50.3224,"lon":41.7408,"time":"2026-07-07T21:47:43+00:00","location":"Нехаевский район","status":"approaching","count":null},{"lat":51.1625,"lon":40.7757,"time":"2026-07-07T21:48:36+00:00","location":"Таловский район","status":"approaching","count":null},{"lat":51.862,"lon":41.5913,"time":"2026-07-07T22:09:21+00:00","location":"Жердевский район","status":"approaching","count":null},{"lat":52.9516,"lon":42.9108,"time":"2026-07-07T22:39:36+00:00","location":"Гавриловский район","status":"approaching","count":null}],"firstSeen":"2026-07-07T21:47:43+00:00","lastSeen":"2026-07-07T22:39:36+00:00","ended":false,"distanceKm":506},{"id":"trk-50","threatClass":"drone","points":[{"lat":49.4953,"lon":42.7518,"time":"2026-07-07T21:47:43+00:00","location":"Серафимовичский район","status":"approaching","count":null},{"lat":50.4092,"lon":41.0154,"time":"2026-07-07T21:48:36+00:00","location":"Калачеевский район","status":"approaching","count":null},{"lat":50.792,"lon":40.5643,"time":"2026-07-07T22:41:54+00:00","location":"Бутурлиновский район","status":"approaching","count":2}],"firstSeen":"2026-07-07T21:47:43+00:00","lastSeen":"2026-07-07T22:41:54+00:00","ended":false,"distanceKm":214},{"id":"trk-53","threatClass":"drone","points":[{"lat":51.309,"lon":39.216,"time":"2026-07-07T21:59:53+00:00","location":"Нововоронеж","status":"overhead","count":null},{"lat":51.6608,"lon":39.2003,"time":"2026-07-07T22:11:41+00:00","location":"Воронеж","status":"approaching","count":null},{"lat":52.0875,"lon":39.1791,"time":"2026-07-07T22:11:41+00:00","location":"Рамонский район","status":"approaching","count":null},{"lat":53.0017,"lon":38.2232,"time":"2026-07-07T22:39:19+00:00","location":"Становлянский район","status":"approaching","count":null},{"lat":53.4361,"lon":35.988,"time":"2026-07-07T22:40:08+00:00","location":"Болховский район","status":"approaching","count":null}],"firstSeen":"2026-07-07T21:59:53+00:00","lastSeen":"2026-07-07T22:40:08+00:00","ended":false,"distanceKm":364},{"id":"trk-54","threatClass":"drone","points":[{"lat":54.6746,"lon":39.6721,"time":"2026-07-07T22:06:22+00:00","location":"Спасский район","status":"approaching","count":null},{"lat":56.1619,"lon":40.358,"time":"2026-07-07T22:07:21+00:00","location":"Юрьев-Польский район","status":"approaching","count":null}],"firstSeen":"2026-07-07T22:06:22+00:00","lastSeen":"2026-07-07T22:07:21+00:00","ended":false,"distanceKm":171},{"id":"trk-56","threatClass":"drone","points":[{"lat":51.7502,"lon":40.6662,"time":"2026-07-07T22:11:41+00:00","location":"Эртильский район","status":"approaching","count":null},{"lat":51.6473,"lon":39.6165,"time":"2026-07-07T22:11:41+00:00","location":"Новоусманский район","status":"approaching","count":null},{"lat":51.2136,"lon":39.0706,"time":"2026-07-07T22:11:41+00:00","location":"Острогожский район","status":"approaching","count":null}],"firstSeen":"2026-07-07T22:11:41+00:00","lastSeen":"2026-07-07T22:11:41+00:00","ended":false,"distanceKm":135},{"id":"trk-57","threatClass":"drone","points":[{"lat":50.3224,"lon":41.7408,"time":"2026-07-07T22:13:30+00:00","location":"Нехаевский район","status":"approaching","count":3},{"lat":49.4953,"lon":42.7518,"time":"2026-07-07T22:15:16+00:00","location":"Серафимовичский район","status":"approaching","count":null}],"firstSeen":"2026-07-07T22:13:30+00:00","lastSeen":"2026-07-07T22:15:16+00:00","ended":false,"distanceKm":117},{"id":"trk-58","threatClass":"drone","points":[{"lat":49.8794,"lon":43.4464,"time":"2026-07-07T22:40:56+00:00","location":"Фроловский район","status":"approaching","count":null},{"lat":50.8187,"lon":43.7258,"time":"2026-07-07T23:02:24+00:00","location":"Еланский район","status":"approaching","count":null}],"firstSeen":"2026-07-07T22:40:56+00:00","lastSeen":"2026-07-07T23:02:24+00:00","ended":false,"distanceKm":106},{"id":"trk-60","threatClass":"drone","points":[{"lat":50.8903,"lon":44.9818,"time":"2026-07-07T22:45:10+00:00","location":"Жирновский район","status":"approaching","count":null},{"lat":50.3817,"lon":44.1307,"time":"2026-07-07T22:46:45+00:00","location":"Даниловский район","status":"approaching","count":null}],"firstSeen":"2026-07-07T22:45:10+00:00","lastSeen":"2026-07-07T22:46:45+00:00","ended":false,"distanceKm":82},{"id":"trk-61","threatClass":"drone","points":[{"lat":54.468,"lon":38.7224,"time":"2026-07-07T22:37:16+00:00","location":"Серебряные Пруды","status":"approaching","count":null},{"lat":54.1731,"lon":39.0747,"time":"2026-07-07T22:37:29+00:00","location":"Михайловский район","status":"approaching","count":null}],"firstSeen":"2026-07-07T22:37:16+00:00","lastSeen":"2026-07-07T22:37:29+00:00","ended":false,"distanceKm":40},{"id":"trk-63","threatClass":"drone","points":[{"lat":44.9897,"lon":37.2607,"time":"2026-07-07T22:47:00+00:00","location":"Витязево","status":"approaching","count":null},{"lat":44.8908,"lon":37.3164,"time":"2026-07-07T22:49:30+00:00","location":"Анапа","status":"overhead","count":null}],"firstSeen":"2026-07-07T22:47:00+00:00","lastSeen":"2026-07-07T22:49:30+00:00","ended":false,"distanceKm":12},{"id":"trk-64","threatClass":"drone","points":[{"lat":47.0971,"lon":37.5434,"time":"2026-07-07T22:53:20+00:00","location":"Мариуполь","status":"unknown","count":null},{"lat":48.0162,"lon":37.8095,"time":"2026-07-07T22:53:20+00:00","location":"ДНР","status":"unknown","count":null}],"firstSeen":"2026-07-07T22:53:20+00:00","lastSeen":"2026-07-07T22:53:20+00:00","ended":false,"distanceKm":104},{"id":"trk-65","threatClass":"drone","points":[{"lat":45.9322,"lon":38.8751,"time":"2026-07-07T22:57:54+00:00","location":"Чепигинская","status":"unknown","count":null},{"lat":45.8547,"lon":39.0671,"time":"2026-07-07T22:57:54+00:00","location":"Брюховецкий район","status":"unknown","count":null}],"firstSeen":"2026-07-07T22:57:54+00:00","lastSeen":"2026-07-07T22:57:54+00:00","ended":false,"distanceKm":17},{"id":"trk-67","threatClass":"drone","points":[{"lat":45.2157,"lon":37.8945,"time":"2026-07-07T23:03:42+00:00","location":"Анастасиевская","status":"unknown","count":null},{"lat":44.8679,"lon":38.3906,"time":"2026-07-07T23:32:13+00:00","location":"Холмская","status":"unknown","count":null}],"firstSeen":"2026-07-07T23:03:42+00:00","lastSeen":"2026-07-07T23:32:13+00:00","ended":false,"distanceKm":55},{"id":"trk-68","threatClass":"drone","points":[{"lat":53.1585,"lon":48.4742,"time":"2026-07-07T23:09:11+00:00","location":"Сызрань","status":"unknown","count":null},{"lat":53.1959,"lon":50.1002,"time":"2026-07-07T23:09:11+00:00","location":"Самара","status":"unknown","count":null}],"firstSeen":"2026-07-07T23:09:11+00:00","lastSeen":"2026-07-07T23:09:11+00:00","ended":false,"distanceKm":108},{"id":"trk-69","threatClass":"drone","points":[{"lat":53.0996,"lon":49.9457,"time":"2026-07-07T23:09:11+00:00","location":"Новокуйбышевск","status":"unknown","count":null},{"lat":53.5099,"lon":49.4189,"time":"2026-07-07T23:09:11+00:00","location":"Тольятти","status":"unknown","count":null}],"firstSeen":"2026-07-07T23:09:11+00:00","lastSeen":"2026-07-07T23:09:11+00:00","ended":false,"distanceKm":58},{"id":"trk-70","threatClass":"drone","points":[{"lat":51.5333,"lon":46.0344,"time":"2026-07-07T23:10:06+00:00","location":"Саратов","status":"overhead","count":null},{"lat":51.4839,"lon":46.1247,"time":"2026-07-07T23:21:01+00:00","location":"Энгельс","status":"shot_down","count":null}],"firstSeen":"2026-07-07T23:10:06+00:00","lastSeen":"2026-07-07T23:21:01+00:00","ended":true,"distanceKm":8}],"updatedAt":"2026-07-07T23:33:24.667Z"}