{"tracks":[{"id":"trk-1","threatClass":"drone","points":[{"lat":48.3053,"lon":40.1556,"time":"2026-07-22T23:22:27+00:00","location":"Поповка","status":"unknown","count":null},{"lat":49.8088,"lon":41.12,"time":"2026-07-22T23:22:27+00:00","location":"Кукуевский","status":"unknown","count":null}],"firstSeen":"2026-07-22T23:22:27+00:00","lastSeen":"2026-07-22T23:22:27+00:00","ended":false,"distanceKm":181},{"id":"trk-4","threatClass":"drone","points":[{"lat":53.1585,"lon":48.4742,"time":"2026-07-22T23:37:37+00:00","location":"Сызрань","status":"unknown","count":null},{"lat":53.1959,"lon":50.1002,"time":"2026-07-22T23:37:37+00:00","location":"Самара","status":"unknown","count":null}],"firstSeen":"2026-07-22T23:37:37+00:00","lastSeen":"2026-07-22T23:37:37+00:00","ended":false,"distanceKm":108},{"id":"trk-5","threatClass":"drone","points":[{"lat":53.0996,"lon":49.9457,"time":"2026-07-22T23:37:37+00:00","location":"Новокуйбышевск","status":"unknown","count":null},{"lat":53.5099,"lon":49.4189,"time":"2026-07-22T23:37:37+00:00","location":"Тольятти","status":"unknown","count":null}],"firstSeen":"2026-07-22T23:37:37+00:00","lastSeen":"2026-07-22T23:37:37+00:00","ended":false,"distanceKm":58},{"id":"trk-8","threatClass":"drone","points":[{"lat":58.2117,"lon":30.7248,"time":"2026-07-22T23:54:04+00:00","location":"Шимск","status":"unknown","count":null},{"lat":57.9791,"lon":33.2538,"time":"2026-07-22T23:54:04+00:00","location":"Валдай","status":"unknown","count":null}],"firstSeen":"2026-07-22T23:54:04+00:00","lastSeen":"2026-07-22T23:54:04+00:00","ended":false,"distanceKm":151},{"id":"trk-9","threatClass":"drone","points":[{"lat":57.9899,"lon":31.3635,"time":"2026-07-22T23:54:04+00:00","location":"Старая Русса","status":"unknown","count":null},{"lat":58.5215,"lon":31.2755,"time":"2026-07-22T23:54:04+00:00","location":"Великий Новгород","status":"unknown","count":null}],"firstSeen":"2026-07-22T23:54:04+00:00","lastSeen":"2026-07-22T23:54:04+00:00","ended":false,"distanceKm":59},{"id":"trk-10","threatClass":"drone","points":[{"lat":58.2117,"lon":30.7248,"time":"2026-07-22T23:54:34+00:00","location":"Шимск","status":"unknown","count":null},{"lat":57.9791,"lon":33.2538,"time":"2026-07-22T23:54:34+00:00","location":"Валдай","status":"unknown","count":null}],"firstSeen":"2026-07-22T23:54:34+00:00","lastSeen":"2026-07-22T23:54:34+00:00","ended":false,"distanceKm":151},{"id":"trk-11","threatClass":"drone","points":[{"lat":57.9899,"lon":31.3635,"time":"2026-07-22T23:54:34+00:00","location":"Старая Русса","status":"unknown","count":null},{"lat":58.5215,"lon":31.2755,"time":"2026-07-22T23:54:34+00:00","location":"Великий Новгород","status":"unknown","count":null}],"firstSeen":"2026-07-22T23:54:34+00:00","lastSeen":"2026-07-22T23:54:34+00:00","ended":false,"distanceKm":59},{"id":"trk-21","threatClass":"drone","points":[{"lat":55.8062,"lon":38.981,"time":"2026-07-23T08:39:11+00:00","location":"Орехово-Зуево","status":"approaching","count":2},{"lat":55.7813,"lon":38.6508,"time":"2026-07-23T08:50:15+00:00","location":"Павловский Посад","status":"unknown","count":null},{"lat":55.7845,"lon":38.4449,"time":"2026-07-23T08:50:15+00:00","location":"Электросталь","status":"unknown","count":null},{"lat":55.8095,"lon":37.9485,"time":"2026-07-23T08:50:15+00:00","location":"Балашиха","status":"unknown","count":null},{"lat":55.7516,"lon":37.8556,"time":"2026-07-23T08:50:15+00:00","location":"Реутов","status":"unknown","count":null},{"lat":55.6783,"lon":37.8938,"time":"2026-07-23T08:50:15+00:00","location":"Люберцы","status":"unknown","count":null}],"firstSeen":"2026-07-23T08:39:11+00:00","lastSeen":"2026-07-23T08:50:15+00:00","ended":false,"distanceKm":82},{"id":"trk-22","threatClass":"drone","points":[{"lat":55.7813,"lon":38.6508,"time":"2026-07-23T08:46:45+00:00","location":"Павловский Посад","status":"unknown","count":null},{"lat":55.7845,"lon":38.4449,"time":"2026-07-23T08:46:45+00:00","location":"Электросталь","status":"unknown","count":null},{"lat":55.8095,"lon":37.9485,"time":"2026-07-23T08:46:45+00:00","location":"Балашиха","status":"unknown","count":null},{"lat":55.7516,"lon":37.8556,"time":"2026-07-23T08:46:45+00:00","location":"Реутов","status":"unknown","count":null},{"lat":55.6783,"lon":37.8938,"time":"2026-07-23T08:46:45+00:00","location":"Люберцы","status":"unknown","count":null}],"firstSeen":"2026-07-23T08:46:45+00:00","lastSeen":"2026-07-23T08:46:45+00:00","ended":false,"distanceKm":61}],"updatedAt":"2026-07-23T11:20:52.716Z"}