{"tracks":[{"id":"trk-3","threatClass":"drone","points":[{"lat":55.4087,"lon":37.9095,"time":"2026-07-08T12:16:47+00:00","location":"Домодедово","status":"overhead","count":null},{"lat":55.6782,"lon":37.2668,"time":"2026-07-08T12:28:25+00:00","location":"Одинцово","status":"overhead","count":null}],"firstSeen":"2026-07-08T12:16:47+00:00","lastSeen":"2026-07-08T12:28:25+00:00","ended":false,"distanceKm":50},{"id":"trk-5","threatClass":"drone","points":[{"lat":50.506,"lon":36.5735,"time":"2026-07-08T16:10:13+00:00","location":"Таврово","status":"approaching","count":null},{"lat":50.5228,"lon":36.3825,"time":"2026-07-08T16:10:13+00:00","location":"Белгородский район","status":"approaching","count":null}],"firstSeen":"2026-07-08T16:10:13+00:00","lastSeen":"2026-07-08T16:10:13+00:00","ended":false,"distanceKm":14},{"id":"trk-7","threatClass":"drone","points":[{"lat":47.0971,"lon":37.5434,"time":"2026-07-08T20:38:53+00:00","location":"Мариуполь","status":"approaching","count":null},{"lat":48.0162,"lon":37.8095,"time":"2026-07-08T20:38:53+00:00","location":"ДНР","status":"approaching","count":null}],"firstSeen":"2026-07-08T20:38:53+00:00","lastSeen":"2026-07-08T20:38:53+00:00","ended":false,"distanceKm":104},{"id":"trk-8","threatClass":"drone","points":[{"lat":48.9938,"lon":40.9582,"time":"2026-07-08T20:41:04+00:00","location":"Верхнекалиновка","status":"unknown","count":null},{"lat":49.0393,"lon":41.3935,"time":"2026-07-08T20:41:04+00:00","location":"Кашарский район","status":"unknown","count":null}],"firstSeen":"2026-07-08T20:41:04+00:00","lastSeen":"2026-07-08T20:41:04+00:00","ended":false,"distanceKm":32},{"id":"trk-10","threatClass":"drone","points":[{"lat":47.7,"lon":41,"time":"2026-07-08T21:09:28+00:00","location":"Ростовская область","status":"overhead","count":null},{"lat":47.4611,"lon":41.8536,"time":"2026-07-08T21:33:42+00:00","location":"Волгодонский район","status":"approaching","count":null}],"firstSeen":"2026-07-08T21:09:28+00:00","lastSeen":"2026-07-08T21:33:42+00:00","ended":false,"distanceKm":69},{"id":"trk-11","threatClass":"drone","points":[{"lat":47.4771,"lon":38.632,"time":"2026-07-08T20:55:44+00:00","location":"Латоново","status":"approaching","count":null},{"lat":47.0918,"lon":40.7415,"time":"2026-07-08T21:20:44+00:00","location":"Веселый","status":"approaching","count":null}],"firstSeen":"2026-07-08T20:55:44+00:00","lastSeen":"2026-07-08T21:20:44+00:00","ended":false,"distanceKm":165},{"id":"trk-13","threatClass":"drone","points":[{"lat":49.8597,"lon":40.0841,"time":"2026-07-08T20:59:50+00:00","location":"Талы","status":"approaching","count":null},{"lat":49.6142,"lon":40.2058,"time":"2026-07-08T21:07:37+00:00","location":"Анно-Ребриковская","status":"approaching","count":null}],"firstSeen":"2026-07-08T20:59:50+00:00","lastSeen":"2026-07-08T21:07:37+00:00","ended":false,"distanceKm":29},{"id":"trk-15","threatClass":"drone","points":[{"lat":47.3536,"lon":38.8883,"time":"2026-07-08T21:00:58+00:00","location":"Троицкое","status":"approaching","count":null},{"lat":47.4771,"lon":38.632,"time":"2026-07-08T21:20:13+00:00","location":"Латоново","status":"approaching","count":null}],"firstSeen":"2026-07-08T21:00:58+00:00","lastSeen":"2026-07-08T21:20:13+00:00","ended":false,"distanceKm":24},{"id":"trk-18","threatClass":"drone","points":[{"lat":52.854,"lon":35.1952,"time":"2026-07-08T21:13:03+00:00","location":"Шаблыкино","status":"approaching","count":null},{"lat":52.9708,"lon":35.4554,"time":"2026-07-08T21:28:12+00:00","location":"Урицкий район","status":"approaching","count":null}],"firstSeen":"2026-07-08T21:13:03+00:00","lastSeen":"2026-07-08T21:28:12+00:00","ended":false,"distanceKm":22}],"updatedAt":"2026-07-08T21:35:57.775Z"}