{"tracks":[{"id":"trk-2","threatClass":"drone","points":[{"lat":54.0967,"lon":33.7911,"time":"2026-07-09T17:09:14+00:00","location":"Куйбышевский район","status":"approaching","count":null},{"lat":53.8631,"lon":34.4489,"time":"2026-07-09T17:09:14+00:00","location":"Людиновский район","status":"approaching","count":null}],"firstSeen":"2026-07-09T17:09:14+00:00","lastSeen":"2026-07-09T17:09:14+00:00","ended":false,"distanceKm":50},{"id":"trk-3","threatClass":"drone","points":[{"lat":54.5275,"lon":33.3509,"time":"2026-07-09T17:11:14+00:00","location":"Ельнинский район","status":"approaching","count":null},{"lat":55.2222,"lon":32.8025,"time":"2026-07-09T17:11:14+00:00","location":"Ярцевский район","status":"approaching","count":null}],"firstSeen":"2026-07-09T17:11:14+00:00","lastSeen":"2026-07-09T17:11:14+00:00","ended":false,"distanceKm":85},{"id":"trk-4","threatClass":"drone","points":[{"lat":55.3843,"lon":36.7235,"time":"2026-07-09T17:11:30+00:00","location":"Наро-Фоминск","status":"approaching","count":null},{"lat":55.9937,"lon":35.9362,"time":"2026-07-09T17:11:48+00:00","location":"Волоколамск","status":"approaching","count":null},{"lat":56.7434,"lon":35.841,"time":"2026-07-09T17:12:01+00:00","location":"Калининский район","status":"approaching","count":null}],"firstSeen":"2026-07-09T17:11:30+00:00","lastSeen":"2026-07-09T17:12:01+00:00","ended":false,"distanceKm":167},{"id":"trk-12","threatClass":"drone","points":[{"lat":54.5275,"lon":33.3509,"time":"2026-07-09T20:28:29+00:00","location":"Ельнинский район","status":"unknown","count":null},{"lat":53.347,"lon":34.0798,"time":"2026-07-09T20:29:40+00:00","location":"Сельцо","status":"approaching","count":null}],"firstSeen":"2026-07-09T20:28:29+00:00","lastSeen":"2026-07-09T20:29:40+00:00","ended":false,"distanceKm":140},{"id":"trk-21","threatClass":"drone","points":[{"lat":54.1517,"lon":33.2881,"time":"2026-07-09T20:53:34+00:00","location":"Десногорск","status":"approaching","count":null},{"lat":53.1203,"lon":35.3921,"time":"2026-07-09T21:43:10+00:00","location":"Хотынец","status":"approaching","count":null}],"firstSeen":"2026-07-09T20:53:34+00:00","lastSeen":"2026-07-09T21:43:10+00:00","ended":false,"distanceKm":180},{"id":"trk-24","threatClass":"drone","points":[{"lat":55.8132,"lon":32.282,"time":"2026-07-09T22:06:14+00:00","location":"Кривая","status":"approaching","count":null},{"lat":55.91,"lon":32.2116,"time":"2026-07-09T22:07:15+00:00","location":"Жарковский район","status":"approaching","count":3}],"firstSeen":"2026-07-09T22:06:14+00:00","lastSeen":"2026-07-09T22:07:15+00:00","ended":false,"distanceKm":12},{"id":"trk-26","threatClass":"drone","points":[{"lat":55.6542,"lon":34.9387,"time":"2026-07-09T22:08:29+00:00","location":"Пречистое","status":"unknown","count":null},{"lat":55.6045,"lon":31.195,"time":"2026-07-09T22:09:36+00:00","location":"Велиж","status":"approaching","count":10}],"firstSeen":"2026-07-09T22:08:29+00:00","lastSeen":"2026-07-09T22:09:36+00:00","ended":false,"distanceKm":235},{"id":"trk-28","threatClass":"drone","points":[{"lat":54.3357,"lon":34.988,"time":"2026-07-09T22:18:12+00:00","location":"Серпейск","status":"approaching","count":null},{"lat":53.2077,"lon":34.6634,"time":"2026-07-09T22:19:41+00:00","location":"Белые Берега","status":"unknown","count":null}],"firstSeen":"2026-07-09T22:18:12+00:00","lastSeen":"2026-07-09T22:19:41+00:00","ended":false,"distanceKm":127}],"updatedAt":"2026-07-09T22:41:52.540Z"}