{"tracks":[{"id":"trk-7","threatClass":"drone","points":[{"lat":53.3507,"lon":36.7147,"time":"2026-07-15T15:10:16+00:00","location":"Мценский район","status":"approaching","count":null},{"lat":52.5401,"lon":39.766,"time":"2026-07-15T15:10:50+00:00","location":"Грязинский район","status":"approaching","count":null},{"lat":51.997,"lon":41.1766,"time":"2026-07-15T15:11:21+00:00","location":"Токаревский район","status":"approaching","count":null},{"lat":52.3137,"lon":42.5798,"time":"2026-07-15T15:11:21+00:00","location":"Инжавинский район","status":"approaching","count":null},{"lat":53.9409,"lon":43.1321,"time":"2026-07-15T15:54:53+00:00","location":"Пензенская область","status":"unknown","count":null}],"firstSeen":"2026-07-15T15:10:16+00:00","lastSeen":"2026-07-15T15:54:53+00:00","ended":false,"distanceKm":623},{"id":"trk-12","threatClass":"drone","points":[{"lat":53.3413,"lon":35.6035,"time":"2026-07-15T16:46:01+00:00","location":"Знаменский район","status":"approaching","count":null},{"lat":54.1014,"lon":35.3397,"time":"2026-07-15T17:16:05+00:00","location":"Сухиничский район","status":"approaching","count":null}],"firstSeen":"2026-07-15T16:46:01+00:00","lastSeen":"2026-07-15T17:16:05+00:00","ended":false,"distanceKm":86},{"id":"trk-14","threatClass":"drone","points":[{"lat":51.5333,"lon":46.0344,"time":"2026-07-15T17:17:39+00:00","location":"Саратов","status":"approaching","count":null},{"lat":53.4678,"lon":48.3377,"time":"2026-07-15T17:19:31+00:00","location":"Ульяновская область","status":"unknown","count":null}],"firstSeen":"2026-07-15T17:17:39+00:00","lastSeen":"2026-07-15T17:19:31+00:00","ended":false,"distanceKm":266},{"id":"trk-15","threatClass":"drone","points":[{"lat":51.6608,"lon":39.2003,"time":"2026-07-15T17:18:28+00:00","location":"Воронеж","status":"approaching","count":null},{"lat":51.7502,"lon":40.6662,"time":"2026-07-15T18:04:46+00:00","location":"Эртильский район","status":"approaching","count":null},{"lat":51.997,"lon":41.1766,"time":"2026-07-15T18:05:15+00:00","location":"Токаревский район","status":"approaching","count":null},{"lat":52.1663,"lon":42.0216,"time":"2026-07-15T18:05:15+00:00","location":"Ржаксинский район","status":"approaching","count":null}],"firstSeen":"2026-07-15T17:18:28+00:00","lastSeen":"2026-07-15T18:05:15+00:00","ended":false,"distanceKm":207},{"id":"trk-16","threatClass":"drone","points":[{"lat":52.9745,"lon":44.8696,"time":"2026-07-15T17:20:35+00:00","location":"Пензенский район","status":"approaching","count":null},{"lat":51.1894,"lon":45.6478,"time":"2026-07-15T18:13:43+00:00","location":"Красноармейский район","status":"approaching","count":null}],"firstSeen":"2026-07-15T17:20:35+00:00","lastSeen":"2026-07-15T18:13:43+00:00","ended":false,"distanceKm":205},{"id":"trk-17","threatClass":"drone","points":[{"lat":51.5333,"lon":46.0344,"time":"2026-07-15T17:29:02+00:00","location":"Саратов","status":"unknown","count":null},{"lat":51.4839,"lon":46.1247,"time":"2026-07-15T17:29:02+00:00","location":"Энгельс","status":"unknown","count":null}],"firstSeen":"2026-07-15T17:29:02+00:00","lastSeen":"2026-07-15T17:29:02+00:00","ended":false,"distanceKm":8},{"id":"trk-20","threatClass":"drone","points":[{"lat":47.781,"lon":37.2461,"time":"2026-07-15T18:21:24+00:00","location":"Угледар","status":"unknown","count":null},{"lat":48.0162,"lon":37.8095,"time":"2026-07-15T18:21:24+00:00","location":"ДНР","status":"unknown","count":null}],"firstSeen":"2026-07-15T18:21:24+00:00","lastSeen":"2026-07-15T18:21:24+00:00","ended":false,"distanceKm":49},{"id":"trk-21","threatClass":"drone","points":[{"lat":45.4324,"lon":37.8219,"time":"2026-07-15T18:26:17+00:00","location":"Славянский район","status":"approaching","count":null},{"lat":45.2614,"lon":38.1281,"time":"2026-07-15T18:57:12+00:00","location":"Славянск-На-Кубани","status":"approaching","count":null},{"lat":44.8857,"lon":38.0857,"time":"2026-07-15T18:57:38+00:00","location":"Крымский район","status":"approaching","count":null}],"firstSeen":"2026-07-15T18:26:17+00:00","lastSeen":"2026-07-15T18:57:38+00:00","ended":false,"distanceKm":72},{"id":"trk-22","threatClass":"drone","points":[{"lat":51.862,"lon":41.5913,"time":"2026-07-15T18:40:42+00:00","location":"Жердевский район","status":"approaching","count":null},{"lat":52.1663,"lon":42.0216,"time":"2026-07-15T19:22:58+00:00","location":"Ржаксинский район","status":"approaching","count":null}],"firstSeen":"2026-07-15T18:40:42+00:00","lastSeen":"2026-07-15T19:22:58+00:00","ended":false,"distanceKm":45},{"id":"trk-24","threatClass":"drone","points":[{"lat":48.0162,"lon":37.8095,"time":"2026-07-15T19:23:09+00:00","location":"ДНР","status":"approaching","count":null},{"lat":47.9514,"lon":37.617,"time":"2026-07-15T19:35:00+00:00","location":"Петровский район Донецк","status":"unknown","count":null}],"firstSeen":"2026-07-15T19:23:09+00:00","lastSeen":"2026-07-15T19:35:00+00:00","ended":false,"distanceKm":16},{"id":"trk-26","threatClass":"drone","points":[{"lat":46.0954,"lon":34.827,"time":"2026-07-15T19:44:45+00:00","location":"Геническая горка","status":"approaching","count":null},{"lat":45.957,"lon":33.8169,"time":"2026-07-15T20:21:14+00:00","location":"Красноперекопск","status":"approaching","count":null}],"firstSeen":"2026-07-15T19:44:45+00:00","lastSeen":"2026-07-15T20:21:14+00:00","ended":false,"distanceKm":79},{"id":"trk-27","threatClass":"drone","points":[{"lat":50.3476,"lon":39.4458,"time":"2026-07-15T19:54:44+00:00","location":"Россошанский район","status":"approaching","count":2},{"lat":51.6465,"lon":38.8104,"time":"2026-07-15T20:36:40+00:00","location":"Семилукский район","status":"approaching","count":null}],"firstSeen":"2026-07-15T19:54:44+00:00","lastSeen":"2026-07-15T20:36:40+00:00","ended":false,"distanceKm":151},{"id":"trk-30","threatClass":"drone","points":[{"lat":49.8881,"lon":40.2257,"time":"2026-07-15T20:36:40+00:00","location":"Богучарский район","status":"approaching","count":null},{"lat":51.0539,"lon":38.9461,"time":"2026-07-15T20:36:40+00:00","location":"Репьевский район","status":"approaching","count":null}],"firstSeen":"2026-07-15T20:36:40+00:00","lastSeen":"2026-07-15T20:36:40+00:00","ended":false,"distanceKm":158},{"id":"trk-31","threatClass":"drone","points":[{"lat":49.7972,"lon":39.7513,"time":"2026-07-15T20:36:40+00:00","location":"Кантемировский район","status":"approaching","count":null},{"lat":49.7991,"lon":41.2631,"time":"2026-07-15T20:37:27+00:00","location":"Верхнедонской район","status":"approaching","count":null}],"firstSeen":"2026-07-15T20:36:40+00:00","lastSeen":"2026-07-15T20:37:27+00:00","ended":false,"distanceKm":109},{"id":"trk-32","threatClass":"drone","points":[{"lat":50.4605,"lon":39.3894,"time":"2026-07-15T20:38:27+00:00","location":"Ольховатский район","status":"approaching","count":null},{"lat":50.5089,"lon":39.6692,"time":"2026-07-15T20:38:27+00:00","location":"Подгоренский район","status":"approaching","count":null},{"lat":50.728,"lon":40.0393,"time":"2026-07-15T20:38:27+00:00","location":"Павловский район","status":"approaching","count":null},{"lat":51.1725,"lon":39.7173,"time":"2026-07-15T20:56:45+00:00","location":"Лискинский район","status":"approaching","count":null}],"firstSeen":"2026-07-15T20:38:27+00:00","lastSeen":"2026-07-15T20:56:45+00:00","ended":false,"distanceKm":111},{"id":"trk-33","threatClass":"drone","points":[{"lat":52.07,"lon":37.9598,"time":"2026-07-15T20:38:51+00:00","location":"Воловский район","status":"approaching","count":null},{"lat":52.6644,"lon":35.7776,"time":"2026-07-15T20:39:17+00:00","location":"Кромской район","status":"approaching","count":4}],"firstSeen":"2026-07-15T20:38:51+00:00","lastSeen":"2026-07-15T20:39:17+00:00","ended":false,"distanceKm":162},{"id":"trk-34","threatClass":"drone","points":[{"lat":49.7972,"lon":39.7513,"time":"2026-07-15T20:52:58+00:00","location":"Кантемировский район","status":"approaching","count":null},{"lat":50.3476,"lon":39.4458,"time":"2026-07-15T20:52:58+00:00","location":"Россошанский район","status":"approaching","count":null}],"firstSeen":"2026-07-15T20:52:58+00:00","lastSeen":"2026-07-15T20:52:58+00:00","ended":false,"distanceKm":65}],"updatedAt":"2026-07-15T21:09:56.560Z"}