{"tracks":[{"id":"trk-2","threatClass":"drone","points":[{"lat":49.8794,"lon":43.4464,"time":"2026-07-07T21:47:43+00:00","location":"Фроловский район","status":"approaching","count":null},{"lat":49.856,"lon":42.447,"time":"2026-07-07T21:47:43+00:00","location":"Кумылженский район","status":"approaching","count":null},{"lat":50.3224,"lon":41.7408,"time":"2026-07-07T21:47:43+00:00","location":"Нехаевский район","status":"approaching","count":null},{"lat":51.1625,"lon":40.7757,"time":"2026-07-07T21:48:36+00:00","location":"Таловский район","status":"approaching","count":null},{"lat":51.862,"lon":41.5913,"time":"2026-07-07T22:09:21+00:00","location":"Жердевский район","status":"approaching","count":null},{"lat":52.9516,"lon":42.9108,"time":"2026-07-07T22:39:36+00:00","location":"Гавриловский район","status":"approaching","count":null}],"firstSeen":"2026-07-07T21:47:43+00:00","lastSeen":"2026-07-07T22:39:36+00:00","ended":false,"distanceKm":506},{"id":"trk-3","threatClass":"drone","points":[{"lat":49.4953,"lon":42.7518,"time":"2026-07-07T21:47:43+00:00","location":"Серафимовичский район","status":"approaching","count":null},{"lat":50.4092,"lon":41.0154,"time":"2026-07-07T21:48:36+00:00","location":"Калачеевский район","status":"approaching","count":null},{"lat":50.728,"lon":40.0393,"time":"2026-07-07T21:48:36+00:00","location":"Павловский район","status":"approaching","count":null},{"lat":52.0929,"lon":37.4888,"time":"2026-07-07T22:40:08+00:00","location":"Должанский район","status":"approaching","count":null}],"firstSeen":"2026-07-07T21:47:43+00:00","lastSeen":"2026-07-07T22:40:08+00:00","ended":false,"distanceKm":471},{"id":"trk-5","threatClass":"drone","points":[{"lat":52.4208,"lon":42.4608,"time":"2026-07-07T21:55:13+00:00","location":"Васильевка","status":"approaching","count":null},{"lat":51.997,"lon":41.1766,"time":"2026-07-07T21:55:13+00:00","location":"Токарёвский район","status":"approaching","count":null}],"firstSeen":"2026-07-07T21:55:13+00:00","lastSeen":"2026-07-07T21:55:13+00:00","ended":false,"distanceKm":99},{"id":"trk-6","threatClass":"drone","points":[{"lat":51.309,"lon":39.216,"time":"2026-07-07T21:59:53+00:00","location":"Нововоронеж","status":"overhead","count":null},{"lat":51.6608,"lon":39.2003,"time":"2026-07-07T22:11:41+00:00","location":"Воронеж","status":"approaching","count":null},{"lat":52.0875,"lon":39.1791,"time":"2026-07-07T22:11:41+00:00","location":"Рамонский район","status":"approaching","count":null},{"lat":53.0017,"lon":38.2232,"time":"2026-07-07T22:39:19+00:00","location":"Становлянский район","status":"approaching","count":null},{"lat":53.4361,"lon":35.988,"time":"2026-07-07T22:40:08+00:00","location":"Болховский район","status":"approaching","count":null}],"firstSeen":"2026-07-07T21:59:53+00:00","lastSeen":"2026-07-07T22:40:08+00:00","ended":false,"distanceKm":364},{"id":"trk-7","threatClass":"drone","points":[{"lat":54.6746,"lon":39.6721,"time":"2026-07-07T22:06:22+00:00","location":"Спасский район","status":"approaching","count":null},{"lat":56.1619,"lon":40.358,"time":"2026-07-07T22:07:21+00:00","location":"Юрьев-Польский район","status":"approaching","count":null}],"firstSeen":"2026-07-07T22:06:22+00:00","lastSeen":"2026-07-07T22:07:21+00:00","ended":false,"distanceKm":171},{"id":"trk-9","threatClass":"drone","points":[{"lat":51.7502,"lon":40.6662,"time":"2026-07-07T22:11:41+00:00","location":"Эртильский район","status":"approaching","count":null},{"lat":51.6473,"lon":39.6165,"time":"2026-07-07T22:11:41+00:00","location":"Новоусманский район","status":"approaching","count":null},{"lat":51.2136,"lon":39.0706,"time":"2026-07-07T22:11:41+00:00","location":"Острогожский район","status":"approaching","count":null}],"firstSeen":"2026-07-07T22:11:41+00:00","lastSeen":"2026-07-07T22:11:41+00:00","ended":false,"distanceKm":135},{"id":"trk-10","threatClass":"drone","points":[{"lat":52.0929,"lon":37.4888,"time":"2026-07-07T22:12:02+00:00","location":"Должанский район","status":"approaching","count":null},{"lat":52.2425,"lon":37.0479,"time":"2026-07-07T22:12:02+00:00","location":"Колпнянский район","status":"approaching","count":null},{"lat":52.3967,"lon":35.8058,"time":"2026-07-07T22:40:08+00:00","location":"Троснянский район","status":"approaching","count":null}],"firstSeen":"2026-07-07T22:12:02+00:00","lastSeen":"2026-07-07T22:40:08+00:00","ended":false,"distanceKm":121},{"id":"trk-11","threatClass":"drone","points":[{"lat":50.3224,"lon":41.7408,"time":"2026-07-07T22:13:30+00:00","location":"Нехаевский район","status":"approaching","count":3},{"lat":50.2226,"lon":42.3203,"time":"2026-07-07T22:15:16+00:00","location":"Алексеевский район","status":"approaching","count":null},{"lat":49.4953,"lon":42.7518,"time":"2026-07-07T22:15:16+00:00","location":"Серафимовичский район","status":"approaching","count":null}],"firstSeen":"2026-07-07T22:13:30+00:00","lastSeen":"2026-07-07T22:15:16+00:00","ended":false,"distanceKm":129},{"id":"trk-12","threatClass":"drone","points":[{"lat":49.8794,"lon":43.4464,"time":"2026-07-07T22:40:56+00:00","location":"Фроловский район","status":"approaching","count":null},{"lat":50.792,"lon":40.5643,"time":"2026-07-07T22:41:54+00:00","location":"Бутурлиновский район","status":"approaching","count":2}],"firstSeen":"2026-07-07T22:40:56+00:00","lastSeen":"2026-07-07T22:41:54+00:00","ended":false,"distanceKm":228},{"id":"trk-15","threatClass":"drone","points":[{"lat":50.8903,"lon":44.9818,"time":"2026-07-07T22:45:10+00:00","location":"Жирновский район","status":"approaching","count":null},{"lat":50.3817,"lon":44.1307,"time":"2026-07-07T22:46:45+00:00","location":"Даниловский район","status":"approaching","count":null}],"firstSeen":"2026-07-07T22:45:10+00:00","lastSeen":"2026-07-07T22:46:45+00:00","ended":false,"distanceKm":82},{"id":"trk-16","threatClass":"drone","points":[{"lat":54.468,"lon":38.7224,"time":"2026-07-07T22:37:16+00:00","location":"Серебряные Пруды","status":"approaching","count":null},{"lat":54.1731,"lon":39.0747,"time":"2026-07-07T22:37:29+00:00","location":"Михайловский район","status":"approaching","count":null}],"firstSeen":"2026-07-07T22:37:16+00:00","lastSeen":"2026-07-07T22:37:29+00:00","ended":false,"distanceKm":40},{"id":"trk-17","threatClass":"drone","points":[{"lat":50.8187,"lon":43.7258,"time":"2026-07-07T22:46:45+00:00","location":"Еланский район","status":"approaching","count":null},{"lat":50.8903,"lon":44.9818,"time":"2026-07-07T23:02:24+00:00","location":"Жирновский район","status":"approaching","count":null},{"lat":51.5333,"lon":46.0344,"time":"2026-07-07T23:26:51+00:00","location":"Саратов","status":"shot_down","count":null}],"firstSeen":"2026-07-07T22:46:45+00:00","lastSeen":"2026-07-07T23:26:51+00:00","ended":true,"distanceKm":191},{"id":"trk-18","threatClass":"drone","points":[{"lat":44.9897,"lon":37.2607,"time":"2026-07-07T22:47:00+00:00","location":"Витязево","status":"approaching","count":null},{"lat":44.8908,"lon":37.3164,"time":"2026-07-07T22:49:30+00:00","location":"Анапа","status":"overhead","count":null}],"firstSeen":"2026-07-07T22:47:00+00:00","lastSeen":"2026-07-07T22:49:30+00:00","ended":false,"distanceKm":12},{"id":"trk-19","threatClass":"drone","points":[{"lat":47.0971,"lon":37.5434,"time":"2026-07-07T22:53:20+00:00","location":"Мариуполь","status":"unknown","count":null},{"lat":48.0162,"lon":37.8095,"time":"2026-07-07T22:53:20+00:00","location":"ДНР","status":"unknown","count":null}],"firstSeen":"2026-07-07T22:53:20+00:00","lastSeen":"2026-07-07T22:53:20+00:00","ended":false,"distanceKm":104},{"id":"trk-20","threatClass":"drone","points":[{"lat":45.9322,"lon":38.8751,"time":"2026-07-07T22:57:54+00:00","location":"Чепигинская","status":"unknown","count":null},{"lat":45.8547,"lon":39.0671,"time":"2026-07-07T22:57:54+00:00","location":"Брюховецкий район","status":"unknown","count":null}],"firstSeen":"2026-07-07T22:57:54+00:00","lastSeen":"2026-07-07T22:57:54+00:00","ended":false,"distanceKm":17},{"id":"trk-23","threatClass":"drone","points":[{"lat":45.2157,"lon":37.8945,"time":"2026-07-07T23:03:42+00:00","location":"Анастасиевская","status":"unknown","count":null},{"lat":44.8679,"lon":38.3906,"time":"2026-07-07T23:32:13+00:00","location":"Холмская","status":"unknown","count":null}],"firstSeen":"2026-07-07T23:03:42+00:00","lastSeen":"2026-07-07T23:32:13+00:00","ended":false,"distanceKm":55},{"id":"trk-24","threatClass":"drone","points":[{"lat":53.1585,"lon":48.4742,"time":"2026-07-07T23:09:11+00:00","location":"Сызрань","status":"unknown","count":null},{"lat":53.1959,"lon":50.1002,"time":"2026-07-07T23:09:11+00:00","location":"Самара","status":"unknown","count":null}],"firstSeen":"2026-07-07T23:09:11+00:00","lastSeen":"2026-07-07T23:09:11+00:00","ended":false,"distanceKm":108},{"id":"trk-25","threatClass":"drone","points":[{"lat":53.0996,"lon":49.9457,"time":"2026-07-07T23:09:11+00:00","location":"Новокуйбышевск","status":"unknown","count":null},{"lat":53.5099,"lon":49.4189,"time":"2026-07-07T23:09:11+00:00","location":"Тольятти","status":"unknown","count":null}],"firstSeen":"2026-07-07T23:09:11+00:00","lastSeen":"2026-07-07T23:09:11+00:00","ended":false,"distanceKm":58},{"id":"trk-26","threatClass":"drone","points":[{"lat":51.5333,"lon":46.0344,"time":"2026-07-07T23:10:06+00:00","location":"Саратов","status":"overhead","count":null},{"lat":51.4839,"lon":46.1247,"time":"2026-07-07T23:21:01+00:00","location":"Энгельс","status":"shot_down","count":null}],"firstSeen":"2026-07-07T23:10:06+00:00","lastSeen":"2026-07-07T23:21:01+00:00","ended":true,"distanceKm":8},{"id":"trk-29","threatClass":"drone","points":[{"lat":55.4087,"lon":37.9095,"time":"2026-07-07T23:26:35+00:00","location":"Домодедово","status":"overhead","count":null},{"lat":55.5497,"lon":38.1548,"time":"2026-07-08T00:16:44+00:00","location":"Раменское","status":"overhead","count":null}],"firstSeen":"2026-07-07T23:26:35+00:00","lastSeen":"2026-07-08T00:16:44+00:00","ended":false,"distanceKm":22},{"id":"trk-34","threatClass":"missile","points":[{"lat":50.0323,"lon":36.2188,"time":"2026-07-08T00:26:58+00:00","location":"Kharkiv Region","status":"approaching","count":null},{"lat":48.0157,"lon":37.8103,"time":"2026-07-08T00:26:58+00:00","location":"Donetsk Region","status":"approaching","count":null}],"firstSeen":"2026-07-08T00:26:58+00:00","lastSeen":"2026-07-08T00:26:58+00:00","ended":false,"distanceKm":252},{"id":"trk-40","threatClass":"drone","points":[{"lat":55.0456,"lon":58.9746,"time":"2026-07-08T06:45:06+00:00","location":"Сатка","status":"unknown","count":null},{"lat":56.0881,"lon":55.3487,"time":"2026-07-08T06:46:33+00:00","location":"Месягутово","status":"unknown","count":null}],"firstSeen":"2026-07-08T06:45:06+00:00","lastSeen":"2026-07-08T06:46:33+00:00","ended":false,"distanceKm":256},{"id":"trk-43","threatClass":"drone","points":[{"lat":56.0881,"lon":55.3487,"time":"2026-07-08T06:49:12+00:00","location":"Месягутово","status":"unknown","count":null},{"lat":56.4256,"lon":58.5327,"time":"2026-07-08T06:49:45+00:00","location":"Арти","status":"approaching","count":2}],"firstSeen":"2026-07-08T06:49:12+00:00","lastSeen":"2026-07-08T06:49:45+00:00","ended":false,"distanceKm":200},{"id":"trk-56","threatClass":"drone","points":[{"lat":45.5743,"lon":38.0942,"time":"2026-07-08T09:00:58+00:00","location":"Забойский","status":"approaching","count":null},{"lat":45.4324,"lon":37.8219,"time":"2026-07-08T09:00:58+00:00","location":"Славянский район","status":"approaching","count":null}],"firstSeen":"2026-07-08T09:00:58+00:00","lastSeen":"2026-07-08T09:00:58+00:00","ended":false,"distanceKm":26}],"updatedAt":"2026-07-08T09:41:32.110Z"}