{"tracks":[{"id":"trk-1","threatClass":"drone","points":[{"lat":52.7427,"lon":35.3809,"time":"2026-07-15T22:34:52+00:00","location":"Сосковский район","status":"approaching","count":null},{"lat":53.1203,"lon":35.3921,"time":"2026-07-15T23:05:05+00:00","location":"Хотынец","status":"approaching","count":null}],"firstSeen":"2026-07-15T22:34:52+00:00","lastSeen":"2026-07-15T23:05:05+00:00","ended":false,"distanceKm":42},{"id":"trk-2","threatClass":"drone","points":[{"lat":53.4143,"lon":34.8553,"time":"2026-07-15T22:38:54+00:00","location":"Бояновичи","status":"approaching","count":null},{"lat":52.9685,"lon":36.0692,"time":"2026-07-15T23:05:23+00:00","location":"Орёл","status":"approaching","count":null}],"firstSeen":"2026-07-15T22:38:54+00:00","lastSeen":"2026-07-15T23:05:23+00:00","ended":false,"distanceKm":95},{"id":"trk-3","threatClass":"drone","points":[{"lat":51.8975,"lon":39.7521,"time":"2026-07-15T22:40:55+00:00","location":"Большая Приваловка","status":"approaching","count":null},{"lat":51.5388,"lon":41.4544,"time":"2026-07-15T23:28:29+00:00","location":"Костино-Отделец","status":"unknown","count":2}],"firstSeen":"2026-07-15T22:40:55+00:00","lastSeen":"2026-07-15T23:28:29+00:00","ended":false,"distanceKm":124},{"id":"trk-4","threatClass":"drone","points":[{"lat":50.1049,"lon":43.7829,"time":"2026-07-15T22:41:57+00:00","location":"Большой Лычак","status":"unknown","count":5},{"lat":49.7646,"lon":43.654,"time":"2026-07-15T23:15:23+00:00","location":"Фролово","status":"approaching","count":null}],"firstSeen":"2026-07-15T22:41:57+00:00","lastSeen":"2026-07-15T23:15:23+00:00","ended":false,"distanceKm":39},{"id":"trk-7","threatClass":"drone","points":[{"lat":45.4548,"lon":41.9756,"time":"2026-07-15T23:02:18+00:00","location":"Донское","status":"unknown","count":null},{"lat":45.1325,"lon":42.0263,"time":"2026-07-15T23:02:18+00:00","location":"Михайловск","status":"unknown","count":null},{"lat":45.0445,"lon":41.969,"time":"2026-07-15T23:02:18+00:00","location":"Ставрополь","status":"unknown","count":null}],"firstSeen":"2026-07-15T23:02:18+00:00","lastSeen":"2026-07-15T23:02:18+00:00","ended":false,"distanceKm":47},{"id":"trk-12","threatClass":"drone","points":[{"lat":51.1894,"lon":45.6478,"time":"2026-07-15T23:08:49+00:00","location":"Красноармейский район","status":"approaching","count":null},{"lat":51.3975,"lon":45.0756,"time":"2026-07-15T23:08:49+00:00","location":"Лысогорский район","status":"approaching","count":null}],"firstSeen":"2026-07-15T23:08:49+00:00","lastSeen":"2026-07-15T23:08:49+00:00","ended":false,"distanceKm":46},{"id":"trk-14","threatClass":"drone","points":[{"lat":52.9685,"lon":36.0692,"time":"2026-07-15T23:10:27+00:00","location":"Орел","status":"approaching","count":null},{"lat":53.5985,"lon":37.8191,"time":"2026-07-15T23:11:02+00:00","location":"Тепло-Огаревский район","status":"approaching","count":null}],"firstSeen":"2026-07-15T23:10:27+00:00","lastSeen":"2026-07-15T23:11:02+00:00","ended":false,"distanceKm":136},{"id":"trk-17","threatClass":"drone","points":[{"lat":51.5333,"lon":46.0344,"time":"2026-07-15T23:23:14+00:00","location":"Саратов","status":"overhead","count":null},{"lat":51.4839,"lon":46.1247,"time":"2026-07-16T00:00:04+00:00","location":"Энгельс","status":"shot_down","count":null}],"firstSeen":"2026-07-15T23:23:14+00:00","lastSeen":"2026-07-16T00:00:04+00:00","ended":true,"distanceKm":8},{"id":"trk-20","threatClass":"drone","points":[{"lat":44.9897,"lon":37.2607,"time":"2026-07-15T23:28:23+00:00","location":"Витязево","status":"unknown","count":null},{"lat":45.7814,"lon":39.4902,"time":"2026-07-15T23:28:23+00:00","location":"Анапский район","status":"unknown","count":null}],"firstSeen":"2026-07-15T23:28:23+00:00","lastSeen":"2026-07-15T23:28:23+00:00","ended":false,"distanceKm":195},{"id":"trk-24","threatClass":"drone","points":[{"lat":55.1116,"lon":34.9753,"time":"2026-07-16T02:46:20+00:00","location":"Тёмкинский район","status":"approaching","count":null},{"lat":55.6582,"lon":34.7213,"time":"2026-07-16T02:47:52+00:00","location":"Гагаринский район","status":"approaching","count":2},{"lat":56.1264,"lon":34.8164,"time":"2026-07-16T03:30:20+00:00","location":"Зубцовский район","status":"approaching","count":3}],"firstSeen":"2026-07-16T02:46:20+00:00","lastSeen":"2026-07-16T03:30:20+00:00","ended":false,"distanceKm":115},{"id":"trk-25","threatClass":"drone","points":[{"lat":55.6168,"lon":34.1262,"time":"2026-07-16T02:47:29+00:00","location":"Новодугинский район","status":"approaching","count":5},{"lat":55.8657,"lon":34.1218,"time":"2026-07-16T02:48:43+00:00","location":"Сычёвский район","status":"approaching","count":2},{"lat":57.2805,"lon":35.4614,"time":"2026-07-16T02:49:04+00:00","location":"Лихославльский район","status":"approaching","count":2},{"lat":57.9048,"lon":38.5592,"time":"2026-07-16T03:34:01+00:00","location":"Никольское","status":"approaching","count":null}],"firstSeen":"2026-07-16T02:47:29+00:00","lastSeen":"2026-07-16T03:34:01+00:00","ended":false,"distanceKm":402},{"id":"trk-27","threatClass":"drone","points":[{"lat":55.6974,"lon":36.2834,"time":"2026-07-16T03:00:13+00:00","location":"Рузский","status":"approaching","count":null},{"lat":55.9146,"lon":36.8595,"time":"2026-07-16T03:38:18+00:00","location":"Истра","status":"unknown","count":null}],"firstSeen":"2026-07-16T03:00:13+00:00","lastSeen":"2026-07-16T03:38:18+00:00","ended":false,"distanceKm":43},{"id":"trk-28","threatClass":"drone","points":[{"lat":57.6261,"lon":39.8845,"time":"2026-07-16T03:07:27+00:00","location":"Ярославль","status":"unknown","count":null},{"lat":58.049,"lon":38.8559,"time":"2026-07-16T03:07:27+00:00","location":"Рыбинск","status":"unknown","count":null},{"lat":58.0208,"lon":38.6482,"time":"2026-07-16T03:10:46+00:00","location":"Гаврилково","status":"approaching","count":null},{"lat":57.9048,"lon":38.5592,"time":"2026-07-16T03:32:24+00:00","location":"Никольское","status":"approaching","count":null}],"firstSeen":"2026-07-16T03:07:27+00:00","lastSeen":"2026-07-16T03:32:24+00:00","ended":false,"distanceKm":103},{"id":"trk-29","threatClass":"drone","points":[{"lat":57.4918,"lon":39.6878,"time":"2026-07-16T03:10:46+00:00","location":"Козьмодемьянск","status":"approaching","count":null},{"lat":57.36,"lon":39.5894,"time":"2026-07-16T03:10:46+00:00","location":"Шалаево","status":"approaching","count":null}],"firstSeen":"2026-07-16T03:10:46+00:00","lastSeen":"2026-07-16T03:10:46+00:00","ended":false,"distanceKm":16},{"id":"trk-30","threatClass":"drone","points":[{"lat":54.1014,"lon":35.3397,"time":"2026-07-16T03:12:53+00:00","location":"Сухиничский район","status":"approaching","count":null},{"lat":54.2141,"lon":35.3921,"time":"2026-07-16T03:12:53+00:00","location":"Мещовский район","status":"approaching","count":null},{"lat":55.1964,"lon":34.3311,"time":"2026-07-16T03:14:24+00:00","location":"Вяземский район","status":"approaching","count":null}],"firstSeen":"2026-07-16T03:12:53+00:00","lastSeen":"2026-07-16T03:14:24+00:00","ended":false,"distanceKm":142},{"id":"trk-31","threatClass":"drone","points":[{"lat":54.5275,"lon":33.3509,"time":"2026-07-16T03:13:12+00:00","location":"Ельнинский район","status":"approaching","count":null},{"lat":54.7905,"lon":34.3736,"time":"2026-07-16T03:13:40+00:00","location":"Угранский район","status":"approaching","count":null},{"lat":55.1116,"lon":34.9753,"time":"2026-07-16T03:14:03+00:00","location":"Тёмкинский район","status":"approaching","count":null}],"firstSeen":"2026-07-16T03:13:12+00:00","lastSeen":"2026-07-16T03:14:03+00:00","ended":false,"distanceKm":124},{"id":"trk-33","threatClass":"drone","points":[{"lat":57.9539,"lon":38.9296,"time":"2026-07-16T03:23:36+00:00","location":"Мокеевское","status":"approaching","count":null},{"lat":57.5846,"lon":39.8356,"time":"2026-07-16T03:23:36+00:00","location":"Ярославский район","status":"approaching","count":null},{"lat":57.4958,"lon":39.9311,"time":"2026-07-16T03:24:47+00:00","location":"Сергеево","status":"approaching","count":null}],"firstSeen":"2026-07-16T03:23:36+00:00","lastSeen":"2026-07-16T03:24:47+00:00","ended":false,"distanceKm":79},{"id":"trk-34","threatClass":"drone","points":[{"lat":57.8242,"lon":42.2327,"time":"2026-07-16T03:25:36+00:00","location":"Григорцево","status":"approaching","count":2},{"lat":57.415,"lon":39.427,"time":"2026-07-16T03:26:31+00:00","location":"Ильинское-Урусово","status":"approaching","count":null}],"firstSeen":"2026-07-16T03:25:36+00:00","lastSeen":"2026-07-16T03:26:31+00:00","ended":false,"distanceKm":173},{"id":"trk-42","threatClass":"drone","points":[{"lat":57.4502,"lon":39.5604,"time":"2026-07-16T05:13:33+00:00","location":"Никульцино","status":"approaching","count":null},{"lat":57.6964,"lon":40.6575,"time":"2026-07-16T06:03:41+00:00","location":"Ярославская область.","status":"approaching","count":1}],"firstSeen":"2026-07-16T05:13:33+00:00","lastSeen":"2026-07-16T06:03:41+00:00","ended":false,"distanceKm":71},{"id":"trk-43","threatClass":"drone","points":[{"lat":57.4502,"lon":39.5604,"time":"2026-07-16T05:14:33+00:00","location":"Никульцино","status":"approaching","count":null},{"lat":57.6964,"lon":40.6575,"time":"2026-07-16T06:04:49+00:00","location":"Ярославская область.","status":"approaching","count":1}],"firstSeen":"2026-07-16T05:14:33+00:00","lastSeen":"2026-07-16T06:04:49+00:00","ended":false,"distanceKm":71},{"id":"trk-48","threatClass":"drone","points":[{"lat":57.6685,"lon":39.6866,"time":"2026-07-16T08:11:09+00:00","location":"Зяблицы","status":"unknown","count":null},{"lat":57.87,"lon":39.5308,"time":"2026-07-16T08:16:43+00:00","location":"Тутаев","status":"approaching","count":null}],"firstSeen":"2026-07-16T08:11:09+00:00","lastSeen":"2026-07-16T08:16:43+00:00","ended":false,"distanceKm":24}],"updatedAt":"2026-07-16T10:33:11.348Z"}