{"tracks":[{"id":"trk-9","threatClass":"drone","points":[{"lat":54.2336,"lon":39.0308,"time":"2026-07-18T08:01:56+00:00","location":"Пронский район","status":"approaching","count":null},{"lat":55.238,"lon":40.0556,"time":"2026-07-18T08:02:42+00:00","location":"Клепиковский район","status":"approaching","count":null}],"firstSeen":"2026-07-18T08:01:56+00:00","lastSeen":"2026-07-18T08:02:42+00:00","ended":false,"distanceKm":130},{"id":"trk-21","threatClass":"drone","points":[{"lat":52.5353,"lon":31.9342,"time":"2026-07-18T15:13:19+00:00","location":"Новозыбков","status":"unknown","count":null},{"lat":52.37,"lon":32.1912,"time":"2026-07-18T15:13:19+00:00","location":"Климов","status":"unknown","count":null},{"lat":52.3161,"lon":34.0759,"time":"2026-07-18T15:13:19+00:00","location":"Суземка","status":"unknown","count":null}],"firstSeen":"2026-07-18T15:13:19+00:00","lastSeen":"2026-07-18T15:13:19+00:00","ended":false,"distanceKm":153},{"id":"trk-22","threatClass":"drone","points":[{"lat":52.7494,"lon":32.2356,"time":"2026-07-18T15:13:19+00:00","location":"Клинцы","status":"unknown","count":null},{"lat":52.5543,"lon":33.2637,"time":"2026-07-18T15:13:19+00:00","location":"Погар","status":"unknown","count":null}],"firstSeen":"2026-07-18T15:13:19+00:00","lastSeen":"2026-07-18T15:13:19+00:00","ended":false,"distanceKm":73}],"updatedAt":"2026-07-18T16:38:02.519Z"}