{"tracks":[{"id":"trk-12","threatClass":"drone","points":[{"lat":52.891,"lon":34.4097,"time":"2026-07-21T20:31:46+00:00","location":"Навлинский район","status":"unknown","count":null},{"lat":52.5835,"lon":33.7675,"time":"2026-07-21T21:01:20+00:00","location":"Трубчевск","status":"unknown","count":null}],"firstSeen":"2026-07-21T20:31:46+00:00","lastSeen":"2026-07-21T21:01:20+00:00","ended":false,"distanceKm":55},{"id":"trk-17","threatClass":"drone","points":[{"lat":53.6046,"lon":32.6902,"time":"2026-07-21T20:48:26+00:00","location":"Ершичский район","status":"approaching","count":null},{"lat":54.0967,"lon":33.7911,"time":"2026-07-21T20:49:16+00:00","location":"Куйбышевский район","status":"approaching","count":null},{"lat":54.4471,"lon":34.3132,"time":"2026-07-21T20:49:16+00:00","location":"Спас-Деменский район","status":"approaching","count":null},{"lat":53.9435,"lon":36.7279,"time":"2026-07-21T20:50:58+00:00","location":"Одоевский район","status":"approaching","count":null},{"lat":53.8907,"lon":37.3865,"time":"2026-07-21T21:09:39+00:00","location":"Щекинский район","status":"approaching","count":null}],"firstSeen":"2026-07-21T20:48:26+00:00","lastSeen":"2026-07-21T21:09:39+00:00","ended":false,"distanceKm":353},{"id":"trk-18","threatClass":"drone","points":[{"lat":52.9708,"lon":35.4554,"time":"2026-07-21T20:50:17+00:00","location":"Урицкий район","status":"approaching","count":null},{"lat":52.858,"lon":35.1026,"time":"2026-07-21T20:50:17+00:00","location":"Шаблыкинский район","status":"approaching","count":null}],"firstSeen":"2026-07-21T20:50:17+00:00","lastSeen":"2026-07-21T20:50:17+00:00","ended":false,"distanceKm":27},{"id":"trk-19","threatClass":"drone","points":[{"lat":52.3932,"lon":36.5399,"time":"2026-07-21T20:50:17+00:00","location":"Малоархангельский район","status":"approaching","count":null},{"lat":52.6765,"lon":36.2816,"time":"2026-07-21T21:09:24+00:00","location":"Свердловский район","status":"approaching","count":null}],"firstSeen":"2026-07-21T20:50:17+00:00","lastSeen":"2026-07-21T21:09:24+00:00","ended":false,"distanceKm":36},{"id":"trk-23","threatClass":"drone","points":[{"lat":52.7238,"lon":34.0021,"time":"2026-07-21T21:14:49+00:00","location":"Любожичи","status":"approaching","count":null},{"lat":53,"lon":33.5,"time":"2026-07-21T21:57:39+00:00","location":"Брянская область.","status":"unknown","count":null}],"firstSeen":"2026-07-21T21:14:49+00:00","lastSeen":"2026-07-21T21:57:39+00:00","ended":false,"distanceKm":46},{"id":"trk-27","threatClass":"drone","points":[{"lat":48.1939,"lon":41.2809,"time":"2026-07-21T22:02:35+00:00","location":"Тацинская","status":"approaching","count":null},{"lat":48.3508,"lon":41.8253,"time":"2026-07-21T22:02:35+00:00","location":"Морозовск","status":"approaching","count":null}],"firstSeen":"2026-07-21T22:02:35+00:00","lastSeen":"2026-07-21T22:02:35+00:00","ended":false,"distanceKm":44},{"id":"trk-30","threatClass":"drone","points":[{"lat":54.8479,"lon":33.3234,"time":"2026-07-21T22:07:21+00:00","location":"Дорогобужский район","status":"approaching","count":null},{"lat":55.1964,"lon":34.3311,"time":"2026-07-21T22:07:21+00:00","location":"Вяземский район","status":"approaching","count":null}],"firstSeen":"2026-07-21T22:07:21+00:00","lastSeen":"2026-07-21T22:07:21+00:00","ended":false,"distanceKm":75}],"updatedAt":"2026-07-21T22:28:24.172Z"}