{"tracks":[{"id":"trk-9","threatClass":"drone","points":[{"lat":55.5598,"lon":33.2145,"time":"2026-07-07T15:07:58+00:00","location":"Холм-Жирковский район","status":"approaching","count":null},{"lat":55.8657,"lon":34.1218,"time":"2026-07-07T15:07:58+00:00","location":"Сычевский район","status":"approaching","count":null}],"firstSeen":"2026-07-07T15:07:58+00:00","lastSeen":"2026-07-07T15:07:58+00:00","ended":false,"distanceKm":66},{"id":"trk-11","threatClass":"drone","points":[{"lat":48.312,"lon":38.2609,"time":"2026-07-07T15:19:31+00:00","location":"Углегорск","status":"unknown","count":null},{"lat":48.3397,"lon":38.3999,"time":"2026-07-07T15:19:31+00:00","location":"Дебальцево","status":"unknown","count":null}],"firstSeen":"2026-07-07T15:19:31+00:00","lastSeen":"2026-07-07T15:19:31+00:00","ended":false,"distanceKm":11},{"id":"trk-12","threatClass":"drone","points":[{"lat":51.9638,"lon":35.9644,"time":"2026-07-07T16:43:45+00:00","location":"Большое Жирово","status":"approaching","count":null},{"lat":52.2926,"lon":35.821,"time":"2026-07-07T16:43:45+00:00","location":"Фатежский район","status":"approaching","count":null}],"firstSeen":"2026-07-07T16:43:45+00:00","lastSeen":"2026-07-07T16:43:45+00:00","ended":false,"distanceKm":38},{"id":"trk-15","threatClass":"drone","points":[{"lat":51.236,"lon":36.6941,"time":"2026-07-07T17:26:57+00:00","location":"Пристень","status":"approaching","count":null},{"lat":51.4196,"lon":36.7499,"time":"2026-07-07T17:26:57+00:00","location":"Солнцево","status":"approaching","count":null}],"firstSeen":"2026-07-07T17:26:57+00:00","lastSeen":"2026-07-07T17:26:57+00:00","ended":false,"distanceKm":21},{"id":"trk-17","threatClass":"drone","points":[{"lat":52.5844,"lon":38.3803,"time":"2026-07-07T19:16:58+00:00","location":"Ольховец","status":"approaching","count":null},{"lat":51.6947,"lon":39.0205,"time":"2026-07-07T20:11:15+00:00","location":"Семилуки","status":"unknown","count":null}],"firstSeen":"2026-07-07T19:16:58+00:00","lastSeen":"2026-07-07T20:11:15+00:00","ended":false,"distanceKm":108},{"id":"trk-22","threatClass":"drone","points":[{"lat":45.1145,"lon":39.3805,"time":"2026-07-07T19:09:50+00:00","location":"Васюринская","status":"approaching","count":null},{"lat":45.3318,"lon":39.2596,"time":"2026-07-07T19:09:50+00:00","location":"Динской район","status":"approaching","count":null}],"firstSeen":"2026-07-07T19:09:50+00:00","lastSeen":"2026-07-07T19:09:50+00:00","ended":false,"distanceKm":26},{"id":"trk-23","threatClass":"drone","points":[{"lat":49.7972,"lon":39.7513,"time":"2026-07-07T19:14:25+00:00","location":"Кантемировский район","status":"approaching","count":null},{"lat":49.8881,"lon":40.2257,"time":"2026-07-07T19:14:25+00:00","location":"Богучарский район","status":"approaching","count":null},{"lat":50.6859,"lon":41.0743,"time":"2026-07-07T19:14:25+00:00","location":"Воробьёвский район","status":"approaching","count":null}],"firstSeen":"2026-07-07T19:14:25+00:00","lastSeen":"2026-07-07T19:14:25+00:00","ended":false,"distanceKm":143},{"id":"trk-24","threatClass":"drone","points":[{"lat":50.0544,"lon":40.5939,"time":"2026-07-07T20:13:30+00:00","location":"Журавка","status":"unknown","count":null},{"lat":49.7972,"lon":39.7513,"time":"2026-07-07T20:40:37+00:00","location":"Кантемировский район","status":"approaching","count":null}],"firstSeen":"2026-07-07T20:13:30+00:00","lastSeen":"2026-07-07T20:40:37+00:00","ended":false,"distanceKm":67},{"id":"trk-26","threatClass":"drone","points":[{"lat":55.383,"lon":39.0356,"time":"2026-07-07T20:14:15+00:00","location":"Егорьевск","status":"approaching","count":2},{"lat":54.709,"lon":39.5045,"time":"2026-07-07T20:52:56+00:00","location":"Рязанский район","status":"approaching","count":null}],"firstSeen":"2026-07-07T20:14:15+00:00","lastSeen":"2026-07-07T20:52:56+00:00","ended":false,"distanceKm":81},{"id":"trk-27","threatClass":"drone","points":[{"lat":52.9857,"lon":35.9383,"time":"2026-07-07T20:17:33+00:00","location":"Орловский район","status":"approaching","count":null},{"lat":52.5157,"lon":35.2526,"time":"2026-07-07T20:17:33+00:00","location":"Дмитровский район","status":"approaching","count":null}],"firstSeen":"2026-07-07T20:17:33+00:00","lastSeen":"2026-07-07T20:17:33+00:00","ended":false,"distanceKm":70},{"id":"trk-28","threatClass":"drone","points":[{"lat":52.4485,"lon":36.2419,"time":"2026-07-07T20:17:33+00:00","location":"Глазуновский район","status":"approaching","count":null},{"lat":52.9628,"lon":37.56,"time":"2026-07-07T20:17:33+00:00","location":"Новодеревеньковский район","status":"approaching","count":null}],"firstSeen":"2026-07-07T20:17:33+00:00","lastSeen":"2026-07-07T20:17:33+00:00","ended":false,"distanceKm":106},{"id":"trk-29","threatClass":"drone","points":[{"lat":52.0929,"lon":37.4888,"time":"2026-07-07T20:17:33+00:00","location":"Должанский район","status":"approaching","count":null},{"lat":51.6465,"lon":38.8104,"time":"2026-07-07T20:39:01+00:00","location":"Семилукский район","status":"approaching","count":null},{"lat":50.4092,"lon":41.0154,"time":"2026-07-07T20:39:01+00:00","location":"Калачеевский район","status":"approaching","count":null},{"lat":50.0765,"lon":41.0384,"time":"2026-07-07T20:39:17+00:00","location":"Петропавловский район","status":"approaching","count":null}],"firstSeen":"2026-07-07T20:17:33+00:00","lastSeen":"2026-07-07T20:39:17+00:00","ended":false,"distanceKm":347},{"id":"trk-30","threatClass":"drone","points":[{"lat":49.8227,"lon":39.2824,"time":"2026-07-07T20:18:05+00:00","location":"Новобелая","status":"approaching","count":null},{"lat":50.0544,"lon":40.5939,"time":"2026-07-07T20:40:37+00:00","location":"Журавка","status":"approaching","count":null}],"firstSeen":"2026-07-07T20:18:05+00:00","lastSeen":"2026-07-07T20:40:37+00:00","ended":false,"distanceKm":97},{"id":"trk-31","threatClass":"drone","points":[{"lat":51.0588,"lon":40.1363,"time":"2026-07-07T20:21:18+00:00","location":"Бобровский район","status":"approaching","count":null},{"lat":50.728,"lon":40.0393,"time":"2026-07-07T20:21:18+00:00","location":"Павловский район","status":"approaching","count":null},{"lat":50.2296,"lon":40.4459,"time":"2026-07-07T20:21:18+00:00","location":"Верхнемамонский район","status":"approaching","count":null},{"lat":49.7972,"lon":39.7513,"time":"2026-07-07T21:07:13+00:00","location":"Кантемировский район","status":"approaching","count":null}],"firstSeen":"2026-07-07T20:21:18+00:00","lastSeen":"2026-07-07T21:07:13+00:00","ended":false,"distanceKm":169},{"id":"trk-32","threatClass":"drone","points":[{"lat":50.3476,"lon":39.4458,"time":"2026-07-07T20:21:18+00:00","location":"Россошанский район","status":"approaching","count":null},{"lat":49.8881,"lon":40.2257,"time":"2026-07-07T20:41:49+00:00","location":"Богучарский район","status":"approaching","count":null},{"lat":49.5896,"lon":40.5547,"time":"2026-07-07T20:42:13+00:00","location":"Чертковский район","status":"approaching","count":null},{"lat":48.6824,"lon":40.4969,"time":"2026-07-07T20:42:13+00:00","location":"Тарасовский район","status":"approaching","count":null}],"firstSeen":"2026-07-07T20:21:18+00:00","lastSeen":"2026-07-07T20:42:13+00:00","ended":false,"distanceKm":217},{"id":"trk-34","threatClass":"drone","points":[{"lat":49.5896,"lon":40.5547,"time":"2026-07-07T20:23:42+00:00","location":"Чертковский район","status":"approaching","count":null},{"lat":49.025,"lon":40.2652,"time":"2026-07-07T20:23:42+00:00","location":"Миллеровский район","status":"approaching","count":null},{"lat":48.6824,"lon":40.4969,"time":"2026-07-07T20:23:42+00:00","location":"Тарасовский район","status":"approaching","count":null},{"lat":48.3687,"lon":40.5059,"time":"2026-07-07T20:42:13+00:00","location":"Каменский район","status":"approaching","count":null}],"firstSeen":"2026-07-07T20:23:42+00:00","lastSeen":"2026-07-07T20:42:13+00:00","ended":false,"distanceKm":143},{"id":"trk-35","threatClass":"drone","points":[{"lat":51.3664,"lon":42.0867,"time":"2026-07-07T20:28:40+00:00","location":"Борисоглебск","status":"overhead","count":null},{"lat":51.0588,"lon":40.1363,"time":"2026-07-07T21:07:13+00:00","location":"Бобровский район","status":"approaching","count":null},{"lat":50.4605,"lon":39.3894,"time":"2026-07-07T21:07:13+00:00","location":"Ольховатский район","status":"approaching","count":null}],"firstSeen":"2026-07-07T20:28:40+00:00","lastSeen":"2026-07-07T21:07:13+00:00","ended":false,"distanceKm":225},{"id":"trk-36","threatClass":"drone","points":[{"lat":51.3393,"lon":41.5417,"time":"2026-07-07T20:26:21+00:00","location":"Кутки","status":"approaching","count":null},{"lat":51.4879,"lon":41.4836,"time":"2026-07-07T20:26:21+00:00","location":"Грибановский район","status":"approaching","count":null}],"firstSeen":"2026-07-07T20:26:21+00:00","lastSeen":"2026-07-07T20:26:21+00:00","ended":false,"distanceKm":17},{"id":"trk-38","threatClass":"drone","points":[{"lat":55.8062,"lon":38.981,"time":"2026-07-07T20:36:30+00:00","location":"Орехово-Зуево","status":"approaching","count":null},{"lat":56.0123,"lon":40.0415,"time":"2026-07-07T20:59:07+00:00","location":"Собинский район","status":"approaching","count":null}],"firstSeen":"2026-07-07T20:36:30+00:00","lastSeen":"2026-07-07T20:59:07+00:00","ended":false,"distanceKm":70},{"id":"trk-39","threatClass":"drone","points":[{"lat":53.3285,"lon":37.1138,"time":"2026-07-07T20:36:45+00:00","location":"Архангельское","status":"approaching","count":null},{"lat":54.2253,"lon":38.8906,"time":"2026-07-07T20:38:23+00:00","location":"Октябрьский","status":"approaching","count":null}],"firstSeen":"2026-07-07T20:36:45+00:00","lastSeen":"2026-07-07T20:38:23+00:00","ended":false,"distanceKm":154},{"id":"trk-40","threatClass":"drone","points":[{"lat":51.1725,"lon":39.7173,"time":"2026-07-07T20:39:31+00:00","location":"Лискинский район","status":"approaching","count":null},{"lat":50.728,"lon":40.0393,"time":"2026-07-07T21:07:13+00:00","location":"Павловский район","status":"approaching","count":null},{"lat":50.3476,"lon":39.4458,"time":"2026-07-07T21:07:13+00:00","location":"Россошанский район","status":"approaching","count":null}],"firstSeen":"2026-07-07T20:39:31+00:00","lastSeen":"2026-07-07T21:07:13+00:00","ended":false,"distanceKm":114},{"id":"trk-47","threatClass":"drone","points":[{"lat":50.2296,"lon":40.4459,"time":"2026-07-07T21:07:13+00:00","location":"Верхнемамонский район","status":"approaching","count":null},{"lat":49.8881,"lon":40.2257,"time":"2026-07-07T21:07:13+00:00","location":"Богучарский район","status":"approaching","count":null}],"firstSeen":"2026-07-07T21:07:13+00:00","lastSeen":"2026-07-07T21:07:13+00:00","ended":false,"distanceKm":41},{"id":"trk-48","threatClass":"drone","points":[{"lat":51.1127,"lon":41.4538,"time":"2026-07-07T21:07:13+00:00","location":"Новохоперский район","status":"approaching","count":null},{"lat":50.4092,"lon":41.0154,"time":"2026-07-07T21:07:13+00:00","location":"Калачеевский район","status":"approaching","count":null}],"firstSeen":"2026-07-07T21:07:13+00:00","lastSeen":"2026-07-07T21:07:13+00:00","ended":false,"distanceKm":84}],"updatedAt":"2026-07-07T21:09:19.430Z"}