{"tracks":[{"id":"trk-1","threatClass":"drone","points":[{"lat":44.5121,"lon":33.599,"time":"2026-07-11T22:55:43+00:00","location":"Балаклава","status":"approaching","count":null},{"lat":44.9613,"lon":34.1043,"time":"2026-07-11T22:55:43+00:00","location":"Фиолент","status":"approaching","count":null}],"firstSeen":"2026-07-11T22:55:43+00:00","lastSeen":"2026-07-11T22:55:43+00:00","ended":false,"distanceKm":64},{"id":"trk-2","threatClass":"drone","points":[{"lat":44.6166,"lon":33.5254,"time":"2026-07-11T23:29:03+00:00","location":"Севастополь","status":"approaching","count":null},{"lat":44.5536,"lon":33.6022,"time":"2026-07-11T23:29:03+00:00","location":"Балаклавская ТЭС","status":"approaching","count":null}],"firstSeen":"2026-07-11T23:29:03+00:00","lastSeen":"2026-07-11T23:29:03+00:00","ended":false,"distanceKm":9},{"id":"trk-3","threatClass":"drone","points":[{"lat":49.4953,"lon":42.7518,"time":"2026-07-11T22:57:58+00:00","location":"Серафимовичский район","status":"approaching","count":null},{"lat":49.856,"lon":42.447,"time":"2026-07-11T23:07:41+00:00","location":"Кумылженский район","status":"approaching","count":null},{"lat":50.2226,"lon":42.3203,"time":"2026-07-11T23:07:41+00:00","location":"Алексеевский район","status":"approaching","count":null}],"firstSeen":"2026-07-11T22:57:58+00:00","lastSeen":"2026-07-11T23:07:41+00:00","ended":false,"distanceKm":87},{"id":"trk-4","threatClass":"drone","points":[{"lat":52.606,"lon":38.9206,"time":"2026-07-11T23:04:57+00:00","location":"Задонский район","status":"approaching","count":2},{"lat":52.0875,"lon":39.1791,"time":"2026-07-11T23:06:21+00:00","location":"Рамонский район","status":"approaching","count":null}],"firstSeen":"2026-07-11T23:04:57+00:00","lastSeen":"2026-07-11T23:06:21+00:00","ended":false,"distanceKm":60},{"id":"trk-5","threatClass":"drone","points":[{"lat":49.1888,"lon":42.9191,"time":"2026-07-11T23:07:41+00:00","location":"Клетский район","status":"approaching","count":null},{"lat":49.5896,"lon":40.5547,"time":"2026-07-11T23:08:58+00:00","location":"Чертковский район","status":"approaching","count":null}],"firstSeen":"2026-07-11T23:07:41+00:00","lastSeen":"2026-07-11T23:08:58+00:00","ended":false,"distanceKm":177},{"id":"trk-6","threatClass":"drone","points":[{"lat":49.6423,"lon":41.8156,"time":"2026-07-11T23:08:58+00:00","location":"Шолоховский район","status":"approaching","count":null},{"lat":49.7991,"lon":41.2631,"time":"2026-07-11T23:08:58+00:00","location":"Верхнедонской район","status":"approaching","count":null}],"firstSeen":"2026-07-11T23:08:58+00:00","lastSeen":"2026-07-11T23:08:58+00:00","ended":false,"distanceKm":43},{"id":"trk-7","threatClass":"drone","points":[{"lat":49.4953,"lon":42.7518,"time":"2026-07-11T23:10:08+00:00","location":"Серафимовичский район","status":"unknown","count":null},{"lat":49.856,"lon":42.447,"time":"2026-07-11T23:21:55+00:00","location":"Кумылженский район","status":"approaching","count":9},{"lat":50.2226,"lon":42.3203,"time":"2026-07-12T00:13:03+00:00","location":"Алексеевский район","status":"approaching","count":null}],"firstSeen":"2026-07-11T23:10:08+00:00","lastSeen":"2026-07-12T00:13:03+00:00","ended":false,"distanceKm":87},{"id":"trk-8","threatClass":"drone","points":[{"lat":52.1087,"lon":40.1981,"time":"2026-07-11T23:10:08+00:00","location":"Средняя Матренка","status":"unknown","count":null},{"lat":52.3529,"lon":40.2455,"time":"2026-07-11T23:15:56+00:00","location":"Хворостянка","status":"approaching","count":null}],"firstSeen":"2026-07-11T23:10:08+00:00","lastSeen":"2026-07-11T23:15:56+00:00","ended":false,"distanceKm":27},{"id":"trk-10","threatClass":"drone","points":[{"lat":49.8794,"lon":43.4464,"time":"2026-07-11T23:22:57+00:00","location":"Фроловский район","status":"approaching","count":null},{"lat":48.5582,"lon":43.0045,"time":"2026-07-11T23:22:57+00:00","location":"Суровикинский район","status":"approaching","count":null},{"lat":48.1446,"lon":42.5571,"time":"2026-07-11T23:22:57+00:00","location":"Чернышковский район","status":"approaching","count":null}],"firstSeen":"2026-07-11T23:22:57+00:00","lastSeen":"2026-07-11T23:22:57+00:00","ended":false,"distanceKm":207},{"id":"trk-13","threatClass":"drone","points":[{"lat":51.6017,"lon":42.001,"time":"2026-07-11T23:19:19+00:00","location":"Алексеевка","status":"unknown","count":null},{"lat":50.9788,"lon":44.7789,"time":"2026-07-12T00:13:22+00:00","location":"Жирновск","status":"approaching","count":8},{"lat":51.5333,"lon":46.0344,"time":"2026-07-12T00:13:37+00:00","location":"Саратов","status":"unknown","count":null}],"firstSeen":"2026-07-11T23:19:19+00:00","lastSeen":"2026-07-12T00:13:37+00:00","ended":false,"distanceKm":312},{"id":"trk-16","threatClass":"drone","points":[{"lat":49.6423,"lon":41.8156,"time":"2026-07-11T23:24:31+00:00","location":"Шолоховский район","status":"approaching","count":null},{"lat":48.6824,"lon":40.4969,"time":"2026-07-11T23:24:31+00:00","location":"Тарасовский район","status":"approaching","count":null}],"firstSeen":"2026-07-11T23:24:31+00:00","lastSeen":"2026-07-11T23:24:31+00:00","ended":false,"distanceKm":143},{"id":"trk-17","threatClass":"drone","points":[{"lat":49.025,"lon":40.2652,"time":"2026-07-11T23:24:31+00:00","location":"Миллеровский район","status":"approaching","count":null},{"lat":49.5896,"lon":40.5547,"time":"2026-07-12T00:13:28+00:00","location":"Чертковский район","status":"approaching","count":2}],"firstSeen":"2026-07-11T23:24:31+00:00","lastSeen":"2026-07-12T00:13:28+00:00","ended":false,"distanceKm":66},{"id":"trk-18","threatClass":"drone","points":[{"lat":51.6461,"lon":41.5505,"time":"2026-07-11T23:25:43+00:00","location":"Терновский район","status":"approaching","count":null},{"lat":51.7502,"lon":40.6662,"time":"2026-07-11T23:25:43+00:00","location":"Эртильский район","status":"approaching","count":null},{"lat":52.3424,"lon":39.7006,"time":"2026-07-11T23:26:44+00:00","location":"Усманский район","status":"approaching","count":null}],"firstSeen":"2026-07-11T23:25:43+00:00","lastSeen":"2026-07-11T23:26:44+00:00","ended":false,"distanceKm":155},{"id":"trk-19","threatClass":"drone","points":[{"lat":48.6051,"lon":42.8441,"time":"2026-07-11T23:27:26+00:00","location":"Суровикино","status":"approaching","count":null},{"lat":48.5883,"lon":44.3931,"time":"2026-07-12T00:13:03+00:00","location":"Михайловский район","status":"approaching","count":null}],"firstSeen":"2026-07-11T23:27:26+00:00","lastSeen":"2026-07-12T00:13:03+00:00","ended":false,"distanceKm":114},{"id":"trk-22","threatClass":"drone","points":[{"lat":51.9767,"lon":35.016,"time":"2026-07-12T00:18:20+00:00","location":"Белые Берега","status":"unknown","count":null},{"lat":53.2521,"lon":34.3717,"time":"2026-07-12T00:18:20+00:00","location":"Брянск","status":"unknown","count":null},{"lat":53.347,"lon":34.0798,"time":"2026-07-12T00:33:20+00:00","location":"Сельцо","status":"approaching","count":null}],"firstSeen":"2026-07-12T00:18:20+00:00","lastSeen":"2026-07-12T00:33:20+00:00","ended":false,"distanceKm":170},{"id":"trk-24","threatClass":"drone","points":[{"lat":53.6046,"lon":32.6902,"time":"2026-07-12T00:35:30+00:00","location":"Ершичский район","status":"approaching","count":2},{"lat":53.8631,"lon":34.4489,"time":"2026-07-12T00:36:16+00:00","location":"Людиновский район","status":"approaching","count":2}],"firstSeen":"2026-07-12T00:35:30+00:00","lastSeen":"2026-07-12T00:36:16+00:00","ended":false,"distanceKm":119},{"id":"trk-25","threatClass":"drone","points":[{"lat":53.1585,"lon":48.4742,"time":"2026-07-12T00:41:06+00:00","location":"Сызрань","status":"unknown","count":null},{"lat":53.1959,"lon":50.1002,"time":"2026-07-12T00:56:48+00:00","location":"Самара","status":"unknown","count":null}],"firstSeen":"2026-07-12T00:41:06+00:00","lastSeen":"2026-07-12T00:56:48+00:00","ended":false,"distanceKm":108},{"id":"trk-26","threatClass":"drone","points":[{"lat":53.0996,"lon":49.9457,"time":"2026-07-12T00:41:06+00:00","location":"Новокуйбышевск","status":"unknown","count":null},{"lat":53.5099,"lon":49.4189,"time":"2026-07-12T00:41:06+00:00","location":"Тольятти","status":"unknown","count":null}],"firstSeen":"2026-07-12T00:41:06+00:00","lastSeen":"2026-07-12T00:41:06+00:00","ended":false,"distanceKm":58},{"id":"trk-28","threatClass":"drone","points":[{"lat":53.1263,"lon":46.9702,"time":"2026-07-12T00:46:11+00:00","location":"Кузнецкий район","status":"approaching","count":null},{"lat":52.7787,"lon":46.6902,"time":"2026-07-12T01:09:35+00:00","location":"Неверкинский район","status":"approaching","count":2}],"firstSeen":"2026-07-12T00:46:11+00:00","lastSeen":"2026-07-12T01:09:35+00:00","ended":false,"distanceKm":43},{"id":"trk-31","threatClass":"drone","points":[{"lat":52.5157,"lon":35.2526,"time":"2026-07-12T01:07:50+00:00","location":"Дмитровский район","status":"approaching","count":null},{"lat":52.7427,"lon":35.3809,"time":"2026-07-12T01:07:50+00:00","location":"Сосковский район","status":"approaching","count":null},{"lat":52.858,"lon":35.1026,"time":"2026-07-12T01:07:50+00:00","location":"Шаблыкинский район","status":"approaching","count":null}],"firstSeen":"2026-07-12T01:07:50+00:00","lastSeen":"2026-07-12T01:07:50+00:00","ended":false,"distanceKm":49},{"id":"trk-32","threatClass":"drone","points":[{"lat":54.468,"lon":38.7224,"time":"2026-07-12T03:57:45+00:00","location":"Серебряные Пруды","status":"approaching","count":null},{"lat":54.8912,"lon":37.5079,"time":"2026-07-12T03:59:57+00:00","location":"Серпуховский район","status":"approaching","count":2},{"lat":55.9146,"lon":36.8595,"time":"2026-07-12T04:01:43+00:00","location":"Воскресенск","status":"overhead","count":null}],"firstSeen":"2026-07-12T03:57:45+00:00","lastSeen":"2026-07-12T04:01:43+00:00","ended":false,"distanceKm":212},{"id":"trk-33","threatClass":"drone","points":[{"lat":55.422,"lon":38.2591,"time":"2026-07-12T03:58:59+00:00","location":"Бронницы","status":"overhead","count":null},{"lat":54.8443,"lon":38.0394,"time":"2026-07-12T04:00:54+00:00","location":"Ступинский район","status":"approaching","count":2}],"firstSeen":"2026-07-12T03:58:59+00:00","lastSeen":"2026-07-12T04:00:54+00:00","ended":false,"distanceKm":66},{"id":"trk-37","threatClass":"drone","points":[{"lat":55.422,"lon":38.2591,"time":"2026-07-12T04:17:37+00:00","location":"Бронницы","status":"overhead","count":null},{"lat":55.4087,"lon":37.9095,"time":"2026-07-12T04:18:32+00:00","location":"Домодедово","status":"shot_down","count":null}],"firstSeen":"2026-07-12T04:17:37+00:00","lastSeen":"2026-07-12T04:18:32+00:00","ended":true,"distanceKm":22},{"id":"trk-39","threatClass":"drone","points":[{"lat":54.1931,"lon":37.6173,"time":"2026-07-12T06:33:31+00:00","location":"Тула","status":"overhead","count":null},{"lat":55.4087,"lon":37.9095,"time":"2026-07-12T07:09:53+00:00","location":"Домодедово","status":"overhead","count":null}],"firstSeen":"2026-07-12T06:33:31+00:00","lastSeen":"2026-07-12T07:09:53+00:00","ended":false,"distanceKm":136},{"id":"trk-43","threatClass":"drone","points":[{"lat":50.3379,"lon":36.494,"time":"2026-07-12T07:00:35+00:00","location":"Устинка","status":"approaching","count":null},{"lat":48.0039,"lon":37.6406,"time":"2026-07-12T07:00:35+00:00","location":"Лозовое","status":"approaching","count":null}],"firstSeen":"2026-07-12T07:00:35+00:00","lastSeen":"2026-07-12T07:00:35+00:00","ended":false,"distanceKm":273},{"id":"trk-47","threatClass":"drone","points":[{"lat":50.3379,"lon":36.494,"time":"2026-07-12T09:16:05+00:00","location":"Устинка","status":"approaching","count":null},{"lat":50.5228,"lon":36.3825,"time":"2026-07-12T09:16:05+00:00","location":"Белгородский район","status":"approaching","count":null}],"firstSeen":"2026-07-12T09:16:05+00:00","lastSeen":"2026-07-12T09:16:05+00:00","ended":false,"distanceKm":22}],"updatedAt":"2026-07-12T10:54:25.349Z"}