{"tracks":[{"id":"trk-3","threatClass":"drone","points":[{"lat":55.8062,"lon":38.981,"time":"2026-07-23T08:39:11+00:00","location":"Орехово-Зуево","status":"approaching","count":2},{"lat":55.7813,"lon":38.6508,"time":"2026-07-23T08:50:15+00:00","location":"Павловский Посад","status":"unknown","count":null},{"lat":55.7845,"lon":38.4449,"time":"2026-07-23T08:50:15+00:00","location":"Электросталь","status":"unknown","count":null},{"lat":55.8095,"lon":37.9485,"time":"2026-07-23T08:50:15+00:00","location":"Балашиха","status":"unknown","count":null},{"lat":55.7516,"lon":37.8556,"time":"2026-07-23T08:50:15+00:00","location":"Реутов","status":"unknown","count":null},{"lat":55.6783,"lon":37.8938,"time":"2026-07-23T08:50:15+00:00","location":"Люберцы","status":"unknown","count":null}],"firstSeen":"2026-07-23T08:39:11+00:00","lastSeen":"2026-07-23T08:50:15+00:00","ended":false,"distanceKm":82},{"id":"trk-4","threatClass":"drone","points":[{"lat":55.7813,"lon":38.6508,"time":"2026-07-23T08:46:45+00:00","location":"Павловский Посад","status":"unknown","count":null},{"lat":55.7845,"lon":38.4449,"time":"2026-07-23T08:46:45+00:00","location":"Электросталь","status":"unknown","count":null},{"lat":55.8095,"lon":37.9485,"time":"2026-07-23T08:46:45+00:00","location":"Балашиха","status":"unknown","count":null},{"lat":55.7516,"lon":37.8556,"time":"2026-07-23T08:46:45+00:00","location":"Реутов","status":"unknown","count":null},{"lat":55.6783,"lon":37.8938,"time":"2026-07-23T08:46:45+00:00","location":"Люберцы","status":"unknown","count":null}],"firstSeen":"2026-07-23T08:46:45+00:00","lastSeen":"2026-07-23T08:46:45+00:00","ended":false,"distanceKm":61},{"id":"trk-19","threatClass":"drone","points":[{"lat":52.0929,"lon":37.4888,"time":"2026-07-23T16:15:54+00:00","location":"Должанский район","status":"approaching","count":null},{"lat":52.2425,"lon":37.0479,"time":"2026-07-23T16:15:54+00:00","location":"Колпнянский район","status":"approaching","count":null},{"lat":52.6765,"lon":36.2816,"time":"2026-07-23T16:15:54+00:00","location":"Свердловский район","status":"approaching","count":null}],"firstSeen":"2026-07-23T16:15:54+00:00","lastSeen":"2026-07-23T16:15:54+00:00","ended":false,"distanceKm":105},{"id":"trk-20","threatClass":"drone","points":[{"lat":55.0939,"lon":38.767,"time":"2026-07-23T16:16:37+00:00","location":"Коломна","status":"overhead","count":null},{"lat":54.7586,"lon":38.8818,"time":"2026-07-23T16:18:01+00:00","location":"Зарайск","status":"approaching","count":null},{"lat":54.709,"lon":39.5045,"time":"2026-07-23T16:19:08+00:00","location":"Рязанский район","status":"approaching","count":2}],"firstSeen":"2026-07-23T16:16:37+00:00","lastSeen":"2026-07-23T16:19:08+00:00","ended":false,"distanceKm":78},{"id":"trk-23","threatClass":"drone","points":[{"lat":52.5852,"lon":33.8169,"time":"2026-07-23T17:27:47+00:00","location":"Городцы","status":"unknown","count":null},{"lat":52.8493,"lon":33.966,"time":"2026-07-23T17:27:47+00:00","location":"Трубчевский район","status":"unknown","count":null},{"lat":53.2139,"lon":34.2894,"time":"2026-07-23T17:56:43+00:00","location":"Курнявцево","status":"approaching","count":null},{"lat":53.301,"lon":34.6559,"time":"2026-07-23T17:56:43+00:00","location":"Брянский район","status":"approaching","count":null}],"firstSeen":"2026-07-23T17:27:47+00:00","lastSeen":"2026-07-23T17:56:43+00:00","ended":false,"distanceKm":103},{"id":"trk-24","threatClass":"drone","points":[{"lat":52.5193,"lon":32.8868,"time":"2026-07-23T17:28:34+00:00","location":"Дохновичи","status":"approaching","count":null},{"lat":52.5154,"lon":32.715,"time":"2026-07-23T17:28:34+00:00","location":"Стародубский район","status":"approaching","count":null},{"lat":52.5353,"lon":31.9342,"time":"2026-07-23T18:03:01+00:00","location":"Новозыбков","status":"unknown","count":null}],"firstSeen":"2026-07-23T17:28:34+00:00","lastSeen":"2026-07-23T18:03:01+00:00","ended":false,"distanceKm":65},{"id":"trk-25","threatClass":"drone","points":[{"lat":50.9941,"lon":33.9835,"time":"2026-07-23T17:31:04+00:00","location":"Терни","status":"approaching","count":null},{"lat":51.5549,"lon":33.3876,"time":"2026-07-23T17:31:04+00:00","location":"Кролевець.","status":"approaching","count":null}],"firstSeen":"2026-07-23T17:31:04+00:00","lastSeen":"2026-07-23T17:31:04+00:00","ended":false,"distanceKm":75},{"id":"trk-27","threatClass":"drone","points":[{"lat":52.7501,"lon":32.8824,"time":"2026-07-23T17:53:34+00:00","location":"Рохманово","status":"unknown","count":null},{"lat":52.8314,"lon":32.8245,"time":"2026-07-23T17:53:34+00:00","location":"Унечский район","status":"unknown","count":null}],"firstSeen":"2026-07-23T17:53:34+00:00","lastSeen":"2026-07-23T17:53:34+00:00","ended":false,"distanceKm":10}],"updatedAt":"2026-07-23T18:10:33.904Z"}