{"tracks":[{"id":"trk-1","threatClass":"drone","points":[{"lat":54.2216,"lon":36.3493,"time":"2026-07-12T16:58:56+00:00","location":"Калужская область","status":"unknown","count":null},{"lat":52.5094,"lon":35.1457,"time":"2026-07-12T17:46:15+00:00","location":"Дмитровск","status":"approaching","count":null}],"firstSeen":"2026-07-12T16:58:56+00:00","lastSeen":"2026-07-12T17:46:15+00:00","ended":false,"distanceKm":206},{"id":"trk-2","threatClass":"drone","points":[{"lat":54.2216,"lon":36.3493,"time":"2026-07-12T17:01:38+00:00","location":"Калужская область","status":"unknown","count":null},{"lat":54.1931,"lon":37.6173,"time":"2026-07-12T17:49:15+00:00","location":"Тула","status":"overhead","count":null},{"lat":53.7845,"lon":39.2369,"time":"2026-07-12T18:37:22+00:00","location":"Скопинский район","status":"approaching","count":null}],"firstSeen":"2026-07-12T17:01:38+00:00","lastSeen":"2026-07-12T18:37:22+00:00","ended":false,"distanceKm":198},{"id":"trk-4","threatClass":"drone","points":[{"lat":46.7868,"lon":39.6656,"time":"2026-07-12T17:57:14+00:00","location":"Кущевский район","status":"approaching","count":null},{"lat":46.7909,"lon":40.4949,"time":"2026-07-12T17:57:52+00:00","location":"Зерноградский район","status":"approaching","count":null},{"lat":46.573,"lon":41.0272,"time":"2026-07-12T17:58:59+00:00","location":"Целинский район","status":"approaching","count":null}],"firstSeen":"2026-07-12T17:57:14+00:00","lastSeen":"2026-07-12T17:58:59+00:00","ended":false,"distanceKm":110},{"id":"trk-5","threatClass":"drone","points":[{"lat":52.6644,"lon":35.7776,"time":"2026-07-12T17:59:56+00:00","location":"Кромской район","status":"approaching","count":null},{"lat":52.9857,"lon":35.9383,"time":"2026-07-12T17:59:56+00:00","location":"Орловский район","status":"approaching","count":null},{"lat":52.9628,"lon":37.56,"time":"2026-07-12T18:44:46+00:00","location":"Новодеревеньковский район","status":"approaching","count":null}],"firstSeen":"2026-07-12T17:59:56+00:00","lastSeen":"2026-07-12T18:44:46+00:00","ended":false,"distanceKm":146},{"id":"trk-6","threatClass":"drone","points":[{"lat":52.9729,"lon":35.452,"time":"2026-07-12T17:59:56+00:00","location":"Хотынецкий район","status":"approaching","count":null},{"lat":53.3413,"lon":35.6035,"time":"2026-07-12T18:00:44+00:00","location":"Знаменский район","status":"approaching","count":null},{"lat":53.4361,"lon":35.988,"time":"2026-07-12T18:00:44+00:00","location":"Болховский район","status":"approaching","count":null},{"lat":53.9435,"lon":36.7279,"time":"2026-07-12T18:42:40+00:00","location":"Одоевский район","status":"approaching","count":null},{"lat":54.1931,"lon":37.6173,"time":"2026-07-12T19:11:37+00:00","location":"Тула","status":"overhead","count":null},{"lat":54.0094,"lon":38.2906,"time":"2026-07-12T20:17:45+00:00","location":"Новомосковск","status":"approaching","count":null}],"firstSeen":"2026-07-12T17:59:56+00:00","lastSeen":"2026-07-12T20:17:45+00:00","ended":false,"distanceKm":257},{"id":"trk-7","threatClass":"drone","points":[{"lat":53.8089,"lon":34.8495,"time":"2026-07-12T18:03:07+00:00","location":"Жиздринский район","status":"approaching","count":null},{"lat":54.5207,"lon":35.9735,"time":"2026-07-12T18:03:07+00:00","location":"Бабынинский район","status":"approaching","count":null},{"lat":54.3225,"lon":36.9689,"time":"2026-07-12T18:03:50+00:00","location":"Ферзиковский район","status":"approaching","count":null},{"lat":53.8907,"lon":37.3865,"time":"2026-07-12T18:42:40+00:00","location":"Щекинский район","status":"approaching","count":null}],"firstSeen":"2026-07-12T18:03:07+00:00","lastSeen":"2026-07-12T18:42:40+00:00","ended":false,"distanceKm":231},{"id":"trk-8","threatClass":"drone","points":[{"lat":55.0055,"lon":36.433,"time":"2026-07-12T18:03:50+00:00","location":"Малоярославецкий район","status":"approaching","count":null},{"lat":52.9708,"lon":35.4554,"time":"2026-07-12T18:05:07+00:00","location":"Урицкий район","status":"approaching","count":2}],"firstSeen":"2026-07-12T18:03:50+00:00","lastSeen":"2026-07-12T18:05:07+00:00","ended":false,"distanceKm":235},{"id":"trk-9","threatClass":"drone","points":[{"lat":45.6461,"lon":33.4024,"time":"2026-07-12T18:44:02+00:00","location":"Раздольненский район","status":"approaching","count":null},{"lat":46.4285,"lon":34.5761,"time":"2026-07-12T19:34:11+00:00","location":"Генический район","status":"approaching","count":null}],"firstSeen":"2026-07-12T18:44:02+00:00","lastSeen":"2026-07-12T19:34:11+00:00","ended":false,"distanceKm":126},{"id":"trk-10","threatClass":"drone","points":[{"lat":47.7358,"lon":43.2486,"time":"2026-07-12T19:35:52+00:00","location":"Котельниковский район","status":"approaching","count":2},{"lat":47.7,"lon":41,"time":"2026-07-12T20:20:20+00:00","location":"Ростовская область","status":"overhead","count":null}],"firstSeen":"2026-07-12T19:35:52+00:00","lastSeen":"2026-07-12T20:20:20+00:00","ended":false,"distanceKm":168},{"id":"trk-11","threatClass":"drone","points":[{"lat":54.0045,"lon":37.5179,"time":"2026-07-12T19:11:37+00:00","location":"Щекино","status":"overhead","count":null},{"lat":54.4727,"lon":37.091,"time":"2026-07-12T20:19:42+00:00","location":"Алексинский район","status":"approaching","count":null},{"lat":55.6782,"lon":37.2668,"time":"2026-07-12T21:04:46+00:00","location":"Одинцово","status":"approaching","count":null}],"firstSeen":"2026-07-12T19:11:37+00:00","lastSeen":"2026-07-12T21:04:46+00:00","ended":false,"distanceKm":194},{"id":"trk-13","threatClass":"drone","points":[{"lat":46.3013,"lon":30.6549,"time":"2026-07-12T19:20:03+00:00","location":"Чорноморськ","status":"approaching","count":null},{"lat":46.5849,"lon":30.9334,"time":"2026-07-12T19:20:03+00:00","location":"Одеса/Чорноморське).","status":"approaching","count":null}],"firstSeen":"2026-07-12T19:20:03+00:00","lastSeen":"2026-07-12T19:20:03+00:00","ended":false,"distanceKm":38},{"id":"trk-15","threatClass":"drone","points":[{"lat":55.7558,"lon":37.6173,"time":"2026-07-12T19:26:26+00:00","location":"Москва","status":"approaching","count":null},{"lat":55.6782,"lon":37.2668,"time":"2026-07-12T19:54:04+00:00","location":"Одинцово","status":"overhead","count":null},{"lat":55.3843,"lon":36.7235,"time":"2026-07-12T21:04:46+00:00","location":"Наро-Фоминск","status":"approaching","count":null},{"lat":55.5065,"lon":36.0213,"time":"2026-07-12T21:41:13+00:00","location":"Можайск","status":"approaching","count":null},{"lat":56.227,"lon":35.6413,"time":"2026-07-12T21:41:13+00:00","location":"Лотошино","status":"approaching","count":null}],"firstSeen":"2026-07-12T19:26:26+00:00","lastSeen":"2026-07-12T21:41:13+00:00","ended":false,"distanceKm":201},{"id":"trk-16","threatClass":"drone","points":[{"lat":55.4087,"lon":37.9095,"time":"2026-07-12T19:32:51+00:00","location":"Домодедово","status":"overhead","count":null},{"lat":54.9155,"lon":37.4196,"time":"2026-07-12T20:13:40+00:00","location":"Серпухов","status":"approaching","count":null},{"lat":54.6684,"lon":37.4727,"time":"2026-07-12T20:19:42+00:00","location":"Заокский район","status":"approaching","count":null},{"lat":53.8089,"lon":34.8495,"time":"2026-07-12T21:07:43+00:00","location":"Жиздринский район","status":"approaching","count":null}],"firstSeen":"2026-07-12T19:32:51+00:00","lastSeen":"2026-07-12T21:07:43+00:00","ended":false,"distanceKm":286},{"id":"trk-18","threatClass":"drone","points":[{"lat":55.4087,"lon":37.9095,"time":"2026-07-12T20:03:21+00:00","location":"Домодедово","status":"overhead","count":null},{"lat":55.1427,"lon":37.4545,"time":"2026-07-12T21:05:23+00:00","location":"Чехов","status":"approaching","count":null},{"lat":54.9155,"lon":37.4196,"time":"2026-07-12T21:41:13+00:00","location":"Серпухов","status":"approaching","count":null},{"lat":54.5293,"lon":36.2754,"time":"2026-07-12T22:24:27+00:00","location":"Калуга","status":"approaching","count":null},{"lat":54.1226,"lon":36.3581,"time":"2026-07-12T23:01:32+00:00","location":"Суворовский район","status":"approaching","count":null}],"firstSeen":"2026-07-12T20:03:21+00:00","lastSeen":"2026-07-12T23:01:32+00:00","ended":false,"distanceKm":197},{"id":"trk-19","threatClass":"drone","points":[{"lat":54.709,"lon":39.5045,"time":"2026-07-12T20:06:02+00:00","location":"Рязанский район","status":"approaching","count":null},{"lat":55.4087,"lon":37.9095,"time":"2026-07-12T20:31:57+00:00","location":"Домодедово","status":"approaching","count":null},{"lat":55.7558,"lon":37.6173,"time":"2026-07-12T20:44:04+00:00","location":"Москва","status":"overhead","count":null},{"lat":56.6325,"lon":37.1245,"time":"2026-07-12T21:05:23+00:00","location":"Ступино","status":"approaching","count":null}],"firstSeen":"2026-07-12T20:06:02+00:00","lastSeen":"2026-07-12T21:05:23+00:00","ended":false,"distanceKm":273},{"id":"trk-21","threatClass":"drone","points":[{"lat":56.6325,"lon":37.1245,"time":"2026-07-12T20:13:40+00:00","location":"Ступино","status":"approaching","count":null},{"lat":55.4087,"lon":37.9095,"time":"2026-07-12T20:14:30+00:00","location":"Домодедово","status":"shot_down","count":null}],"firstSeen":"2026-07-12T20:13:40+00:00","lastSeen":"2026-07-12T20:14:30+00:00","ended":true,"distanceKm":145},{"id":"trk-22","threatClass":"drone","points":[{"lat":54.5815,"lon":37.9206,"time":"2026-07-12T20:17:45+00:00","location":"Ясногорский район","status":"approaching","count":null},{"lat":54.6938,"lon":38.1602,"time":"2026-07-12T20:17:45+00:00","location":"Веневский район","status":"approaching","count":null},{"lat":55.4087,"lon":37.9095,"time":"2026-07-12T20:53:11+00:00","location":"Домодедово","status":"shot_down","count":null}],"firstSeen":"2026-07-12T20:17:45+00:00","lastSeen":"2026-07-12T20:53:11+00:00","ended":true,"distanceKm":101},{"id":"trk-25","threatClass":"drone","points":[{"lat":52.7642,"lon":35.4752,"time":"2026-07-12T20:44:04+00:00","location":"АО Троицкий","status":"overhead","count":null},{"lat":53.7236,"lon":35.5324,"time":"2026-07-12T21:07:43+00:00","location":"Ульяновский район","status":"approaching","count":null},{"lat":54.1226,"lon":36.3581,"time":"2026-07-12T21:43:01+00:00","location":"Суворовский район","status":"approaching","count":null},{"lat":54.2216,"lon":36.3493,"time":"2026-07-12T21:56:12+00:00","location":"Калужская область","status":"approaching","count":null}],"firstSeen":"2026-07-12T20:44:04+00:00","lastSeen":"2026-07-12T21:56:12+00:00","ended":false,"distanceKm":188},{"id":"trk-26","threatClass":"drone","points":[{"lat":52.5157,"lon":35.2526,"time":"2026-07-12T20:44:27+00:00","location":"Дмитровский район","status":"approaching","count":null},{"lat":52.9729,"lon":35.452,"time":"2026-07-12T20:44:27+00:00","location":"Хотынецкий район","status":"approaching","count":null}],"firstSeen":"2026-07-12T20:44:27+00:00","lastSeen":"2026-07-12T20:44:27+00:00","ended":false,"distanceKm":53},{"id":"trk-29","threatClass":"drone","points":[{"lat":45.3563,"lon":36.4675,"time":"2026-07-12T21:08:14+00:00","location":"Керчь","status":"approaching","count":null},{"lat":45.3636,"lon":36.6115,"time":"2026-07-12T22:13:56+00:00","location":"Республика Крым","status":"approaching","count":null}],"firstSeen":"2026-07-12T21:08:14+00:00","lastSeen":"2026-07-12T22:13:56+00:00","ended":false,"distanceKm":11},{"id":"trk-31","threatClass":"drone","points":[{"lat":55.4087,"lon":37.9095,"time":"2026-07-12T21:05:23+00:00","location":"Домодедово","status":"approaching","count":null},{"lat":55.422,"lon":38.2591,"time":"2026-07-12T21:19:20+00:00","location":"Бронницы","status":"overhead","count":null},{"lat":55.5784,"lon":39.5438,"time":"2026-07-12T21:41:13+00:00","location":"Шатура","status":"approaching","count":null},{"lat":56.0123,"lon":40.0415,"time":"2026-07-12T22:09:22+00:00","location":"Собинский район","status":"approaching","count":null}],"firstSeen":"2026-07-12T21:05:23+00:00","lastSeen":"2026-07-12T22:09:22+00:00","ended":false,"distanceKm":162},{"id":"trk-32","threatClass":"drone","points":[{"lat":52.9857,"lon":35.9383,"time":"2026-07-12T21:08:51+00:00","location":"Орловский район","status":"approaching","count":null},{"lat":53.4361,"lon":35.988,"time":"2026-07-12T21:08:51+00:00","location":"Болховский район","status":"approaching","count":null},{"lat":53.6269,"lon":36.5819,"time":"2026-07-12T21:43:01+00:00","location":"Арсеньевский район","status":"approaching","count":null},{"lat":53.7064,"lon":37.293,"time":"2026-07-12T21:43:01+00:00","location":"Плавский район","status":"approaching","count":null}],"firstSeen":"2026-07-12T21:08:51+00:00","lastSeen":"2026-07-12T21:43:01+00:00","ended":false,"distanceKm":142},{"id":"trk-33","threatClass":"drone","points":[{"lat":52.6765,"lon":36.2816,"time":"2026-07-12T21:08:51+00:00","location":"Свердловский район","status":"approaching","count":null},{"lat":53.761,"lon":36.1634,"time":"2026-07-12T21:43:01+00:00","location":"Белевский район","status":"approaching","count":null}],"firstSeen":"2026-07-12T21:08:51+00:00","lastSeen":"2026-07-12T21:43:01+00:00","ended":false,"distanceKm":121},{"id":"trk-34","threatClass":"drone","points":[{"lat":52.9042,"lon":36.6906,"time":"2026-07-12T21:11:36+00:00","location":"Залегощенский район","status":"approaching","count":null},{"lat":52.3932,"lon":36.5399,"time":"2026-07-12T21:11:36+00:00","location":"Малоархангельский район","status":"approaching","count":null},{"lat":52.2425,"lon":37.0479,"time":"2026-07-12T21:11:36+00:00","location":"Колпнянский район","status":"approaching","count":null},{"lat":52.4109,"lon":37.3745,"time":"2026-07-12T21:46:13+00:00","location":"Ливенский район","status":"approaching","count":null}],"firstSeen":"2026-07-12T21:11:36+00:00","lastSeen":"2026-07-12T21:46:13+00:00","ended":false,"distanceKm":125},{"id":"trk-37","threatClass":"drone","points":[{"lat":45.3848,"lon":36.4352,"time":"2026-07-12T22:42:55+00:00","location":"Войково","status":"approaching","count":null},{"lat":45.1509,"lon":33.5902,"time":"2026-07-12T22:42:55+00:00","location":"Городское кладбище","status":"approaching","count":null}],"firstSeen":"2026-07-12T22:42:55+00:00","lastSeen":"2026-07-12T22:42:55+00:00","ended":false,"distanceKm":224},{"id":"trk-39","threatClass":"drone","points":[{"lat":53.1782,"lon":37.3514,"time":"2026-07-12T21:44:05+00:00","location":"Корсаковский район","status":"approaching","count":null},{"lat":53.3507,"lon":36.7147,"time":"2026-07-12T21:44:05+00:00","location":"Мценский район","status":"approaching","count":null}],"firstSeen":"2026-07-12T21:44:05+00:00","lastSeen":"2026-07-12T21:44:05+00:00","ended":false,"distanceKm":46},{"id":"trk-41","threatClass":"drone","points":[{"lat":45.3506,"lon":34.9471,"time":"2026-07-12T21:45:16+00:00","location":"Советский район","status":"approaching","count":null},{"lat":45.0314,"lon":35.3831,"time":"2026-07-12T21:45:16+00:00","location":"Феодосии","status":"approaching","count":null}],"firstSeen":"2026-07-12T21:45:16+00:00","lastSeen":"2026-07-12T21:45:16+00:00","ended":false,"distanceKm":49},{"id":"trk-42","threatClass":"drone","points":[{"lat":52.7458,"lon":37.6401,"time":"2026-07-12T21:46:13+00:00","location":"Краснозоренский район","status":"approaching","count":null},{"lat":52.2425,"lon":37.0479,"time":"2026-07-12T21:46:13+00:00","location":"Колпнянский район","status":"approaching","count":null}],"firstSeen":"2026-07-12T21:46:13+00:00","lastSeen":"2026-07-12T21:46:13+00:00","ended":false,"distanceKm":69},{"id":"trk-43","threatClass":"drone","points":[{"lat":52.6644,"lon":35.7776,"time":"2026-07-12T21:46:13+00:00","location":"Кромской район","status":"approaching","count":null},{"lat":52.6765,"lon":36.2816,"time":"2026-07-12T21:47:22+00:00","location":"Свердловский район","status":"approaching","count":null}],"firstSeen":"2026-07-12T21:46:13+00:00","lastSeen":"2026-07-12T21:47:22+00:00","ended":false,"distanceKm":34},{"id":"trk-44","threatClass":"drone","points":[{"lat":52.9857,"lon":35.9383,"time":"2026-07-12T21:47:22+00:00","location":"Орловский район","status":"approaching","count":null},{"lat":52.9729,"lon":35.452,"time":"2026-07-12T21:47:22+00:00","location":"Хотынецкий район","status":"approaching","count":null}],"firstSeen":"2026-07-12T21:47:22+00:00","lastSeen":"2026-07-12T21:47:22+00:00","ended":false,"distanceKm":33},{"id":"trk-46","threatClass":"drone","points":[{"lat":52.5154,"lon":32.715,"time":"2026-07-12T22:01:14+00:00","location":"Стародубский район","status":"approaching","count":null},{"lat":52.7501,"lon":32.8824,"time":"2026-07-12T22:02:25+00:00","location":"Рохманово","status":"unknown","count":null},{"lat":52.8314,"lon":32.8245,"time":"2026-07-12T22:02:25+00:00","location":"Унечский район","status":"unknown","count":null}],"firstSeen":"2026-07-12T22:01:14+00:00","lastSeen":"2026-07-12T22:02:25+00:00","ended":false,"distanceKm":38},{"id":"trk-47","threatClass":"drone","points":[{"lat":53.634,"lon":38.35,"time":"2026-07-12T22:07:52+00:00","location":"Папоротка","status":"approaching","count":null},{"lat":53.7136,"lon":38.1682,"time":"2026-07-12T22:07:52+00:00","location":"Богородицкий район","status":"approaching","count":null},{"lat":53.5983,"lon":37.8195,"time":"2026-07-12T22:41:55+00:00","location":"Воловский район","status":"approaching","count":null}],"firstSeen":"2026-07-12T22:07:52+00:00","lastSeen":"2026-07-12T22:41:55+00:00","ended":false,"distanceKm":41},{"id":"trk-51","threatClass":"drone","points":[{"lat":54.1931,"lon":37.6173,"time":"2026-07-12T22:43:47+00:00","location":"Тула","status":"overhead","count":null},{"lat":54.0221,"lon":37.8625,"time":"2026-07-12T23:01:32+00:00","location":"Киреевский район","status":"approaching","count":null}],"firstSeen":"2026-07-12T22:43:47+00:00","lastSeen":"2026-07-12T23:01:32+00:00","ended":false,"distanceKm":25},{"id":"trk-54","threatClass":"drone","points":[{"lat":54.1731,"lon":39.0747,"time":"2026-07-12T22:59:06+00:00","location":"Михайловский район","status":"approaching","count":null},{"lat":54.4778,"lon":41.1858,"time":"2026-07-12T22:59:06+00:00","location":"Шиловский район","status":"approaching","count":null}],"firstSeen":"2026-07-12T22:59:06+00:00","lastSeen":"2026-07-12T22:59:06+00:00","ended":false,"distanceKm":141},{"id":"trk-57","threatClass":"drone","points":[{"lat":54.6296,"lon":39.7415,"time":"2026-07-12T23:16:29+00:00","location":"Рязань","status":"approaching","count":null},{"lat":54.7822,"lon":39.3626,"time":"2026-07-12T23:16:29+00:00","location":"Рыбновский район","status":"approaching","count":null},{"lat":54.5028,"lon":37.0667,"time":"2026-07-12T23:17:13+00:00","location":"Алексин","status":"overhead","count":null}],"firstSeen":"2026-07-12T23:16:29+00:00","lastSeen":"2026-07-12T23:17:13+00:00","ended":false,"distanceKm":181},{"id":"trk-59","threatClass":"drone","points":[{"lat":52.5207,"lon":33.2053,"time":"2026-07-12T23:14:32+00:00","location":"Погарский район","status":"approaching","count":null},{"lat":52.5154,"lon":32.715,"time":"2026-07-12T23:14:32+00:00","location":"Стародубский район","status":"approaching","count":null}],"firstSeen":"2026-07-12T23:14:32+00:00","lastSeen":"2026-07-12T23:14:32+00:00","ended":false,"distanceKm":33},{"id":"trk-63","threatClass":"drone","points":[{"lat":54.0967,"lon":33.7911,"time":"2026-07-13T00:44:32+00:00","location":"Куйбышевский район","status":"approaching","count":null},{"lat":54.4471,"lon":34.3132,"time":"2026-07-13T00:44:32+00:00","location":"Спас-Деменский район","status":"approaching","count":null},{"lat":55.6168,"lon":34.1262,"time":"2026-07-13T00:44:52+00:00","location":"Новодугинский район","status":"approaching","count":null}],"firstSeen":"2026-07-13T00:44:32+00:00","lastSeen":"2026-07-13T00:44:52+00:00","ended":false,"distanceKm":182},{"id":"trk-66","threatClass":"drone","points":[{"lat":55.9146,"lon":36.8595,"time":"2026-07-13T00:39:36+00:00","location":"Воскресенск","status":"approaching","count":5},{"lat":55.422,"lon":38.2591,"time":"2026-07-13T00:40:46+00:00","location":"Бронницы","status":"approaching","count":4}],"firstSeen":"2026-07-13T00:39:36+00:00","lastSeen":"2026-07-13T00:40:46+00:00","ended":false,"distanceKm":103},{"id":"trk-67","threatClass":"drone","points":[{"lat":56.6325,"lon":37.1245,"time":"2026-07-13T00:41:09+00:00","location":"Ступино","status":"approaching","count":3},{"lat":54.9155,"lon":37.4196,"time":"2026-07-13T00:41:31+00:00","location":"Серпухов","status":"approaching","count":2}],"firstSeen":"2026-07-13T00:41:09+00:00","lastSeen":"2026-07-13T00:41:31+00:00","ended":false,"distanceKm":192}],"updatedAt":"2026-07-13T04:48:54.629Z"}