{"tracks":[{"id":"trk-1","threatClass":"drone","points":[{"lat":54.468,"lon":38.7224,"time":"2026-07-12T03:57:45+00:00","location":"Серебряные Пруды","status":"approaching","count":null},{"lat":54.8912,"lon":37.5079,"time":"2026-07-12T03:59:57+00:00","location":"Серпуховский район","status":"approaching","count":2},{"lat":55.9146,"lon":36.8595,"time":"2026-07-12T04:01:43+00:00","location":"Воскресенск","status":"overhead","count":null}],"firstSeen":"2026-07-12T03:57:45+00:00","lastSeen":"2026-07-12T04:01:43+00:00","ended":false,"distanceKm":212},{"id":"trk-2","threatClass":"drone","points":[{"lat":55.422,"lon":38.2591,"time":"2026-07-12T03:58:59+00:00","location":"Бронницы","status":"overhead","count":null},{"lat":54.8443,"lon":38.0394,"time":"2026-07-12T04:00:54+00:00","location":"Ступинский район","status":"approaching","count":2}],"firstSeen":"2026-07-12T03:58:59+00:00","lastSeen":"2026-07-12T04:00:54+00:00","ended":false,"distanceKm":66},{"id":"trk-6","threatClass":"drone","points":[{"lat":55.422,"lon":38.2591,"time":"2026-07-12T04:17:37+00:00","location":"Бронницы","status":"overhead","count":null},{"lat":55.4087,"lon":37.9095,"time":"2026-07-12T04:18:32+00:00","location":"Домодедово","status":"shot_down","count":null}],"firstSeen":"2026-07-12T04:17:37+00:00","lastSeen":"2026-07-12T04:18:32+00:00","ended":true,"distanceKm":22},{"id":"trk-8","threatClass":"drone","points":[{"lat":54.1931,"lon":37.6173,"time":"2026-07-12T06:33:31+00:00","location":"Тула","status":"overhead","count":null},{"lat":55.4087,"lon":37.9095,"time":"2026-07-12T07:09:53+00:00","location":"Домодедово","status":"overhead","count":null}],"firstSeen":"2026-07-12T06:33:31+00:00","lastSeen":"2026-07-12T07:09:53+00:00","ended":false,"distanceKm":136},{"id":"trk-12","threatClass":"drone","points":[{"lat":50.3379,"lon":36.494,"time":"2026-07-12T07:00:35+00:00","location":"Устинка","status":"approaching","count":null},{"lat":48.0039,"lon":37.6406,"time":"2026-07-12T07:00:35+00:00","location":"Лозовое","status":"approaching","count":null}],"firstSeen":"2026-07-12T07:00:35+00:00","lastSeen":"2026-07-12T07:00:35+00:00","ended":false,"distanceKm":273},{"id":"trk-16","threatClass":"drone","points":[{"lat":50.3379,"lon":36.494,"time":"2026-07-12T09:16:05+00:00","location":"Устинка","status":"approaching","count":null},{"lat":50.5228,"lon":36.3825,"time":"2026-07-12T09:16:05+00:00","location":"Белгородский район","status":"approaching","count":null}],"firstSeen":"2026-07-12T09:16:05+00:00","lastSeen":"2026-07-12T09:16:05+00:00","ended":false,"distanceKm":22},{"id":"trk-20","threatClass":"drone","points":[{"lat":55.4083,"lon":36.7976,"time":"2026-07-12T11:06:55+00:00","location":"Александровка","status":"approaching","count":null},{"lat":55.3808,"lon":36.4426,"time":"2026-07-12T11:06:55+00:00","location":"Наро-Фоминский район","status":"approaching","count":null},{"lat":54.9715,"lon":36.0575,"time":"2026-07-12T11:08:10+00:00","location":"Медынский район","status":"approaching","count":null},{"lat":54.0986,"lon":36.2472,"time":"2026-07-12T11:28:20+00:00","location":"Чекалин","status":"approaching","count":null}],"firstSeen":"2026-07-12T11:06:55+00:00","lastSeen":"2026-07-12T11:28:20+00:00","ended":false,"distanceKm":172},{"id":"trk-21","threatClass":"drone","points":[{"lat":55.4083,"lon":36.7976,"time":"2026-07-12T11:15:31+00:00","location":"Александровка","status":"approaching","count":null},{"lat":55.3808,"lon":36.4426,"time":"2026-07-12T11:15:31+00:00","location":"Наро-Фоминский район","status":"approaching","count":null}],"firstSeen":"2026-07-12T11:15:31+00:00","lastSeen":"2026-07-12T11:15:31+00:00","ended":false,"distanceKm":23},{"id":"trk-22","threatClass":"drone","points":[{"lat":45.8567,"lon":40.1256,"time":"2026-07-12T11:23:56+00:00","location":"Тихорецк","status":"unknown","count":null},{"lat":44.9892,"lon":41.1231,"time":"2026-07-12T11:23:56+00:00","location":"Армавир","status":"unknown","count":null}],"firstSeen":"2026-07-12T11:23:56+00:00","lastSeen":"2026-07-12T11:23:56+00:00","ended":false,"distanceKm":124},{"id":"trk-23","threatClass":"drone","points":[{"lat":52.278,"lon":32.1681,"time":"2026-07-12T11:34:55+00:00","location":"Климовский район","status":"unknown","count":null},{"lat":52.7061,"lon":32.031,"time":"2026-07-12T11:34:55+00:00","location":"Клинцовский район","status":"unknown","count":null}],"firstSeen":"2026-07-12T11:34:55+00:00","lastSeen":"2026-07-12T11:34:55+00:00","ended":false,"distanceKm":48},{"id":"trk-24","threatClass":"drone","points":[{"lat":52.5154,"lon":32.715,"time":"2026-07-12T11:34:55+00:00","location":"Стародубский район","status":"unknown","count":null},{"lat":52.5207,"lon":33.2053,"time":"2026-07-12T11:34:55+00:00","location":"Погарский район","status":"unknown","count":null}],"firstSeen":"2026-07-12T11:34:55+00:00","lastSeen":"2026-07-12T11:34:55+00:00","ended":false,"distanceKm":33},{"id":"trk-25","threatClass":"drone","points":[{"lat":54.7276,"lon":37.1771,"time":"2026-07-12T11:35:42+00:00","location":"Тарусский район","status":"approaching","count":2},{"lat":55.1964,"lon":34.3311,"time":"2026-07-12T11:36:23+00:00","location":"Вяземский район","status":"approaching","count":null},{"lat":55.8657,"lon":34.1218,"time":"2026-07-12T11:36:54+00:00","location":"Сычевский район","status":"approaching","count":null}],"firstSeen":"2026-07-12T11:35:42+00:00","lastSeen":"2026-07-12T11:36:54+00:00","ended":false,"distanceKm":265},{"id":"trk-27","threatClass":"drone","points":[{"lat":55.7558,"lon":37.6173,"time":"2026-07-12T11:38:42+00:00","location":"Москва","status":"approaching","count":null},{"lat":55.4087,"lon":37.9095,"time":"2026-07-12T11:53:17+00:00","location":"Домодедово","status":"overhead","count":null}],"firstSeen":"2026-07-12T11:38:42+00:00","lastSeen":"2026-07-12T11:53:17+00:00","ended":false,"distanceKm":43},{"id":"trk-28","threatClass":"drone","points":[{"lat":55.5065,"lon":36.0213,"time":"2026-07-12T11:40:48+00:00","location":"Можайск","status":"approaching","count":2},{"lat":55.6974,"lon":36.2834,"time":"2026-07-12T11:51:32+00:00","location":"Рузский","status":"approaching","count":2}],"firstSeen":"2026-07-12T11:40:48+00:00","lastSeen":"2026-07-12T11:51:32+00:00","ended":false,"distanceKm":27},{"id":"trk-29","threatClass":"drone","points":[{"lat":56.6325,"lon":37.1245,"time":"2026-07-12T11:45:17+00:00","location":"Ступино","status":"approaching","count":4},{"lat":55.0939,"lon":38.767,"time":"2026-07-12T11:45:56+00:00","location":"Коломна","status":"overhead","count":null}],"firstSeen":"2026-07-12T11:45:17+00:00","lastSeen":"2026-07-12T11:45:56+00:00","ended":false,"distanceKm":199},{"id":"trk-32","threatClass":"drone","points":[{"lat":44.9892,"lon":41.1231,"time":"2026-07-12T11:57:39+00:00","location":"Армавир","status":"approaching","count":null},{"lat":44.8852,"lon":40.5895,"time":"2026-07-12T11:57:39+00:00","location":"Курганинск","status":"approaching","count":null}],"firstSeen":"2026-07-12T11:57:39+00:00","lastSeen":"2026-07-12T11:57:39+00:00","ended":false,"distanceKm":44},{"id":"trk-34","threatClass":"drone","points":[{"lat":53.6667,"lon":33.35,"time":"2026-07-12T11:59:27+00:00","location":"Сосновка","status":"approaching","count":null},{"lat":53.1676,"lon":34.2052,"time":"2026-07-12T11:59:27+00:00","location":"Выгоничский район","status":"approaching","count":null}],"firstSeen":"2026-07-12T11:59:27+00:00","lastSeen":"2026-07-12T11:59:27+00:00","ended":false,"distanceKm":79},{"id":"trk-39","threatClass":"drone","points":[{"lat":53.3413,"lon":35.6035,"time":"2026-07-12T13:50:22+00:00","location":"Знаменский район","status":"approaching","count":null},{"lat":53.4361,"lon":35.988,"time":"2026-07-12T13:50:22+00:00","location":"Болховский район","status":"approaching","count":null}],"firstSeen":"2026-07-12T13:50:22+00:00","lastSeen":"2026-07-12T13:50:22+00:00","ended":false,"distanceKm":28}],"updatedAt":"2026-07-12T13:51:52.042Z"}