{"tracks":[{"id":"trk-8","threatClass":"drone","points":[{"lat":45.2411,"lon":35.9763,"time":"2026-07-11T13:35:53+00:00","location":"Керченский полуостров","status":"approaching","count":null},{"lat":46.4285,"lon":34.5761,"time":"2026-07-11T14:30:14+00:00","location":"Генический район","status":"approaching","count":null}],"firstSeen":"2026-07-11T13:35:53+00:00","lastSeen":"2026-07-11T14:30:14+00:00","ended":false,"distanceKm":171},{"id":"trk-11","threatClass":"drone","points":[{"lat":53,"lon":33.5,"time":"2026-07-11T19:34:42+00:00","location":"Брянская область","status":"unknown","count":null},{"lat":53.1482,"lon":36.3186,"time":"2026-07-11T20:23:02+00:00","location":"Валуйский район","status":"unknown","count":null}],"firstSeen":"2026-07-11T19:34:42+00:00","lastSeen":"2026-07-11T20:23:02+00:00","ended":false,"distanceKm":189},{"id":"trk-15","threatClass":"drone","points":[{"lat":50.0371,"lon":38.011,"time":"2026-07-11T20:26:36+00:00","location":"Двулучное","status":"approaching","count":null},{"lat":50.2069,"lon":38.0997,"time":"2026-07-11T20:26:36+00:00","location":"Валуйки","status":"approaching","count":null}],"firstSeen":"2026-07-11T20:26:36+00:00","lastSeen":"2026-07-11T20:26:36+00:00","ended":false,"distanceKm":20}],"updatedAt":"2026-07-11T20:35:02.513Z"}